$GPGGA,,,,,,0,,,,,,,,*66
$GPVTG,,T,,M,,N,,K,N*2C
$GPRMC,,V,,,,,,,,,,N*53
$GPGSA,A,1,,,,,,,,,,,,,,,*1E
$GNGSA,A,1,,,,,,,,,,,,,,,*00
$GPGSV,3,1,12,02,39,142,27,06,38,082,30,12,46,314,33,13,08,180,27*77
$GPGSV,3,2,12,14,03,322,25,15,23,215,23,17,13,042,23,19,40,039,27*7B
$GPGSV,3,3,12,24,77,305,28,25,17,289,23,29,05,226,20,32,01,323,24*7D
$GLGSV,2,1,07,74,58,074,32,73,16,118,24,,,,30,86,18,205,29*58
$GLGSV,2,2,07,75,42,338,23,84,47,030,23,85,74,195,23*50
$GPGGA,145831.3,3206.364682,N,03512.472755,E,1,11,0.7,648.5,M,19.0,M,,*5C
$GPVTG,84.8,T,81.8,M,0.4,N,0.7,K,A*25
$GPRMC,145831.3,A,3206.364682,N,03512.472755,E,0.4,84.8,040416,3.0,E,A*31
$GPGSA,A,2,02,06,12,13,15,17,19,24,25,29,32,,1.0,0.7,0.7*36
$GNGSA,A,2,02,06,12,13,15,17,19,24,25,29,32,,1.0,0.7,0.7*28
$GNGSA,A,2,74,86,75,84,85,,,,,,,,1.0,0.7,0.7*22
$GPGSV,3,1,12,02,39,142,24,06,38,082,30,12,46,314,26,13,08,180,27*70
$GPGSV,3,2,12,14,03,322,17,15,23,215,24,17,13,042,22,19,40,039,23*78
$GPGSV,3,3,12,24,77,305,23,25,17,289,30,29,05,226,18,32,01,323,20*7B
$GLGSV,2,1,07,74,58,074,31,73,16,118,26,,,,27,86,18,205,25*53
$GLGSV,2,2,07,75,42,338,23,84,47,030,22,85,74,195,24*56
$GPGGA,145832.3,3206.365857,N,03512.472723,E,1,11,0.7,640.7,M,19.0,M,,*53
$GPVTG,84.8,T,81.8,M,0.7,N,1.4,K,A*24
$GPRMC,145832.3,A,3206.365857,N,03512.472723,E,0.7,84.8,040416,3.0,E,A*37
$GPGSA,A,2,02,06,12,13,15,17,19,24,25,29,32,,1.0,0.7,0.7*36
$GNGSA,A,2,02,06,12,13,15,17,19,24,25,29,32,,1.0,0.7,0.7*28
$GNGSA,A,2,74,86,75,84,85,,,,,,,,1.0,0.7,0.7*22
$GPGSV,3,1,12,02,39,142,21,06,38,082,27,12,46,314,26,13,08,180,22*76
$GPGSV,3,2,12,14,03,322,17,15,23,215,25,17,13,042,20,19,40,039,20*78
$GPGSV,3,3,12,24,77,305,25,25,17,289,29,29,05,226,18,32,01,323,20*75
$GLGSV,2,1,07,74,58,074,30,73,16,118,28,,,,20,86,18,205,27*59
$GLGSV,2,2,07,75,42,338,22,84,47,030,21,85,74,195,21*51
$GPGGA,145833.0,3206.364461,N,03512.471923,E,1,11,0.7,647.4,M,19.0,M,,*50
$GPVTG,84.8,T,81.8,M,0.0,N,0.0,K,A*26
$GPRMC,145833.0,A,3206.364461,N,03512.471923,E,0.0,84.8,040416,3.0,E,A*37
$GPGSA,A,2,02,06,12,13,15,17,19,24,25,29,32,,1.0,0.7,0.7*36
$GNGSA,A,2,02,06,12,13,15,17,19,24,25,29,32,,1.0,0.7,0.7*28
$GNGSA,A,2,74,86,75,84,85,,,,,,,,1.0,0.7,0.7*22
$GPGSV,3,1,12,02,39,142,24,06,38,082,25,12,46,314,22,13,08,180,23*74
$GPGSV,3,2,12,14,03,322,17,15,23,215,20,17,13,042,20,19,40,039,25*78
$GPGSV,3,3,12,24,77,305,28,25,17,289,20,29,05,226,17,32,01,323,20*7E
$GLGSV,2,1,07,74,58,074,23,73,16,118,24,,,,22,86,18,205,21*53
$GLGSV,2,2,07,75,42,338,21,84,47,030,21,85,74,195,18*58
$GPGGA,145834.0,3206.364134,N,03512.471870,E,1,10,0.7,647.4,M,19.0,M,,*54
$GPVTG,84.8,T,81.8,M,0.0,N,0.0,K,A*26
$GPRMC,145834.0,A,3206.364134,N,03512.471870,E,0.0,84.8,040416,3.0,E,A*32
$GPGSA,A,2,02,06,12,13,15,17,19,24,25,29,,,1.0,0.7,0.7*37
$GNGSA,A,2,02,06,12,13,15,17,19,24,25,29,,,1.0,0.7,0.7*29
$GNGSA,A,2,74,75,84,85,86,,,,,,,,1.0,0.7,0.7*22
$GPGSV,3,1,12,02,39,142,24,06,38,082,26,12,46,314,25,13,08,180,19*79
$GPGSV,3,2,12,14,03,322,17,15,23,215,24,17,13,042,20,19,40,039,24*7D
$GPGSV,3,3,12,24,77,305,23,25,17,289,27,29,05,226,17,32,01,323,18*79
$GLGSV,2,1,07,74,58,074,28,73,16,118,27,,,,23,86,18,205,26*5D
$GLGSV,2,2,07,75,42,338,21,84,47,030,21,85,74,195,23*50
$GPGGA,145835.0,3206.362799,N,03512.471479,E,1,10,0.7,647.4,M,19.0,M,,*57
$GPVTG,84.8,T,81.8,M,0.0,N,0.0,K,A*26
$GPRMC,145835.0,A,3206.362799,N,03512.471479,E,0.0,84.8,040416,3.0,E,A*31
$GPGSA,A,2,02,06,12,13,15,17,19,24,25,29,,,1.0,0.7,0.7*37
$GNGSA,A,2,02,06,12,13,15,17,19,24,25,29,,,1.0,0.7,0.7*29
$GNGSA,A,2,74,75,84,85,86,,,,,,,,1.0,0.7,0.7*22
$GPGSV,3,1,12,02,39,142,20,06,38,082,26,12,46,314,23,13,08,180,21*70
$GPGSV,3,2,12,14,03,322,19,15,23,215,24,17,13,042,18,19,40,039,28*74
$GPGSV,3,3,12,24,77,305,18,25,17,289,23,29,05,226,17,32,01,323,18*75
$GLGSV,2,1,07,74,58,074,25,73,16,118,21,,,,25,86,18,205,23*55
$GLGSV,2,2,07,75,42,338,21,84,47,030,19,85,74,195,20*58
$GPGGA,145836.0,3206.362587,N,03512.471528,E,1,10,0.7,647.4,M,19.0,M,,*5C
$GPVTG,84.8,T,81.8,M,0.0,N,0.0,K,A*26
$GPRMC,145836.0,A,3206.362587,N,03512.471528,E,0.0,84.8,040416,3.0,E,A*3A
$GPGSA,A,2,02,06,12,13,15,17,19,24,25,29,,,1.0,0.7,0.7*37
$GNGSA,A,2,02,06,12,13,15,17,19,24,25,29,,,1.0,0.7,0.7*29
$GNGSA,A,2,74,75,84,85,86,,,,,,,,1.0,0.7,0.7*22
$GPGSV,3,1,12,02,39,142,26,06,38,082,30,12,46,314,24,13,08,180,19*7D
$GPGSV,3,2,12,14,03,322,19,15,23,215,20,17,13,042,24,19,40,039,22*75
$GPGSV,3,3,12,24,77,305,22,25,17,289,18,29,05,226,17,32,01,323,16*7A
$GLGSV,2,1,07,74,58,074,28,73,16,118,18,,,,23,86,18,205,23*54
$GLGSV,2,2,07,75,42,338,22,84,47,030,19,85,74,195,21*5A
$GPGGA,145837.0,3206.362493,N,03512.471073,E,1,10,0.7,647.4,M,19.0,M,,*52
$GPVTG,84.8,T,81.8,M,0.0,N,0.0,K,A*26
$GPRMC,145837.0,A,3206.362493,N,03512.471073,E,0.0,84.8,040416,3.0,E,A*34
$GPGSA,A,2,02,06,12,13,15,17,19,24,25,29,,,1.0,0.7,0.7*37
$GNGSA,A,2,02,06,12,13,15,17,19,24,25,29,,,1.0,0.7,0.7*29
$GNGSA,A,2,74,75,84,85,86,,,,,,,,1.0,0.7,0.7*22
$GPGSV,3,1,12,02,39,142,26,06,38,082,20,12,46,314,24,13,08,180,19*7C
$GPGSV,3,2,12,14,03,322,19,15,23,215,20,17,13,042,24,19,40,039,16*72
$GPGSV,3,3,12,24,77,305,17,25,17,289,18,29,05,226,16,32,01,323,16*7D
$GLGSV,2,1,07,74,58,074,19,73,16,118,18,,,,16,86,18,205,23*50
$GLGSV,2,2,07,75,42,338,22,84,47,030,18,85,74,195,21*5B
$GPGGA,145838.0,3206.362521,N,03512.471008,E,1,10,0.7,647.4,M,19.0,M,,*59
$GPVTG,84.8,T,81.8,M,0.0,N,0.0,K,A*26
$GPRMC,145838.0,A,3206.362521,N,03512.471008,E,0.0,84.8,040416,3.0,E,A*3F
$GPGSA,A,2,02,06,12,13,15,17,19,24,25,29,,,1.0,0.7,0.7*37
$GNGSA,A,2,02,06,12,13,15,17,19,24,25,29,,,1.0,0.7,0.7*29
$GNGSA,A,2,74,75,84,85,86,,,,,,,,1.0,0.7,0.7*22
$GPGSV,3,1,12,02,39,142,26,06,38,082,23,12,46,314,24,13,08,180,19*7F
$GPGSV,3,2,12,14,03,322,19,15,23,215,15,17,13,042,24,19,40,039,16*74
$GPGSV,3,3,12,24,77,305,17,25,17,289,16,29,05,226,16,32,01,323,16*73
$GLGSV,2,1,07,74,58,074,23,73,16,118,16,,,,16,86,18,205,16*51
$GLGSV,2,2,07,75,42,338,22,84,47,030,17,85,74,195,16*50
$GPGGA,145839.0,3206.362546,N,03512.471002,E,1,10,0.7,647.4,M,19.0,M,,*53
$GPVTG,84.8,T,81.8,M,0.0,N,0.0,K,A*26
$GPRMC,145839.0,A,3206.362546,N,03512.471002,E,0.0,84.8,040416,3.0,E,A*35
$GPGSA,A,2,02,06,12,13,15,17,19,24,25,29,,,1.0,0.7,0.7*37
$GNGSA,A,2,02,06,12,13,15,17,19,24,25,29,,,1.0,0.7,0.7*29
$GNGSA,A,2,74,75,84,85,86,,,,,,,,1.0,0.7,0.7*22
$GPGSV,3,1,12,02,39,142,15,06,38,082,23,12,46,314,24,13,08,180,19*7F
$GPGSV,3,2,12,14,03,322,19,15,23,215,20,17,13,042,24,19,40,039,16*72
$GPGSV,3,3,12,24,77,305,17,25,17,289,16,29,05,226,16,32,01,323,16*73
$GLGSV,2,1,07,74,58,074,23,73,16,118,16,,,,16,86,18,205,16*51
$GLGSV,2,2,07,75,42,338,22,84,47,030,17,85,74,195,16*50
$GPGGA,145840.0,3206.362543,N,03512.470999,E,1,10,0.7,647.4,M,19.0,M,,*52
$GPVTG,84.8,T,81.8,M,0.0,N,0.0,K,A*26
$GPRMC,145840.0,A,3206.362543,N,03512.470999,E,0.0,84.8,040416,3.0,E,A*34
$GPGSA,A,2,02,06,12,13,15,17,19,24,25,29,,,1.0,0.7,0.7*37
$GNGSA,A,2,02,06,12,13,15,17,19,24,25,29,,,1.0,0.7,0.7*29
$GNGSA,A,2,74,75,84,85,86,,,,,,,,1.0,0.7,0.7*22
$GPGSV,3,1,12,02,39,142,15,06,38,082,23,12,46,314,24,13,08,180,19*7F
$GPGSV,3,2,12,14,03,322,19,15,23,215,20,17,13,042,24,19,40,039,16*72
$GPGSV,3,3,12,24,77,305,15,25,17,289,16,29,05,226,15,32,01,323,16*72
$GLGSV,2,1,07,74,58,074,22,73,16,118,16,,,,16,86,18,205,16*50
$GLGSV,2,2,07,75,42,338,22,84,47,030,16,85,74,195,16*51
$GPGGA,145841.0,3206.362579,N,03512.471064,E,1,10,0.7,647.4,M,19.0,M,,*50
$GPVTG,84.8,T,81.8,M,0.0,N,0.0,K,A*26
$GPRMC,145841.0,A,3206.362579,N,03512.471064,E,0.0,84.8,040416,3.0,E,A*36
$GPGSA,A,2,02,06,12,13,15,17,19,24,25,29,,,1.0,0.7,0.7*37
$GNGSA,A,2,02,06,12,13,15,17,19,24,25,29,,,1.0,0.7,0.7*29
$GNGSA,A,2,74,75,84,85,86,,,,,,,,1.0,0.7,0.7*22
$GPGSV,3,1,12,02,39,142,16,06,38,082,22,12,46,314,24,13,08,180,19*7D
$GPGSV,3,2,12,14,03,322,19,15,23,215,20,17,13,042,13,19,40,039,16*76
$GPGSV,3,3,12,24,77,305,15,25,17,289,14,29,05,226,15,32,01,323,16*70
$GLGSV,2,1,07,74,58,074,19,73,16,118,16,,,,12,86,18,205,15*5F
$GLGSV,2,2,07,75,42,338,22,84,47,030,16,85,74,195,18*5F
$GPGGA,145842.0,3206.362521,N,03512.471005,E,1,10,0.7,647.4,M,19.0,M,,*59
$GPVTG,84.8,T,81.8,M,0.0,N,0.0,K,A*26
$GPRMC,145842.0,A,3206.362521,N,03512.471005,E,0.0,84.8,040416,3.0,E,A*3F
$GPGSA,A,2,02,06,12,13,15,17,19,24,25,29,,,1.0,0.7,0.7*37
$GNGSA,A,2,02,06,12,13,15,17,19,24,25,29,,,1.0,0.7,0.7*29
$GNGSA,A,2,74,75,84,85,86,,,,,,,,1.0,0.7,0.7*22
$GPGSV,3,1,12,02,39,142,17,06,38,082,21,12,46,314,24,13,08,180,19*7F
$GPGSV,3,2,12,14,03,322,19,15,23,215,15,17,13,042,13,19,40,039,20*75
$GPGSV,3,3,12,24,77,305,15,25,17,289,14,29,05,226,15,32,01,323,16*70
$GLGSV,2,1,07,74,58,074,19,73,16,118,16,,,,12,86,18,205,20*59
$GLGSV,2,2,07,75,42,338,22,84,47,030,15,85,74,195,20*57
$GPGGA,145843.0,3206.362543,N,03512.471178,E,1,10,0.7,647.4,M,19.0,M,,*57
$GPVTG,84.8,T,81.8,M,0.0,N,0.0,K,A*26
$GPRMC,145843.0,A,3206.362543,N,03512.471178,E,0.0,84.8,040416,3.0,E,A*31
$GPGSA,A,2,02,06,12,13,15,17,19,24,25,29,,,1.0,0.7,0.7*37
$GNGSA,A,2,02,06,12,13,15,17,19,24,25,29,,,1.0,0.7,0.7*29
$GNGSA,A,2,74,75,84,85,86,,,,,,,,1.0,0.7,0.7*22
$GPGSV,3,1,12,02,39,142,17,06,38,082,24,12,46,314,24,13,08,180,19*7A
$GPGSV,3,2,12,14,03,322,19,15,23,215,15,17,13,042,13,19,40,039,21*74
$GPGSV,3,3,12,24,77,305,15,25,17,289,14,29,05,226,15,32,01,323,16*70
$GLGSV,2,1,07,74,58,074,18,73,16,118,15,,,,12,86,18,205,21*5A
$GLGSV,2,2,07,75,42,338,22,84,47,030,15,85,74,195,19*5D
$GPGGA,145844.0,3206.362602,N,03512.471128,E,1,08,0.9,647.4,M,19.0,M,,*54
$GPVTG,84.8,T,81.8,M,0.0,N,0.0,K,A*26
$GPRMC,145844.0,A,3206.362602,N,03512.471128,E,0.0,84.8,040416,3.0,E,A*35
$GPGSA,A,2,02,06,15,17,19,24,25,29,,,,,1.2,0.9,0.8*35
$GNGSA,A,2,02,06,15,17,19,24,25,29,,,,,1.2,0.9,0.8*2B
$GNGSA,A,2,74,84,85,86,,,,,,,,,1.2,0.9,0.8*23
$GPGSV,3,1,12,02,39,142,17,06,38,082,23,12,46,314,24,13,08,180,19*7D
$GPGSV,3,2,12,14,03,322,19,15,23,215,15,17,13,042,13,19,40,039,18*7E
$GPGSV,3,3,12,24,77,305,15,25,17,289,16,29,05,226,15,32,01,323,16*72
$GLGSV,2,1,07,74,58,074,22,73,16,118,15,,,,12,86,18,205,21*53
$GLGSV,2,2,07,75,42,338,22,84,47,030,14,85,74,195,19*5C
$GPGGA,145845.0,3206.362588,N,03512.471233,E,1,08,0.9,647.4,M,19.0,M,,*5D
$GPVTG,84.8,T,81.8,M,0.0,N,0.0,K,A*26
$GPRMC,145845.0,A,3206.362588,N,03512.471233,E,0.0,84.8,040416,3.0,E,A*3C
$GPGSA,A,2,02,06,15,17,19,24,25,29,,,,,1.2,0.9,0.8*35
$GNGSA,A,2,02,06,15,17,19,24,25,29,,,,,1.2,0.9,0.8*2B
$GNGSA,A,2,74,84,85,86,,,,,,,,,1.2,0.9,0.8*23
$GPGSV,3,1,12,02,39,142,22,06,38,082,23,12,46,314,24,13,08,180,19*7B
$GPGSV,3,2,12,14,03,322,19,15,23,215,15,17,13,042,13,19,40,039,19*7F
$GPGSV,3,3,12,24,77,305,15,25,17,289,18,29,05,226,15,32,01,323,16*7C
$GLGSV,2,1,07,74,58,074,17,73,16,118,15,,,,12,86,18,205,21*55
$GLGSV,2,2,07,75,42,338,22,84,47,030,14,85,74,195,15*50
$GPGGA,145846.0,3206.362639,N,03512.471265,E,1,08,0.9,647.4,M,19.0,M,,*54
$GPVTG,84.8,T,81.8,M,0.0,N,0.0,K,A*26
$GPRMC,145846.0,A,3206.362639,N,03512.471265,E,0.0,84.8,040416,3.0,E,A*35
$GPGSA,A,2,02,06,15,17,19,24,25,29,,,,,1.2,0.9,0.8*35
$GNGSA,A,2,02,06,15,17,19,24,25,29,,,,,1.2,0.9,0.8*2B
$GNGSA,A,2,74,84,85,86,,,,,,,,,1.2,0.9,0.8*23
$GPGSV,3,1,12,02,39,142,22,06,38,082,23,12,46,314,24,13,08,180,19*7B
$GPGSV,3,2,12,14,03,322,19,15,23,215,15,17,13,042,13,19,40,039,20*75
$GPGSV,3,3,12,24,77,305,15,25,17,289,19,29,05,226,15,32,01,323,16*7D
$GLGSV,2,1,07,74,58,074,17,73,16,118,15,,,,12,86,18,205,21*55
$GLGSV,2,2,07,75,42,338,10,84,47,030,14,85,74,195,16*52
$GPGGA,145847.0,3206.362544,N,03512.471346,E,1,08,0.8,647.4,M,19.0,M,,*5D
$GPVTG,84.8,T,81.8,M,0.0,N,0.0,K,A*26
$GPRMC,145847.0,A,3206.362544,N,03512.471346,E,0.0,84.8,040416,3.0,E,A*3D
$GPGSA,A,2,02,06,15,17,19,24,25,29,,,,,1.1,0.8,0.8*37
$GNGSA,A,2,02,06,15,17,19,24,25,29,,,,,1.1,0.8,0.8*29
$GNGSA,A,2,74,75,84,85,86,,,,,,,,1.1,0.8,0.8*23
$GPGSV,3,1,12,02,39,142,27,06,38,082,29,12,46,314,13,13,08,180,12*7B
$GPGSV,3,2,12,14,03,322,8,15,23,215,19,17,13,042,16,19,40,039,23*4F
$GPGSV,3,3,12,24,77,305,18,25,17,289,17,29,05,226,15,32,01,323,11*79
$GLGSV,2,1,07,74,58,074,24,73,16,118,15,,,,13,86,18,205,14*52
$GLGSV,2,2,07,75,42,338,20,84,47,030,14,85,74,195,23*57
$GPGGA,145848.0,3206.362615,N,03512.471330,E,1,10,0.7,647.4,M,19.0,M,,*52
$GPVTG,84.8,T,81.8,M,0.0,N,0.0,K,A*26
$GPRMC,145848.0,A,3206.362615,N,03512.471330,E,0.0,84.8,040416,3.0,E,A*34
$GPGSA,A,2,02,06,12,13,15,17,19,24,25,29,,,1.0,0.7,0.7*37
$GNGSA,A,2,02,06,12,13,15,17,19,24,25,29,,,1.0,0.7,0.7*29
$GNGSA,A,2,74,75,84,85,86,,,,,,,,1.0,0.7,0.7*22
$GPGSV,3,1,12,02,39,142,31,06,38,082,27,12,46,314,26,13,08,180,24*71
$GPGSV,3,2,12,15,23,215,29,17,13,042,26,19,40,039,27,24,77,305,17*70
$GPGSV,3,3,12,25,17,289,18,29,05,226,15,32,01,323,21,14,03,322,*79
$GLGSV,2,1,07,74,58,074,29,73,16,118,13,,,,19,86,18,205,25*51
$GLGSV,2,2,07,75,42,338,19,84,47,030,14,85,74,195,23*5D
$GPGGA,145849.0,3206.362775,N,03512.471125,E,1,09,0.7,647.4,M,19.0,M,,*5A
$GPVTG,84.8,T,81.8,M,0.0,N,0.0,K,A*26
$GPRMC,145849.0,A,3206.362775,N,03512.471125,E,0.0,84.8,040416,3.0,E,A*34
$GPGSA,A,2,02,06,12,13,15,17,19,24,25,,,,1.1,0.7,0.8*32
$GNGSA,A,2,02,06,12,13,15,17,19,24,25,,,,1.1,0.7,0.8*2C
$GNGSA,A,2,74,75,84,85,86,,,,,,,,1.1,0.7,0.8*2C
$GPGSV,3,1,12,02,39,142,29,06,38,082,27,12,46,314,25,13,08,180,23*7C
$GPGSV,3,2,12,15,23,215,29,17,13,042,25,19,40,039,26,24,77,305,20*76
$GPGSV,3,3,12,25,17,289,18,29,05,226,15,32,01,323,20,14,03,322,*78
$GLGSV,2,1,07,74,58,074,30,73,16,118,19,,,,18,86,18,205,23*54
$GLGSV,2,2,07,75,42,338,21,84,47,030,14,85,74,195,22*57
$GPGGA,145850.0,3206.363363,N,03512.470872,E,1,09,0.7,647.4,M,19.0,M,,*5A
$GPVTG,84.8,T,81.8,M,0.0,N,0.0,K,A*26
$GPRMC,145850.0,A,3206.363363,N,03512.470872,E,0.0,84.8,040416,3.0,E,A*34
$GPGSA,A,2,02,06,12,13,15,17,19,24,25,,,,1.1,0.7,0.8*32
$GNGSA,A,2,02,06,12,13,15,17,19,24,25,,,,1.1,0.7,0.8*2C
$GNGSA,A,2,74,75,84,85,86,,,,,,,,1.1,0.7,0.8*2C
$GPGSV,3,1,12,02,39,142,23,06,38,082,29,12,46,314,19,13,08,180,17*70
$GPGSV,3,2,12,15,23,215,30,17,13,042,23,19,40,039,26,24,77,305,20*78
$GPGSV,3,3,12,25,17,289,18,29,05,226,14,32,01,323,19,14,03,322,*73
$GLGSV,2,1,07,74,58,074,24,73,16,118,27,,,,20,86,18,205,29*5D
$GLGSV,2,2,07,75,42,338,18,84,47,030,14,85,74,195,17*5B
$GPGGA,145851.0,3206.363565,N,03512.470765,E,1,10,0.7,647.5,M,19.0,M,,*5B
$GPVTG,84.8,T,81.8,M,0.0,N,0.0,K,A*26
$GPRMC,145851.0,A,3206.363565,N,03512.470765,E,0.0,84.8,040416,3.0,E,A*3C
$GPGSA,A,2,02,06,12,13,15,17,19,24,25,29,,,1.0,0.7,0.7*37
$GNGSA,A,2,02,06,12,13,15,17,19,24,25,29,,,1.0,0.7,0.7*29
$GNGSA,A,2,74,75,84,85,86,,,,,,,,1.0,0.7,0.7*22
$GPGSV,3,1,12,02,39,142,29,06,38,082,30,12,46,314,20,13,08,180,18*77
$GPGSV,3,2,12,14,03,322,21,15,23,215,29,17,13,042,26,19,40,039,15*71
$GPGSV,3,3,12,24,77,305,20,25,17,289,23,29,05,226,20,32,01,323,22*73
$GLGSV,2,1,07,74,58,074,28,73,16,118,28,,,,21,86,18,205,32*55
$GLGSV,2,2,07,75,42,338,17,84,47,030,16,85,74,195,20*52
$GPGGA,145852.0,3206.363466,N,03512.470629,E,1,10,0.7,647.5,M,19.0,M,,*53
$GPVTG,84.8,T,81.8,M,0.0,N,0.0,K,A*26
$GPRMC,145852.0,A,3206.363466,N,03512.470629,E,0.0,84.8,040416,3.0,E,A*34
$GPGSA,A,2,02,06,12,13,15,17,19,24,25,29,,,1.0,0.7,0.7*37
$GNGSA,A,2,02,06,12,13,15,17,19,24,25,29,,,1.0,0.7,0.7*29
$GNGSA,A,2,74,75,84,85,86,,,,,,,,1.0,0.7,0.7*22
$GPGSV,3,1,12,02,39,142,29,06,38,082,28,12,46,314,18,13,08,180,19*74
$GPGSV,3,2,12,14,03,322,24,15,23,215,28,17,13,042,24,19,40,039,15*77
$GPGSV,3,3,12,24,77,305,15,25,17,289,22,29,05,226,20,32,01,323,24*72
$GLGSV,2,1,07,74,58,074,28,73,16,118,27,,,,19,86,18,205,29*5B
$GLGSV,2,2,07,75,42,338,21,84,47,030,20,85,74,195,21*53
$GPGGA,145853.0,3206.363570,N,03512.470660,E,1,10,0.7,647.5,M,19.0,M,,*59
$GPVTG,84.8,T,81.8,M,0.0,N,0.0,K,A*26
$GPRMC,145853.0,A,3206.363570,N,03512.470660,E,0.0,84.8,040416,3.0,E,A*3E
$GPGSA,A,2,02,06,12,13,15,17,19,24,25,29,,,1.0,0.7,0.7*37
$GNGSA,A,2,02,06,12,13,15,17,19,24,25,29,,,1.0,0.7,0.7*29
$GNGSA,A,2,74,75,84,85,86,,,,,,,,1.0,0.7,0.7*22
$GPGSV,3,1,12,02,39,142,24,06,38,082,31,12,46,314,27,13,08,180,23*74
$GPGSV,3,2,12,14,03,322,19,15,23,215,23,17,13,042,23,19,40,039,18*78
$GPGSV,3,3,12,24,77,305,24,25,17,289,21,29,05,226,21,32,01,323,22*74
$GLGSV,2,1,07,74,58,074,30,73,16,118,17,,,,19,86,18,205,21*59
$GLGSV,2,2,07,75,42,338,23,84,47,030,20,85,74,195,28*58
$GPGGA,145854.0,3206.363544,N,03512.470579,E,1,10,0.7,647.5,M,19.0,M,,*52
$GPVTG,84.8,T,81.8,M,0.0,N,0.0,K,A*26
$GPRMC,145854.0,A,3206.363544,N,03512.470579,E,0.0,84.8,040416,3.0,E,A*35
$GPGSA,A,2,02,06,12,13,15,17,19,24,25,29,,,1.0,0.7,0.7*37
$GNGSA,A,2,02,06,12,13,15,17,19,24,25,29,,,1.0,0.7,0.7*29
$GNGSA,A,2,74,75,84,85,86,,,,,,,,1.0,0.7,0.7*22
$GPGSV,3,1,12,02,39,142,34,06,38,082,29,12,46,314,21,13,08,180,23*7A
$GPGSV,3,2,12,14,03,322,19,15,23,215,24,17,13,042,25,19,40,039,18*79
$GPGSV,3,3,12,24,77,305,23,25,17,289,22,29,05,226,19,32,01,323,19*73
$GLGSV,2,1,07,74,58,074,25,73,16,118,17,,,,19,86,18,205,20*5C
$GLGSV,2,2,07,75,42,338,19,84,47,030,20,85,74,195,25*5C
$GPGGA,145855.0,3206.363540,N,03512.470569,E,1,10,0.7,647.5,M,19.0,M,,*56
$GPVTG,84.8,T,81.8,M,0.0,N,0.0,K,A*26
$GPRMC,145855.0,A,3206.363540,N,03512.470569,E,0.0,84.8,040416,3.0,E,A*31
$GPGSA,A,2,02,06,12,13,15,17,19,24,25,29,,,1.0,0.7,0.7*37
$GNGSA,A,2,02,06,12,13,15,17,19,24,25,29,,,1.0,0.7,0.7*29
$GNGSA,A,2,74,75,84,85,86,,,,,,,,1.0,0.7,0.7*22
$GPGSV,3,1,12,02,39,142,37,06,38,082,32,12,46,314,28,13,08,180,25*7C
$GPGSV,3,2,12,14,03,322,20,15,23,215,19,17,13,042,24,19,40,039,18*7C
$GPGSV,3,3,12,24,77,305,19,25,17,289,17,29,05,226,19,32,01,323,21*77
$GLGSV,2,1,07,74,58,074,24,73,16,118,17,,,,19,86,18,205,20*5D
$GLGSV,2,2,07,75,42,338,19,84,47,030,15,85,74,195,31*5F
$GPGGA,145856.0,3206.363526,N,03512.470568,E,1,10,0.7,647.5,M,19.0,M,,*54
$GPVTG,84.8,T,81.8,M,0.0,N,0.0,K,A*26
$GPRMC,145856.0,A,3206.363526,N,03512.470568,E,0.0,84.8,040416,3.0,E,A*33
$GPGSA,A,2,02,06,12,13,15,17,19,24,25,29,,,1.0,0.7,0.7*37
$GNGSA,A,2,02,06,12,13,15,17,19,24,25,29,,,1.0,0.7,0.7*29
$GNGSA,A,2,74,75,84,85,86,,,,,,,,1.0,0.7,0.7*22
$GPGSV,3,1,12,02,39,142,37,06,38,082,33,12,46,314,27,13,08,180,24*73
$GPGSV,3,2,12,14,03,322,18,15,23,215,16,17,13,042,23,19,40,039,22*76
$GPGSV,3,3,12,24,77,305,22,25,17,289,18,29,05,226,19,32,01,323,21*70
$GLGSV,2,1,07,74,58,074,25,73,16,118,17,,,,14,86,18,205,20*51
$GLGSV,2,2,07,75,42,338,18,84,47,030,15,85,74,195,30*5F
$GPGGA,145857.0,3206.363512,N,03512.470578,E,1,10,0.7,647.5,M,19.0,M,,*53
$GPVTG,84.8,T,81.8,M,0.0,N,0.0,K,A*26
$GPRMC,145857.0,A,3206.363512,N,03512.470578,E,0.0,84.8,040416,3.0,E,A*34
$GPGSA,A,2,02,06,12,13,15,17,19,24,25,29,,,1.0,0.7,0.7*37
$GNGSA,A,2,02,06,12,13,15,17,19,24,25,29,,,1.0,0.7,0.7*29
$GNGSA,A,2,74,75,84,85,86,,,,,,,,1.0,0.7,0.7*22
$GPGSV,3,1,12,02,39,142,36,06,38,082,33,12,46,314,29,13,08,180,25*7D
$GPGSV,3,2,12,14,03,322,18,15,23,215,16,17,13,042,22,19,40,039,20*75
$GPGSV,3,3,12,24,77,305,22,25,17,289,21,29,05,226,19,32,01,323,21*7A
$GLGSV,2,1,07,74,58,074,24,73,16,118,14,,,,14,86,18,205,14*54
$GLGSV,2,2,07,75,42,338,19,84,47,030,15,85,74,195,29*56
$GPGGA,145858.0,3206.363433,N,03512.470608,E,1,10,0.7,647.5,M,19.0,M,,*5A
$GPVTG,84.8,T,81.8,M,0.5,N,0.9,K,A*2A
$GPRMC,145858.0,A,3206.363433,N,03512.470608,E,0.5,84.8,040416,3.0,E,A*38
$GPGSA,A,2,02,06,12,13,15,17,19,24,25,29,,,1.0,0.7,0.7*37
$GNGSA,A,2,02,06,12,13,15,17,19,24,25,29,,,1.0,0.7,0.7*29
$GNGSA,A,2,74,75,84,85,86,,,,,,,,1.0,0.7,0.7*22
$GPGSV,3,1,12,02,39,142,34,06,38,082,31,12,46,314,30,13,08,180,23*73
$GPGSV,3,2,12,14,03,322,18,15,23,215,18,17,13,042,23,19,40,039,23*79
$GPGSV,3,3,12,24,77,305,25,25,17,289,21,29,05,226,19,32,01,323,21*7D
$GLGSV,2,1,07,74,58,074,26,73,16,118,21,,,,14,86,18,205,20*57
$GLGSV,2,2,07,75,42,338,19,84,47,030,16,85,74,195,29*55
$GPGGA,145859.0,3206.363875,N,03512.470773,E,1,10,0.7,648.4,M,19.0,M,,*56
$GPVTG,84.8,T,81.8,M,0.9,N,1.7,K,A*29
$GPRMC,145859.0,A,3206.363875,N,03512.470773,E,0.9,84.8,040416,3.0,E,A*36
$GPGSA,A,2,02,06,12,13,15,17,19,24,25,29,,,1.0,0.7,0.7*37
$GNGSA,A,2,02,06,12,13,15,17,19,24,25,29,,,1.0,0.7,0.7*29
$GNGSA,A,2,74,75,84,85,86,,,,,,,,1.0,0.7,0.7*22
$GPGSV,3,1,12,02,39,142,34,06,38,082,30,12,46,314,29,13,08,180,19*73
$GPGSV,3,2,12,14,03,322,18,15,23,215,27,17,13,042,25,19,40,039,24*74
$GPGSV,3,3,12,24,77,305,28,25,17,289,23,29,05,226,16,32,01,323,21*7D
$GLGSV,2,1,07,74,58,074,20,73,16,118,17,,,,16,86,18,205,22*54
$GLGSV,2,2,07,75,42,338,21,84,47,030,18,85,74,195,30*58
$GPGGA,145900.0,3206.360934,N,03512.468972,E,1,10,0.7,651.8,M,19.0,M,,*5E
$GPVTG,173.6,T,170.7,M,2.3,N,4.3,K,A*27
$GPRMC,145900.0,A,3206.360934,N,03512.468972,E,2.3,173.6,040416,3.0,E,A*05
$GPGSA,A,2,02,06,12,13,15,17,19,24,25,29,,,1.0,0.7,0.7*37
$GNGSA,A,2,02,06,12,13,15,17,19,24,25,29,,,1.0,0.7,0.7*29
$GNGSA,A,2,74,75,84,85,86,,,,,,,,1.0,0.7,0.7*22
$GPGSV,3,1,12,02,39,142,33,06,38,082,25,12,46,314,27,13,08,180,23*77
$GPGSV,3,2,12,14,03,322,18,15,23,215,19,17,13,042,19,19,40,039,24*76
$GPGSV,3,3,12,24,77,305,29,25,17,289,23,29,05,226,24,32,01,323,21*7D
$GLGSV,2,1,07,74,58,074,27,73,16,118,23,,,,21,86,18,205,22*50
$GLGSV,2,2,07,75,42,338,23,84,47,030,18,85,74,195,28*53
$GPGGA,145901.0,3206.359895,N,03512.469315,E,1,10,0.7,651.4,M,19.0,M,,*59
$GPVTG,192.6,T,189.6,M,2.3,N,4.3,K,A*2F
$GPRMC,145901.0,A,3206.359895,N,03512.469315,E,2.3,192.6,040416,3.0,E,A*01
$GPGSA,A,2,02,06,12,13,15,17,19,24,25,29,,,1.0,0.7,0.7*37
$GNGSA,A,2,02,06,12,13,15,17,19,24,25,29,,,1.0,0.7,0.7*29
$GNGSA,A,2,74,75,84,85,86,,,,,,,,1.0,0.7,0.7*22
$GPGSV,3,1,12,02,39,142,32,06,38,082,27,12,46,314,27,13,08,180,23*74
$GPGSV,3,2,12,14,03,322,18,15,23,215,24,17,13,042,24,19,40,039,21*73
$GPGSV,3,3,12,24,77,305,30,25,17,289,20,29,05,226,24,32,01,323,15*71
$GLGSV,2,1,07,74,58,074,25,73,16,118,20,,,,21,86,18,205,19*59
$GLGSV,2,2,07,75,42,338,22,84,47,030,18,85,74,195,30*5B
$GPGGA,145902.0,3206.358988,N,03512.469139,E,1,10,0.7,652.1,M,19.0,M,,*5C
$GPVTG,200.3,T,197.3,M,2.0,N,3.7,K,A*28
$GPRMC,145902.0,A,3206.358988,N,03512.469139,E,2.0,200.3,040416,3.0,E,A*0C
$GPGSA,A,2,02,06,12,13,15,17,19,24,25,29,,,1.0,0.7,0.7*37
$GNGSA,A,2,02,06,12,13,15,17,19,24,25,29,,,1.0,0.7,0.7*29
$GNGSA,A,2,74,75,84,85,86,,,,,,,,1.0,0.7,0.7*22
$GPGSV,3,1,12,02,39,142,32,06,38,082,22,12,46,314,24,13,08,180,20*71
$GPGSV,3,2,12,14,03,322,15,15,23,215,20,17,13,042,22,19,40,039,24*79
$GPGSV,3,3,12,24,77,305,28,25,17,289,18,29,05,226,18,32,01,323,15*7C
$GLGSV,2,1,07,74,58,074,20,73,16,118,25,,,,17,86,18,205,23*55
$GLGSV,2,2,07,75,42,338,25,84,47,030,18,85,74,195,30*5C
$GPGGA,145903.0,3206.357960,N,03512.469268,E,1,10,0.7,651.6,M,19.0,M,,*57
$GPVTG,224.6,T,221.7,M,2.3,N,4.2,K,A*20
$GPRMC,145903.0,A,3206.357960,N,03512.469268,E,2.3,224.6,040416,3.0,E,A*03
$GPGSA,A,2,02,06,12,13,15,17,19,24,25,29,,,1.0,0.7,0.7*37
$GNGSA,A,2,02,06,12,13,15,17,19,24,25,29,,,1.0,0.7,0.7*29
$GNGSA,A,2,74,75,84,85,86,,,,,,,,1.0,0.7,0.7*22
$GPGSV,3,1,12,02,39,142,27,06,38,082,21,12,46,314,22,13,08,180,22*72
$GPGSV,3,2,12,14,03,322,18,15,23,215,29,17,13,042,18,19,40,039,25*75
$GPGSV,3,3,12,24,77,305,28,25,17,289,23,29,05,226,26,32,01,323,18*74
$GLGSV,2,1,07,74,58,074,25,73,16,118,20,,,,27,86,18,205,30*54
$GLGSV,2,2,07,75,42,338,20,84,47,030,21,85,74,195,32*51
$GPGGA,145904.0,3206.358130,N,03512.468424,E,1,10,0.7,653.6,M,19.0,M,,*5F
$GPVTG,248.4,T,245.4,M,3.8,N,7.0,K,A*22
$GPRMC,145904.0,A,3206.358130,N,03512.468424,E,3.8,248.4,040416,3.0,E,A*0B
$GPGSA,A,2,02,06,12,13,15,17,19,24,25,29,,,1.0,0.7,0.7*37
$GNGSA,A,2,02,06,12,13,15,17,19,24,25,29,,,1.0,0.7,0.7*29
$GNGSA,A,2,74,75,84,85,86,,,,,,,,1.0,0.7,0.7*22
$GPGSV,3,1,12,02,39,142,29,06,38,082,20,12,46,314,24,13,08,180,17*7D
$GPGSV,3,2,12,14,03,322,17,15,23,215,33,17,13,042,18,19,40,039,25*71
$GPGSV,3,3,12,24,77,305,27,25,17,289,18,29,05,226,21,32,01,323,18*74
$GLGSV,2,1,07,74,58,074,29,73,16,118,16,,,,29,86,18,205,29*5B
$GLGSV,2,2,07,75,42,338,19,84,47,030,23,85,74,195,30*5B
$GPGGA,145905.0,3206.357752,N,03512.466860,E,1,10,0.7,653.5,M,19.0,M,,*52
$GPVTG,258.0,T,255.0,M,4.7,N,8.7,K,A*22
$GPRMC,145905.0,A,3206.357752,N,03512.466860,E,4.7,258.0,040416,3.0,E,A*08
$GPGSA,A,2,02,06,12,13,15,17,19,24,25,29,,,1.0,0.7,0.7*37
$GNGSA,A,2,02,06,12,13,15,17,19,24,25,29,,,1.0,0.7,0.7*29
$GNGSA,A,2,74,75,84,85,86,,,,,,,,1.0,0.7,0.7*22
$GPGSV,3,1,12,02,39,142,20,06,38,082,20,12,46,314,28,13,08,180,19*76
$GPGSV,3,2,12,14,03,322,17,15,23,215,31,17,13,042,26,19,40,039,28*73
$GPGSV,3,3,12,24,77,305,23,25,17,289,20,29,05,226,19,32,01,323,18*70
$GLGSV,2,1,07,74,58,074,27,73,16,118,21,,,,27,86,18,205,25*53
$GLGSV,2,2,07,75,42,338,19,84,47,030,20,85,74,195,30*58
$GPGGA,145906.0,3206.357317,N,03512.465227,E,1,10,0.7,655.0,M,19.0,M,,*5D
$GPVTG,262.9,T,259.9,M,5.3,N,9.8,K,A*2C
$GPRMC,145906.0,A,3206.357317,N,03512.465227,E,5.3,262.9,040416,3.0,E,A*01
$GPGSA,A,2,02,06,12,13,15,17,19,24,25,29,,,1.0,0.7,0.7*37
$GNGSA,A,2,02,06,12,13,15,17,19,24,25,29,,,1.0,0.7,0.7*29
$GNGSA,A,2,74,75,84,85,86,,,,,,,,1.0,0.7,0.7*22
$GPGSV,3,1,12,02,39,142,20,06,38,082,22,12,46,314,30,13,08,180,26*71
$GPGSV,3,2,12,14,03,322,17,15,23,215,30,17,13,042,26,19,40,039,27*7D
$GPGSV,3,3,12,24,77,305,23,25,17,289,20,29,05,226,23,32,01,323,18*79
$GLGSV,2,1,07,74,58,074,24,73,16,118,24,,,,24,86,18,205,28*5B
$GLGSV,2,2,07,75,42,338,20,84,47,030,20,85,74,195,30*52
$GPGGA,145907.0,3206.357377,N,03512.463185,E,1,10,0.7,655.8,M,19.0,M,,*5F
$GPVTG,266.0,T,263.0,M,5.9,N,10.9,K,A*12
$GPRMC,145907.0,A,3206.357377,N,03512.463185,E,5.9,266.0,040416,3.0,E,A*0C
$GPGSA,A,2,02,06,12,13,15,17,19,24,25,29,,,1.0,0.7,0.7*37
$GNGSA,A,2,02,06,12,13,15,17,19,24,25,29,,,1.0,0.7,0.7*29
$GNGSA,A,2,74,75,84,85,86,,,,,,,,1.0,0.7,0.7*22
$GPGSV,3,1,12,02,39,142,14,06,38,082,26,12,46,314,32,13,08,180,21*77
$GPGSV,3,2,12,15,23,215,28,17,13,042,17,19,40,039,28,24,77,305,18*73
$GPGSV,3,3,12,25,17,289,16,29,05,226,23,32,01,323,18,14,03,322,*78
$GLGSV,2,1,07,74,58,074,26,73,16,118,26,,,,27,86,18,205,27*57
$GLGSV,2,2,07,75,42,338,24,84,47,030,20,85,74,195,32*54
$GPGGA,145908.0,3206.357605,N,03512.461148,E,1,10,0.7,656.3,M,19.0,M,,*5B
$GPVTG,270.3,T,267.3,M,5.8,N,10.7,K,A*1E
$GPRMC,145908.0,A,3206.357605,N,03512.461148,E,5.8,270.3,040416,3.0,E,A*05
$GPGSA,A,2,02,06,12,13,15,17,19,24,25,29,,,1.0,0.7,0.7*37
$GNGSA,A,2,02,06,12,13,15,17,19,24,25,29,,,1.0,0.7,0.7*29
$GNGSA,A,2,74,75,84,85,86,,,,,,,,1.0,0.7,0.7*22
$GPGSV,3,1,12,02,39,142,22,06,38,082,25,12,46,314,30,13,08,180,21*73
$GPGSV,3,2,12,15,23,215,29,17,13,042,21,19,40,039,27,24,77,305,21*72
$GPGSV,3,3,12,25,17,289,19,29,05,226,17,32,01,323,14,14,03,322,*7C
$GLGSV,2,1,07,74,58,074,25,73,16,118,19,,,,25,86,18,205,27*5A
$GLGSV,2,2,07,75,42,338,20,84,47,030,20,85,74,195,26*55
$GPGGA,145909.0,3206.357288,N,03512.459304,E,1,10,0.7,657.1,M,19.0,M,,*59
$GPVTG,274.4,T,271.5,M,5.7,N,10.5,K,A*11
$GPRMC,145909.0,A,3206.357288,N,03512.459304,E,5.7,274.4,040416,3.0,E,A*08
$GPGSA,A,2,02,06,12,13,15,17,19,24,25,29,,,1.0,0.7,0.7*37
$GNGSA,A,2,02,06,12,13,15,17,19,24,25,29,,,1.0,0.7,0.7*29
$GNGSA,A,2,74,75,84,85,86,,,,,,,,1.0,0.7,0.7*22
$GPGSV,3,1,12,02,39,142,19,06,38,082,21,12,46,314,29,13,08,180,20*76
$GPGSV,3,2,12,15,23,215,28,17,13,042,23,19,40,039,26,24,77,305,23*72
$GPGSV,3,3,12,25,17,289,21,29,05,226,19,32,01,323,20,14,03,322,*7E
$GLGSV,2,1,07,74,58,074,21,73,16,118,20,,,,22,86,18,205,24*50
$GLGSV,2,2,07,75,42,338,22,84,47,030,17,85,74,195,28*5D
$GPGGA,145910.0,3206.357648,N,03512.457355,E,1,10,0.7,657.1,M,19.0,M,,*53
$GPVTG,283.0,T,280.1,M,5.7,N,10.5,K,A*17
$GPRMC,145910.0,A,3206.357648,N,03512.457355,E,5.7,283.0,040416,3.0,E,A*0E
$GPGSA,A,2,02,06,12,13,15,17,19,24,25,29,,,1.0,0.7,0.7*37
$GNGSA,A,2,02,06,12,13,15,17,19,24,25,29,,,1.0,0.7,0.7*29
$GNGSA,A,2,74,75,84,85,86,,,,,,,,1.0,0.7,0.7*22
$GPGSV,3,1,12,02,39,142,19,06,38,082,25,12,46,314,23,13,08,180,20*78
$GPGSV,3,2,12,14,03,322,16,15,23,215,26,17,13,042,23,19,40,039,28*71
$GPGSV,3,3,12,24,77,305,23,25,17,289,25,29,05,226,18,32,01,323,20*7F
$GLGSV,2,1,07,74,58,074,27,73,16,118,21,,,,22,86,18,205,23*50
$GLGSV,2,2,07,75,42,338,22,84,47,030,18,85,74,195,19*50
$GPGGA,145911.0,3206.358324,N,03512.456127,E,1,10,0.7,657.2,M,19.0,M,,*57
$GPVTG,294.3,T,291.3,M,5.4,N,10.1,K,A*17
$GPRMC,145911.0,A,3206.358324,N,03512.456127,E,5.4,294.3,040416,3.0,E,A*0F
$GPGSA,A,2,02,06,12,13,15,17,19,24,25,29,,,1.0,0.7,0.7*37
$GNGSA,A,2,02,06,12,13,15,17,19,24,25,29,,,1.0,0.7,0.7*29
$GNGSA,A,2,74,75,84,85,86,,,,,,,,1.0,0.7,0.7*22
$GPGSV,3,1,12,02,39,142,20,06,38,082,24,12,46,314,24,13,08,180,19*7E
$GPGSV,3,2,12,14,03,322,16,15,23,215,26,17,13,042,24,19,40,039,24*7A
$GPGSV,3,3,12,24,77,305,25,25,17,289,20,29,05,226,20,32,01,323,19*7D
$GLGSV,2,1,07,74,58,074,27,73,16,118,21,,,,22,86,18,205,22*51
$GLGSV,2,2,07,75,42,338,24,84,47,030,18,85,74,195,26*5A
$GPGGA,145912.0,3206.359501,N,03512.454310,E,1,10,0.7,657.1,M,19.0,M,,*53
$GPVTG,308.7,T,305.7,M,6.1,N,11.2,K,A*1B
$GPRMC,145912.0,A,3206.359501,N,03512.454310,E,6.1,308.7,040416,3.0,E,A*0E
$GPGSA,A,2,02,06,12,13,15,17,19,24,25,29,,,1.0,0.7,0.7*37
$GNGSA,A,2,02,06,12,13,15,17,19,24,25,29,,,1.0,0.7,0.7*29
$GNGSA,A,2,74,75,84,85,86,,,,,,,,1.0,0.7,0.7*22
$GPGSV,3,1,12,02,39,142,16,06,38,082,25,12,46,314,24,13,08,180,18*7B
$GPGSV,3,2,12,14,03,322,16,15,23,215,27,17,13,042,22,19,40,039,20*79
$GPGSV,3,3,12,24,77,305,22,25,17,289,20,29,05,226,19,32,01,323,23*79
$GLGSV,2,1,07,74,58,074,27,73,16,118,21,,,,18,86,18,205,22*58
$GLGSV,2,2,07,75,42,338,25,84,47,030,18,85,74,195,26*5B
$GPGGA,145913.0,3206.360357,N,03512.452962,E,1,10,0.7,656.7,M,19.0,M,,*53
$GPVTG,307.3,T,304.3,M,6.7,N,12.4,K,A*16
$GPRMC,145913.0,A,3206.360357,N,03512.452962,E,6.7,307.3,040416,3.0,E,A*04
$GPGSA,A,2,02,06,12,13,15,17,19,24,25,29,,,1.0,0.7,0.7*37
$GNGSA,A,2,02,06,12,13,15,17,19,24,25,29,,,1.0,0.7,0.7*29
$GNGSA,A,2,74,75,84,85,86,,,,,,,,1.0,0.7,0.7*22
$GPGSV,3,1,12,02,39,142,25,06,38,082,19,12,46,314,25,13,08,180,18*75
$GPGSV,3,2,12,14,03,322,16,15,23,215,23,17,13,042,22,19,40,039,25*78
$GPGSV,3,3,12,24,77,305,18,25,17,289,18,29,05,226,19,32,01,323,23*7B
$GLGSV,2,1,07,74,58,074,26,73,16,118,13,,,,16,86,18,205,19*5E
$GLGSV,2,2,07,75,42,338,23,84,47,030,18,85,74,195,27*5C
$GPGGA,145914.0,3206.361842,N,03512.450465,E,1,10,0.7,657.8,M,19.0,M,,*5C
$GPVTG,302.1,T,299.1,M,7.1,N,13.1,K,A*15
$GPRMC,145914.0,A,3206.361842,N,03512.450465,E,7.1,302.1,040416,3.0,E,A*05
$GPGSA,A,2,02,06,12,13,15,17,19,24,25,29,,,1.0,0.7,0.7*37
$GNGSA,A,2,02,06,12,13,15,17,19,24,25,29,,,1.0,0.7,0.7*29
$GNGSA,A,2,74,75,84,85,86,,,,,,,,1.0,0.7,0.7*22
$GPGSV,3,1,12,02,39,142,19,06,38,082,22,12,46,314,20,13,08,180,18*77
$GPGSV,3,2,12,14,03,322,16,15,23,215,18,17,13,042,17,19,40,039,26*75
$GPGSV,3,3,12,24,77,305,20,25,17,289,17,29,05,226,19,32,01,323,23*7F
$GLGSV,2,1,07,74,58,074,24,73,16,118,20,,,,17,86,18,205,23*54
$GLGSV,2,2,07,75,42,338,24,84,47,030,16,85,74,195,24*56
$GPGGA,145915.0,3206.362236,N,03512.447868,E,1,10,0.7,656.9,M,19.0,M,,*50
$GPVTG,289.9,T,286.9,M,7.2,N,13.4,K,A*1F
$GPRMC,145915.0,A,3206.362236,N,03512.447868,E,7.2,289.9,040416,3.0,E,A*00
$GPGSA,A,2,02,06,12,13,15,17,19,24,25,29,,,1.0,0.7,0.7*37
$GNGSA,A,2,02,06,12,13,15,17,19,24,25,29,,,1.0,0.7,0.7*29
$GNGSA,A,2,74,75,84,85,86,,,,,,,,1.0,0.7,0.7*22
$GPGSV,3,1,12,02,39,142,17,06,38,082,18,12,46,314,27,13,08,180,15*7A
$GPGSV,3,2,12,14,03,322,16,15,23,215,24,17,13,042,17,19,40,039,26*7A
$GPGSV,3,3,12,24,77,305,24,25,17,289,25,29,05,226,19,32,01,323,16*7C
$GLGSV,2,1,07,74,58,074,25,73,16,118,21,,,,21,86,18,205,23*51
$GLGSV,2,2,07,75,42,338,16,84,47,030,16,85,74,195,26*55
$GPGGA,145916.0,3206.362618,N,03512.445810,E,1,10,0.7,658.4,M,19.0,M,,*55
$GPVTG,288.3,T,285.4,M,7.0,N,13.0,K,A*1C
$GPRMC,145916.0,A,3206.362618,N,03512.445810,E,7.0,288.3,040416,3.0,E,A*0F
$GPGSA,A,2,02,06,12,13,15,17,19,24,25,29,,,1.0,0.7,0.7*37
$GNGSA,A,2,02,06,12,13,15,17,19,24,25,29,,,1.0,0.7,0.7*29
$GNGSA,A,2,74,75,84,85,86,,,,,,,,1.0,0.7,0.7*22
$GPGSV,3,1,12,02,39,142,21,06,38,082,22,12,46,314,28,13,08,180,15*79
$GPGSV,3,2,12,14,03,322,16,15,23,215,25,17,13,042,17,19,40,039,26*7B
$GPGSV,3,3,12,24,77,305,26,25,17,289,22,29,05,226,19,32,01,323,21*7D
$GLGSV,2,1,07,74,58,074,22,73,16,118,20,,,,24,86,18,205,23*52
$GLGSV,2,2,07,75,42,338,21,84,47,030,19,85,74,195,21*59
$GPGGA,145917.0,3206.362009,N,03512.444458,E,1,10,0.7,657.6,M,19.0,M,,*5E
$GPVTG,272.6,T,269.7,M,6.2,N,11.5,K,A*19
$GPRMC,145917.0,A,3206.362009,N,03512.444458,E,6.2,272.6,040416,3.0,E,A*0A
$GPGSA,A,2,02,06,12,13,15,17,19,24,25,29,,,1.0,0.7,0.7*37
$GNGSA,A,2,02,06,12,13,15,17,19,24,25,29,,,1.0,0.7,0.7*29
$GNGSA,A,2,74,75,84,85,86,,,,,,,,1.0,0.7,0.7*22
$GPGSV,3,1,12,02,39,142,22,06,38,082,19,12,46,314,27,13,08,180,15*7D
$GPGSV,3,2,12,14,03,322,16,15,23,215,26,17,13,042,19,19,40,039,23*73
$GPGSV,3,3,12,24,77,305,21,25,17,289,20,29,05,226,19,32,01,323,17*7D
$GLGSV,2,1,07,74,58,074,24,73,16,118,20,,,,23,86,18,205,24*54
$GLGSV,2,2,07,75,42,338,23,84,47,030,19,85,74,195,16*5F
$GPGGA,145918.0,3206.362772,N,03512.442334,E,1,10,0.7,658.1,M,19.0,M,,*59
$GPVTG,272.5,T,269.5,M,5.9,N,11.0,K,A*15
$GPRMC,145918.0,A,3206.362772,N,03512.442334,E,5.9,272.5,040416,3.0,E,A*0E
$GPGSA,A,2,02,06,12,13,15,17,19,24,25,29,,,1.0,0.7,0.7*37
$GNGSA,A,2,02,06,12,13,15,17,19,24,25,29,,,1.0,0.7,0.7*29
$GNGSA,A,2,74,75,84,85,86,,,,,,,,1.0,0.7,0.7*22
$GPGSV,3,1,12,02,39,142,28,06,38,082,22,12,46,314,30,13,08,180,15*79
$GPGSV,3,2,12,14,03,322,15,15,23,215,24,17,13,042,17,19,40,039,24*7B
$GPGSV,3,3,12,24,77,305,19,25,17,289,19,29,05,226,14,32,01,323,17*71
$GLGSV,2,1,07,74,58,074,21,73,16,118,14,,,,26,86,18,205,21*56
$GLGSV,2,2,07,75,42,338,26,84,47,030,19,85,74,195,17*5B
$GPGGA,145919.0,3206.361453,N,03512.440866,E,1,10,0.7,659.0,M,19.0,M,,*55
$GPVTG,246.0,T,243.0,M,5.2,N,9.6,K,A*2E
$GPRMC,145919.0,A,3206.361453,N,03512.440866,E,5.2,246.0,040416,3.0,E,A*0B
$GPGSA,A,2,02,06,12,13,15,17,19,24,25,29,,,1.0,0.7,0.7*37
$GNGSA,A,2,02,06,12,13,15,17,19,24,25,29,,,1.0,0.7,0.7*29
$GNGSA,A,2,74,75,84,85,86,,,,,,,,1.0,0.7,0.7*22
$GPGSV,3,1,12,02,39,142,17,06,38,082,21,12,46,314,23,13,08,180,15*74
$GPGSV,3,2,12,14,03,322,15,15,23,215,21,17,13,042,21,19,40,039,22*7D
$GPGSV,3,3,12,24,77,305,21,25,17,289,20,29,05,226,14,32,01,323,15*72
$GLGSV,2,1,07,74,58,074,22,73,16,118,14,,,,23,86,18,205,18*5A
$GLGSV,2,2,07,75,42,338,24,84,47,030,19,85,74,195,17*59
$GPGGA,145920.0,3206.359073,N,03512.439455,E,1,10,0.7,658.8,M,19.0,M,,*59
$GPVTG,224.1,T,221.1,M,6.7,N,12.3,K,A*17
$GPRMC,145920.0,A,3206.359073,N,03512.439455,E,6.7,224.1,040416,3.0,E,A*0D
$GPGSA,A,2,02,06,12,13,15,17,19,24,25,29,,,1.0,0.7,0.7*37
$GNGSA,A,2,02,06,12,13,15,17,19,24,25,29,,,1.0,0.7,0.7*29
$GNGSA,A,2,74,75,84,85,86,,,,,,,,1.0,0.7,0.7*22
$GPGSV,3,1,12,02,39,142,27,06,38,082,20,12,46,314,24,13,08,180,15*71
$GPGSV,3,2,12,14,03,322,15,15,23,215,24,17,13,042,21,19,40,039,24*7E
$GPGSV,3,3,12,24,77,305,20,25,17,289,24,29,05,226,14,32,01,323,16*74
$GLGSV,2,1,07,74,58,074,18,73,16,118,14,,,,22,86,18,205,18*52
$GLGSV,2,2,07,75,42,338,27,84,47,030,18,85,74,195,19*55
$GPGGA,145921.0,3206.357961,N,03512.437413,E,1,10,0.7,659.6,M,19.0,M,,*5F
$GPVTG,228.8,T,225.9,M,6.6,N,12.2,K,A*1E
$GPRMC,145921.0,A,3206.357961,N,03512.437413,E,6.6,228.8,040416,3.0,E,A*00
$GPGSA,A,2,02,06,12,13,15,17,19,24,25,29,,,1.0,0.7,0.7*37
$GNGSA,A,2,02,06,12,13,15,17,19,24,25,29,,,1.0,0.7,0.7*29
$GNGSA,A,2,74,75,84,85,86,,,,,,,,1.0,0.7,0.7*22
$GPGSV,3,1,12,02,39,142,27,06,38,082,24,12,46,314,28,13,08,180,15*79
$GPGSV,3,2,12,14,03,322,15,15,23,215,24,17,13,042,21,19,40,039,19*70
$GPGSV,3,3,12,24,77,305,23,25,17,289,24,29,05,226,15,32,01,323,16*76
$GLGSV,2,1,07,74,58,074,19,73,16,118,14,,,,23,86,18,205,16*5C
$GLGSV,2,2,07,75,42,338,28,84,47,030,18,85,74,195,20*50
$GPGGA,145922.0,3206.356831,N,03512.436225,E,1,10,0.7,659.3,M,19.0,M,,*5E
$GPVTG,223.9,T,220.9,M,6.3,N,11.6,K,A*13
$GPRMC,145922.0,A,3206.356831,N,03512.436225,E,6.3,223.9,040416,3.0,E,A*0B
$GPGSA,A,2,02,06,12,13,15,17,19,24,25,29,,,1.0,0.7,0.7*37
$GNGSA,A,2,02,06,12,13,15,17,19,24,25,29,,,1.0,0.7,0.7*29
$GNGSA,A,2,74,75,84,85,86,,,,,,,,1.0,0.7,0.7*22
$GPGSV,3,1,12,02,39,142,29,06,38,082,24,12,46,314,30,13,08,180,14*7F
$GPGSV,3,2,12,14,03,322,15,15,23,215,25,17,13,042,17,19,40,039,19*74
$GPGSV,3,3,12,24,77,305,27,25,17,289,15,29,05,226,21,32,01,323,16*77
$GLGSV,2,1,07,74,58,074,22,73,16,118,14,,,,16,86,18,205,24*53
$GLGSV,2,2,07,75,42,338,28,84,47,030,18,85,74,195,21*51
$GPGGA,145923.0,3206.355899,N,03512.434821,E,1,10,0.7,658.2,M,19.0,M,,*52
$GPVTG,216.4,T,213.5,M,5.9,N,10.9,K,A*13
$GPRMC,145923.0,A,3206.355899,N,03512.434821,E,5.9,216.4,040416,3.0,E,A*05
$GPGSA,A,2,02,06,12,13,15,17,19,24,25,29,,,1.0,0.7,0.7*37
$GNGSA,A,2,02,06,12,13,15,17,19,24,25,29,,,1.0,0.7,0.7*29
$GNGSA,A,2,74,75,84,85,86,,,,,,,,1.0,0.7,0.7*22
$GPGSV,3,1,12,02,39,142,33,06,38,082,22,12,46,314,29,13,08,180,24*79
$GPGSV,3,2,12,14,03,322,15,15,23,215,24,17,13,042,19,19,40,039,18*7A
$GPGSV,3,3,12,24,77,305,32,25,17,289,20,29,05,226,21,32,01,323,*72
$GLGSV,2,1,07,74,58,074,20,73,16,118,14,,,,24,86,18,205,28*5C
$GLGSV,2,2,07,75,42,338,29,84,47,030,15,85,74,195,25*59
$GPGGA,145924.0,3206.355091,N,03512.434582,E,1,10,0.7,656.2,M,19.0,M,,*5F
$GPVTG,209.1,T,206.1,M,5.6,N,10.4,K,A*1A
$GPRMC,145924.0,A,3206.355091,N,03512.434582,E,5.6,209.1,040416,3.0,E,A*02
$GPGSA,A,2,02,06,12,13,15,17,19,24,25,29,,,1.0,0.7,0.7*37
$GNGSA,A,2,02,06,12,13,15,17,19,24,25,29,,,1.0,0.7,0.7*29
$GNGSA,A,2,74,75,84,85,86,,,,,,,,1.0,0.7,0.7*22
$GPGSV,3,1,12,02,39,142,31,06,38,082,18,12,46,314,30,13,08,180,19*74
$GPGSV,3,2,12,14,03,322,15,15,23,215,24,17,13,042,21,19,40,039,20*7A
$GPGSV,3,3,12,24,77,305,31,25,17,289,18,29,05,226,21,32,01,323,*7A
$GLGSV,2,1,07,74,58,074,22,73,16,118,14,,,,20,86,18,205,26*54
$GLGSV,2,2,07,75,42,338,25,84,47,030,19,85,74,195,24*58
$GPGGA,145925.0,3206.353356,N,03512.432204,E,1,10,0.7,654.1,M,19.0,M,,*5E
$GPVTG,205.1,T,202.1,M,6.2,N,11.4,K,A*14
$GPRMC,145925.0,A,3206.353356,N,03512.432204,E,6.2,205.1,040416,3.0,E,A*09
$GPGSA,A,2,02,06,12,13,15,17,19,24,25,29,,,1.0,0.7,0.7*37
$GNGSA,A,2,02,06,12,13,15,17,19,24,25,29,,,1.0,0.7,0.7*29
$GNGSA,A,2,74,75,84,85,86,,,,,,,,1.0,0.7,0.7*22
$GPGSV,3,1,12,02,39,142,33,06,38,082,22,12,46,314,28,13,08,180,20*7C
$GPGSV,3,2,12,14,03,322,15,15,23,215,20,17,13,042,21,19,40,039,26*78
$GPGSV,3,3,12,24,77,305,28,25,17,289,18,29,05,226,21,32,01,323,*72
$GLGSV,2,1,07,74,58,074,19,73,16,118,14,,,,17,86,18,205,18*55
$GLGSV,2,2,07,75,42,338,20,84,47,030,19,85,74,195,23*5A
$GPGGA,145926.0,3206.351774,N,03512.431298,E,1,10,0.7,654.7,M,19.0,M,,*5B
$GPVTG,195.8,T,192.9,M,4.5,N,8.3,K,A*2F
$GPRMC,145926.0,A,3206.351774,N,03512.431298,E,4.5,195.8,040416,3.0,E,A*0C
$GPGSA,A,2,02,06,12,13,15,17,19,24,25,29,,,1.0,0.7,0.7*37
$GNGSA,A,2,02,06,12,13,15,17,19,24,25,29,,,1.0,0.7,0.7*29
$GNGSA,A,2,74,75,84,85,86,,,,,,,,1.0,0.7,0.7*22
$GPGSV,3,1,12,02,39,142,31,06,38,082,28,12,46,314,27,13,08,180,25*7E
$GPGSV,3,2,12,14,03,322,15,15,23,215,24,17,13,042,16,19,40,039,21*7F
$GPGSV,3,3,12,24,77,305,24,25,17,289,18,29,05,226,21,32,01,323,*7E
$GLGSV,2,1,07,74,58,074,18,73,16,118,14,,,,22,86,18,205,17*5D
$GLGSV,2,2,07,75,42,338,21,84,47,030,20,85,74,195,23*51
$GPGGA,145927.0,3206.350799,N,03512.431105,E,1,10,0.7,656.1,M,19.0,M,,*5B
$GPVTG,195.8,T,192.9,M,3.3,N,6.2,K,A*21
$GPRMC,145927.0,A,3206.350799,N,03512.431105,E,3.3,195.8,040416,3.0,E,A*09
$GPGSA,A,2,02,06,12,13,15,17,19,24,25,29,,,1.0,0.7,0.7*37
$GNGSA,A,2,02,06,12,13,15,17,19,24,25,29,,,1.0,0.7,0.7*29
$GNGSA,A,2,74,75,84,85,86,,,,,,,,1.0,0.7,0.7*22
$GPGSV,3,1,12,02,39,142,33,06,38,082,30,12,46,314,28,13,08,180,23*7C
$GPGSV,3,2,12,14,03,322,15,15,23,215,24,17,13,042,16,19,40,039,19*74
$GPGSV,3,3,12,24,77,305,25,25,17,289,16,29,05,226,21,32,01,323,*71
$GLGSV,2,1,07,74,58,074,19,73,16,118,14,,,,20,86,18,205,17*5E
$GLGSV,2,2,07,75,42,338,25,84,47,030,19,85,74,195,29*55
$GPGGA,145928.0,3206.349698,N,03512.430637,E,1,10,0.7,659.1,M,19.0,M,,*54
$GPVTG,195.8,T,192.9,M,2.0,N,3.7,K,A*23
$GPRMC,145928.0,A,3206.349698,N,03512.430637,E,2.0,195.8,040416,3.0,E,A*0B
$GPGSA,A,2,02,06,12,13,15,17,19,24,25,29,,,1.0,0.7,0.7*37
$GNGSA,A,2,02,06,12,13,15,17,19,24,25,29,,,1.0,0.7,0.7*29
$GNGSA,A,2,74,75,84,85,86,,,,,,,,1.0,0.7,0.7*22
$GPGSV,3,1,12,02,39,142,32,06,38,082,29,12,46,314,28,13,08,180,18*7D
$GPGSV,3,2,12,14,03,322,15,15,23,215,19,17,13,042,16,19,40,039,18*7B
$GPGSV,3,3,12,24,77,305,22,25,17,289,23,29,05,226,21,32,01,323,*70
$GLGSV,2,1,07,74,58,074,23,73,16,118,14,,,,21,86,18,205,21*53
$GLGSV,2,2,07,75,42,338,22,84,47,030,19,85,74,195,21*5A
$GPGGA,145929.0,3206.349232,N,03512.431155,E,1,10,0.7,660.0,M,19.0,M,,*58
$GPVTG,195.8,T,192.9,M,1.9,N,3.5,K,A*2B
$GPRMC,145929.0,A,3206.349232,N,03512.431155,E,1.9,195.8,040416,3.0,E,A*06
$GPGSA,A,2,02,06,12,13,15,17,19,24,25,29,,,1.0,0.7,0.7*37
$GNGSA,A,2,02,06,12,13,15,17,19,24,25,29,,,1.0,0.7,0.7*29
$GNGSA,A,2,74,75,84,85,86,,,,,,,,1.0,0.7,0.7*22
$GPGSV,3,1,12,02,39,142,34,06,38,082,24,12,46,314,28,13,08,180,20*7D
$GPGSV,3,2,12,14,03,322,12,15,23,215,22,17,13,042,16,19,40,039,24*7B
$GPGSV,3,3,12,24,77,305,25,25,17,289,26,29,05,226,21,32,01,323,*72
$GLGSV,2,1,07,74,58,074,26,73,16,118,14,,,,21,86,18,205,19*5D
$GLGSV,2,2,07,75,42,338,21,84,47,030,18,85,74,195,18*52
$GPGGA,145930.0,3206.349069,N,03512.431178,E,1,10,0.7,658.0,M,19.0,M,,*58
$GPVTG,195.8,T,192.9,M,1.4,N,2.7,K,A*25
$GPRMC,145930.0,A,3206.349069,N,03512.431178,E,1.4,195.8,040416,3.0,E,A*00
$GPGSA,A,2,02,06,12,13,15,17,19,24,25,29,,,1.0,0.7,0.7*37
$GNGSA,A,2,02,06,12,13,15,17,19,24,25,29,,,1.0,0.7,0.7*29
$GNGSA,A,2,74,75,84,85,86,,,,,,,,1.0,0.7,0.7*22
$GPGSV,3,1,12,02,39,142,34,06,38,082,23,12,46,314,29,13,08,180,20*7B
$GPGSV,3,2,12,14,03,322,12,15,23,215,17,17,13,042,16,19,40,039,21*78
$GPGSV,3,3,12,24,77,305,25,25,17,289,24,29,05,226,21,32,01,323,*70
$GLGSV,2,1,07,74,58,074,28,73,16,118,14,,,,16,86,18,205,20*5D
$GLGSV,2,2,07,75,42,338,21,84,47,030,18,85,74,195,18*52
$GPGGA,145931.0,3206.349178,N,03512.431462,E,1,09,0.7,657.6,M,19.0,M,,*57
$GPVTG,195.8,T,192.9,M,0.9,N,1.6,K,A*2B
$GPRMC,145931.0,A,3206.349178,N,03512.431462,E,0.9,195.8,040416,3.0,E,A*02
$GPGSA,A,2,02,06,12,13,15,17,19,24,25,,,,1.1,0.7,0.8*32
$GNGSA,A,2,02,06,12,13,15,17,19,24,25,,,,1.1,0.7,0.8*2C
$GNGSA,A,2,74,75,84,85,86,,,,,,,,1.1,0.7,0.8*2C
$GPGSV,3,1,12,02,39,142,35,06,38,082,23,12,46,314,30,13,08,180,20*72
$GPGSV,3,2,12,14,03,322,12,15,23,215,22,17,13,042,16,19,40,039,23*7C
$GPGSV,3,3,12,24,77,305,25,25,17,289,23,29,05,226,21,32,01,323,*77
$GLGSV,2,1,07,74,58,074,29,73,16,118,14,,,,16,86,18,205,22*5E
$GLGSV,2,2,07,75,42,338,21,84,47,030,18,85,74,195,22*5B
$GPGGA,145932.0,3206.349745,N,03512.432599,E,1,09,0.7,658.8,M,19.0,M,,*5B
$GPVTG,195.8,T,192.9,M,1.4,N,2.6,K,A*24
$GPRMC,145932.0,A,3206.349745,N,03512.432599,E,1.4,195.8,040416,3.0,E,A*03
$GPGSA,A,2,02,06,12,13,15,17,19,24,25,,,,1.1,0.7,0.8*32
$GNGSA,A,2,02,06,12,13,15,17,19,24,25,,,,1.1,0.7,0.8*2C
$GNGSA,A,2,74,75,84,85,86,,,,,,,,1.1,0.7,0.8*2C
$GPGSV,3,1,12,02,39,142,33,06,38,082,28,12,46,314,30,13,08,180,17*7B
$GPGSV,3,2,12,14,03,322,12,15,23,215,24,17,13,042,16,19,40,039,20*79
$GPGSV,3,3,12,24,77,305,24,25,17,289,20,29,05,226,21,32,01,323,*75
$GLGSV,2,1,07,74,58,074,23,73,16,118,15,,,,19,86,18,205,23*5B
$GLGSV,2,2,07,75,42,338,24,84,47,030,18,85,74,195,26*5A
$GPGGA,145933.0,3206.348844,N,03512.433201,E,1,09,0.7,659.5,M,19.0,M,,*5E
$GPVTG,195.8,T,192.9,M,2.7,N,4.9,K,A*2D
$GPRMC,145933.0,A,3206.348844,N,03512.433201,E,2.7,195.8,040416,3.0,E,A*0A
$GPGSA,A,2,02,06,12,13,15,17,19,24,25,,,,1.1,0.7,0.8*32
$GNGSA,A,2,02,06,12,13,15,17,19,24,25,,,,1.1,0.7,0.8*2C
$GNGSA,A,2,74,75,84,85,86,,,,,,,,1.1,0.7,0.8*2C
$GPGSV,3,1,12,02,39,142,34,06,38,082,29,12,46,314,29,13,08,180,22*73
$GPGSV,3,2,12,14,03,322,12,15,23,215,24,17,13,042,16,19,40,039,18*72
$GPGSV,3,3,12,24,77,305,23,25,17,289,20,29,05,226,21,32,01,323,*72
$GLGSV,2,1,07,74,58,074,24,73,16,118,18,,,,19,86,18,205,18*59
$GLGSV,2,2,07,75,42,338,22,84,47,030,18,85,74,195,25*5F
$GPGGA,145934.0,3206.348073,N,03512.433597,E,1,08,0.8,659.1,M,19.0,M,,*57
$GPVTG,154.9,T,151.9,M,4.2,N,7.8,K,A*2F
$GPRMC,145934.0,A,3206.348073,N,03512.433597,E,4.2,154.9,040416,3.0,E,A*06
$GPGSA,A,2,02,06,12,13,15,19,24,25,,,,,1.1,0.8,0.8*3B
$GNGSA,A,2,02,06,12,13,15,19,24,25,,,,,1.1,0.8,0.8*25
$GNGSA,A,2,74,75,84,85,86,,,,,,,,1.1,0.8,0.8*23
$GPGSV,3,1,12,02,39,142,31,06,38,082,31,12,46,314,27,13,08,180,20*73
$GPGSV,3,2,12,14,03,322,12,15,23,215,17,17,13,042,16,19,40,039,22*7B
$GPGSV,3,3,12,24,77,305,25,25,17,289,16,29,05,226,21,32,01,323,*71
$GLGSV,2,1,07,74,58,074,26,73,16,118,17,,,,19,86,18,205,24*5B
$GLGSV,2,2,07,75,42,338,22,84,47,030,18,85,74,195,23*59
$GPGGA,145935.0,3206.346507,N,03512.434692,E,1,08,0.8,658.2,M,19.0,M,,*5D
$GPVTG,154.7,T,151.7,M,5.5,N,10.2,K,A*15
$GPRMC,145935.0,A,3206.346507,N,03512.434692,E,5.5,154.7,040416,3.0,E,A*06
$GPGSA,A,2,02,06,12,13,15,19,24,25,,,,,1.1,0.8,0.8*3B
$GNGSA,A,2,02,06,12,13,15,19,24,25,,,,,1.1,0.8,0.8*25
$GNGSA,A,2,74,75,84,85,86,,,,,,,,1.1,0.8,0.8*23
$GPGSV,3,1,12,02,39,142,30,06,38,082,31,12,46,314,26,13,08,180,20*73
$GPGSV,3,2,12,14,03,322,12,15,23,215,23,17,13,042,16,19,40,039,25*7B
$GPGSV,3,3,12,24,77,305,27,25,17,289,18,29,05,226,21,32,01,323,*7D
$GLGSV,2,1,07,74,58,074,29,73,16,118,20,,,,19,86,18,205,24*50
$GLGSV,2,2,07,75,42,338,17,84,47,030,18,85,74,195,25*59
$GPGGA,145936.0,3206.345021,N,03512.435884,E,1,08,0.8,658.1,M,19.0,M,,*57
$GPVTG,153.2,T,150.2,M,6.4,N,11.8,K,A*1A
$GPRMC,145936.0,A,3206.345021,N,03512.435884,E,6.4,153.2,040416,3.0,E,A*0F
$GPGSA,A,2,02,06,12,13,15,19,24,25,,,,,1.1,0.8,0.8*3B
$GNGSA,A,2,02,06,12,13,15,19,24,25,,,,,1.1,0.8,0.8*25
$GNGSA,A,2,74,75,84,85,86,,,,,,,,1.1,0.8,0.8*23
$GPGSV,3,1,12,02,39,142,31,06,38,082,31,12,46,314,19,13,08,180,20*7E
$GPGSV,3,2,12,14,03,322,12,15,23,215,24,17,13,042,16,19,40,039,29*70
$GPGSV,3,3,12,24,77,305,27,25,17,289,18,29,05,226,21,32,01,323,*7D
$GLGSV,2,1,07,74,58,074,30,73,16,118,22,,,,14,86,18,205,23*50
$GLGSV,2,2,07,75,42,338,17,84,47,030,18,85,74,195,27*5B
$GPGGA,145937.0,3206.342461,N,03512.436122,E,1,08,0.8,655.5,M,19.0,M,,*5E
$GPVTG,150.8,T,147.8,M,6.8,N,12.6,K,A*1E
$GPRMC,145937.0,A,3206.342461,N,03512.436122,E,6.8,150.8,040416,3.0,E,A*0A
$GPGSA,A,2,02,06,12,13,15,19,24,25,,,,,1.1,0.8,0.8*3B
$GNGSA,A,2,02,06,12,13,15,19,24,25,,,,,1.1,0.8,0.8*25
$GNGSA,A,2,74,75,84,85,86,,,,,,,,1.1,0.8,0.8*23
$GPGSV,3,1,12,02,39,142,26,06,38,082,33,12,46,314,20,13,08,180,14*77
$GPGSV,3,2,12,14,03,322,12,15,23,215,22,17,13,042,16,19,40,039,29*76
$GPGSV,3,3,12,24,77,305,27,25,17,289,15,29,05,226,21,32,01,323,*70
$GLGSV,2,1,07,74,58,074,32,73,16,118,20,,,,24,86,18,205,20*50
$GLGSV,2,2,07,75,42,338,17,84,47,030,18,85,74,195,31*5C
$GPGGA,145938.0,3206.341199,N,03512.437791,E,1,08,0.8,655.3,M,19.0,M,,*59
$GPVTG,148.8,T,145.9,M,6.9,N,12.7,K,A*14
$GPRMC,145938.0,A,3206.341199,N,03512.437791,E,6.9,148.8,040416,3.0,E,A*03
$GPGSA,A,2,02,06,12,13,15,19,24,25,,,,,1.1,0.8,0.8*3B
$GNGSA,A,2,02,06,12,13,15,19,24,25,,,,,1.1,0.8,0.8*25
$GNGSA,A,2,74,75,84,85,86,,,,,,,,1.1,0.8,0.8*23
$GPGSV,3,1,12,02,39,142,26,06,38,082,34,12,46,314,23,13,08,180,14*73
$GPGSV,3,2,12,14,03,322,12,15,23,215,22,17,13,042,10,19,40,039,29*70
$GPGSV,3,3,12,24,77,305,26,25,17,289,20,29,05,226,21,32,01,323,*77
$GLGSV,2,1,07,74,58,074,31,73,16,118,20,,,,21,86,18,205,16*53
$GLGSV,2,2,07,75,42,338,22,84,47,030,18,85,74,195,28*52
$GPGGA,145939.0,3206.339485,N,03512.438761,E,1,09,0.7,655.4,M,19.0,M,,*56
$GPVTG,146.1,T,143.2,M,6.3,N,11.7,K,A*17
$GPRMC,145939.0,A,3206.339485,N,03512.438761,E,6.3,146.1,040416,3.0,E,A*08
$GPGSA,A,2,02,06,12,13,15,17,19,24,25,,,,1.1,0.7,0.8*32
$GNGSA,A,2,02,06,12,13,15,17,19,24,25,,,,1.1,0.7,0.8*2C
$GNGSA,A,2,74,75,84,85,86,,,,,,,,1.1,0.7,0.8*2C
$GPGSV,3,1,12,02,39,142,29,06,38,082,33,12,46,314,26,13,08,180,14*7E
$GPGSV,3,2,12,14,03,322,12,15,23,215,28,17,13,042,10,19,40,039,31*73
$GPGSV,3,3,12,24,77,305,23,25,17,289,18,29,05,226,21,32,01,323,*79
$GLGSV,2,1,07,74,58,074,29,73,16,118,23,,,,21,86,18,205,22*5E
$GLGSV,2,2,07,75,42,338,24,84,47,030,13,85,74,195,23*54
$GPGGA,145940.0,3206.338402,N,03512.439601,E,1,09,0.7,655.5,M,19.0,M,,*51
$GPVTG,151.1,T,148.1,M,5.7,N,10.6,K,A*1E
$GPRMC,145940.0,A,3206.338402,N,03512.439601,E,5.7,151.1,040416,3.0,E,A*0F
$GPGSA,A,2,02,06,12,13,15,17,19,24,25,,,,1.1,0.7,0.8*32
$GNGSA,A,2,02,06,12,13,15,17,19,24,25,,,,1.1,0.7,0.8*2C
$GNGSA,A,2,74,75,84,85,86,,,,,,,,1.1,0.7,0.8*2C
$GPGSV,3,1,12,02,39,142,31,06,38,082,31,12,46,314,29,13,08,180,14*7A
$GPGSV,3,2,12,14,03,322,12,15,23,215,24,17,13,042,10,19,40,039,30*7E
$GPGSV,3,3,12,24,77,305,25,25,17,289,19,29,05,226,21,32,01,323,*7E
$GLGSV,2,1,07,74,58,074,28,73,16,118,18,,,,21,86,18,205,26*53
$GLGSV,2,2,07,75,42,338,21,84,47,030,13,85,74,195,26*54
$GPGGA,145941.0,3206.337245,N,03512.440286,E,1,09,0.7,656.6,M,19.0,M,,*5F
$GPVTG,154.6,T,151.7,M,4.9,N,9.1,K,A*22
$GPRMC,145941.0,A,3206.337245,N,03512.440286,E,4.9,154.6,040416,3.0,E,A*0C
$GPGSA,A,2,02,06,12,13,15,17,19,24,25,,,,1.1,0.7,0.8*32
$GNGSA,A,2,02,06,12,13,15,17,19,24,25,,,,1.1,0.7,0.8*2C
$GNGSA,A,2,74,75,84,85,86,,,,,,,,1.1,0.7,0.8*2C
$GPGSV,3,1,12,02,39,142,30,06,38,082,30,12,46,314,30,13,08,180,14*72
$GPGSV,3,2,12,14,03,322,12,15,23,215,19,17,13,042,10,19,40,039,27*76
$GPGSV,3,3,12,24,77,305,25,25,17,289,19,29,05,226,21,32,01,323,*7E
$GLGSV,2,1,07,74,58,074,28,73,16,118,18,,,,15,86,18,205,24*56
$GLGSV,2,2,07,75,42,338,21,84,47,030,13,85,74,195,26*54
$GPGGA,145942.0,3206.336295,N,03512.440959,E,1,09,0.7,656.7,M,19.0,M,,*58
$GPVTG,154.6,T,151.7,M,3.9,N,7.1,K,A*2B
$GPRMC,145942.0,A,3206.336295,N,03512.440959,E,3.9,154.6,040416,3.0,E,A*0D
$GPGSA,A,2,02,06,12,13,15,17,19,24,25,,,,1.1,0.7,0.8*32
$GNGSA,A,2,02,06,12,13,15,17,19,24,25,,,,1.1,0.7,0.8*2C
$GNGSA,A,2,74,75,84,85,86,,,,,,,,1.1,0.7,0.8*2C
$GPGSV,3,1,12,02,39,142,30,06,38,082,30,12,46,314,30,13,08,180,14*72
$GPGSV,3,2,12,14,03,322,20,15,23,215,20,17,13,042,10,19,40,039,21*7B
$GPGSV,3,3,12,24,77,305,21,25,17,289,16,29,05,226,21,32,01,323,*75
$GLGSV,2,1,07,74,58,074,27,73,16,118,16,,,,17,86,18,205,29*58
$GLGSV,2,2,07,75,42,338,15,84,47,030,16,85,74,195,25*55
$GPGGA,145943.0,3206.335366,N,03512.441691,E,1,09,0.7,657.1,M,19.0,M,,*5A
$GPVTG,154.6,T,151.7,M,3.8,N,7.1,K,A*2A
$GPRMC,145943.0,A,3206.335366,N,03512.441691,E,3.8,154.6,040416,3.0,E,A*09
$GPGSA,A,2,02,06,12,13,15,17,19,24,25,,,,1.1,0.7,0.8*32
$GNGSA,A,2,02,06,12,13,15,17,19,24,25,,,,1.1,0.7,0.8*2C
$GNGSA,A,2,74,75,84,85,86,,,,,,,,1.1,0.7,0.8*2C
$GPGSV,3,1,12,02,39,142,30,06,38,082,31,12,46,314,29,13,08,180,13*7C
$GPGSV,3,2,12,14,03,322,20,15,23,215,23,17,13,042,10,19,40,039,24*7D
$GPGSV,3,3,12,24,77,305,21,25,17,289,21,29,05,226,21,32,01,323,*71
$GLGSV,2,1,07,74,58,074,24,73,16,118,17,,,,17,86,18,205,26*55
$GLGSV,2,2,07,75,42,338,15,84,47,030,16,85,74,195,17*54
$GPGGA,145944.0,3206.334712,N,03512.442275,E,1,09,0.7,657.0,M,19.0,M,,*57
$GPVTG,151.0,T,148.0,M,3.9,N,7.3,K,A*25
$GPRMC,145944.0,A,3206.334712,N,03512.442275,E,3.9,151.0,040416,3.0,E,A*07
$GPGSA,A,2,02,06,12,13,15,17,19,24,25,,,,1.1,0.7,0.8*32
$GNGSA,A,2,02,06,12,13,15,17,19,24,25,,,,1.1,0.7,0.8*2C
$GNGSA,A,2,74,75,84,85,86,,,,,,,,1.1,0.7,0.8*2C
$GPGSV,3,1,12,02,39,142,30,06,38,082,31,12,46,314,25,13,08,180,13*70
$GPGSV,3,2,12,14,03,322,20,15,23,215,21,17,13,042,10,19,40,039,30*7A
$GPGSV,3,3,12,24,77,305,16,25,17,289,21,29,05,226,21,32,01,323,*75
$GLGSV,2,1,07,74,58,074,26,73,16,118,19,,,,17,86,18,205,25*5A
$GLGSV,2,2,07,75,42,338,16,84,47,030,16,85,74,195,21*52
$GPGGA,145945.0,3206.334080,N,03512.442923,E,1,09,0.7,656.6,M,19.0,M,,*55
$GPVTG,151.0,T,148.0,M,3.7,N,6.8,K,A*21
$GPRMC,145945.0,A,3206.334080,N,03512.442923,E,3.7,151.0,040416,3.0,E,A*0C
$GPGSA,A,2,02,06,12,13,15,17,19,24,25,,,,1.1,0.7,0.8*32
$GNGSA,A,2,02,06,12,13,15,17,19,24,25,,,,1.1,0.7,0.8*2C
$GNGSA,A,2,74,75,84,85,86,,,,,,,,1.1,0.7,0.8*2C
$GPGSV,3,1,12,02,39,142,30,06,38,082,31,12,46,314,23,13,08,180,13*76
$GPGSV,3,2,12,14,03,322,16,15,23,215,25,17,13,042,10,19,40,039,30*7B
$GPGSV,3,3,12,24,77,305,22,25,17,289,18,29,05,226,21,32,01,323,*78
$GLGSV,2,1,07,74,58,074,26,73,16,118,21,,,,13,86,18,205,22*52
$GLGSV,2,2,07,75,42,338,16,84,47,030,16,85,74,195,20*53
$GPGGA,145946.0,3206.333428,N,03512.442907,E,1,08,0.8,657.3,M,19.0,M,,*5B
$GPVTG,151.0,T,148.0,M,2.2,N,4.0,K,A*2F
$GPRMC,145946.0,A,3206.333428,N,03512.442907,E,2.2,151.0,040416,3.0,E,A*0C
$GPGSA,A,2,02,06,12,13,15,19,24,25,,,,,1.1,0.8,0.8*3B
$GNGSA,A,2,02,06,12,13,15,19,24,25,,,,,1.1,0.8,0.8*25
$GNGSA,A,2,74,75,84,85,86,,,,,,,,1.1,0.8,0.8*23
$GPGSV,3,1,12,02,39,142,32,06,38,082,31,12,46,314,29,13,08,180,13*7E
$GPGSV,3,2,12,14,03,322,16,15,23,215,23,17,13,042,10,19,40,039,26*7A
$GPGSV,3,3,12,24,77,305,23,25,17,289,18,29,05,226,21,32,01,323,*79
$GLGSV,2,1,07,74,58,074,27,73,16,118,19,,,,19,86,18,205,20*50
$GLGSV,2,2,07,75,42,338,15,84,47,030,14,85,74,195,20*52
$GPGGA,145947.0,3206.333131,N,03512.442823,E,1,08,0.8,656.7,M,19.0,M,,*55
$GPVTG,151.0,T,148.0,M,1.0,N,1.8,K,A*23
$GPRMC,145947.0,A,3206.333131,N,03512.442823,E,1.0,151.0,040416,3.0,E,A*06
$GPGSA,A,2,02,06,12,13,15,19,24,25,,,,,1.1,0.8,0.8*3B
$GNGSA,A,2,02,06,12,13,15,19,24,25,,,,,1.1,0.8,0.8*25
$GNGSA,A,2,74,75,84,85,86,,,,,,,,1.1,0.8,0.8*23
$GPGSV,3,1,12,02,39,142,34,06,38,082,26,12,46,314,29,13,08,180,13*7E
$GPGSV,3,2,12,14,03,322,16,15,23,215,30,17,13,042,10,19,40,039,25*7B
$GPGSV,3,3,12,24,77,305,21,25,17,289,16,29,05,226,21,32,01,323,*75
$GLGSV,2,1,07,74,58,074,27,73,16,118,19,,,,20,86,18,205,19*50
$GLGSV,2,2,07,75,42,338,15,84,47,030,14,85,74,195,20*52
$GPGGA,145948.0,3206.332865,N,03512.442816,E,1,08,0.8,658.4,M,19.0,M,,*58
$GPVTG,151.0,T,148.0,M,0.6,N,1.2,K,A*2E
$GPRMC,145948.0,A,3206.332865,N,03512.442816,E,0.6,151.0,040416,3.0,E,A*01
$GPGSA,A,2,02,06,12,13,15,19,24,25,,,,,1.1,0.8,0.8*3B
$GNGSA,A,2,02,06,12,13,15,19,24,25,,,,,1.1,0.8,0.8*25
$GNGSA,A,2,74,75,84,85,86,,,,,,,,1.1,0.8,0.8*23
$GPGSV,3,1,12,02,39,142,34,06,38,082,26,12,46,314,31,13,08,180,13*77
$GPGSV,3,2,12,14,03,322,16,15,23,215,32,17,13,042,10,19,40,039,20*7C
$GPGSV,3,3,12,24,77,305,23,25,17,289,16,29,05,226,,32,01,323,*74
$GLGSV,2,1,07,74,58,074,27,73,16,118,19,,,,22,86,18,205,20*58
$GLGSV,2,2,07,75,42,338,17,84,47,030,14,85,74,195,23*53
$GPGGA,145949.0,3206.332899,N,03512.443032,E,1,08,0.8,657.9,M,19.0,M,,*57
$GPVTG,151.0,T,148.0,M,0.0,N,0.0,K,A*2B
$GPRMC,145949.0,A,3206.332899,N,03512.443032,E,0.0,151.0,040416,3.0,E,A*0A
$GPGSA,A,2,02,06,12,13,15,19,24,25,,,,,1.1,0.8,0.8*3B
$GNGSA,A,2,02,06,12,13,15,19,24,25,,,,,1.1,0.8,0.8*25
$GNGSA,A,2,74,75,84,85,86,,,,,,,,1.1,0.8,0.8*23
$GPGSV,3,1,12,02,40,142,34,06,38,082,23,12,46,314,30,13,08,180,12*7C
$GPGSV,3,2,12,14,03,322,16,15,23,215,31,17,13,042,10,19,40,039,19*75
$GPGSV,3,3,12,24,77,305,24,25,17,289,16,29,05,226,,32,01,323,*73
$GLGSV,2,1,07,74,58,074,26,73,16,118,19,,,,21,86,18,205,21*5B
$GLGSV,2,2,07,75,42,338,18,84,47,030,15,85,74,195,26*58
$GPGGA,145950.0,3206.333002,N,03512.442999,E,1,08,0.8,657.5,M,19.0,M,,*51
$GPVTG,151.0,T,148.0,M,0.0,N,0.0,K,A*2B
$GPRMC,145950.0,A,3206.333002,N,03512.442999,E,0.0,151.0,040416,3.0,E,A*00
$GPGSA,A,2,02,06,12,13,15,19,24,25,,,,,1.1,0.8,0.8*3B
$GNGSA,A,2,02,06,12,13,15,19,24,25,,,,,1.1,0.8,0.8*25
$GNGSA,A,2,74,75,84,85,86,,,,,,,,1.1,0.8,0.8*23
$GPGSV,3,1,12,02,40,142,31,06,38,082,20,12,46,314,21,13,08,180,12*7A
$GPGSV,3,2,12,14,03,322,16,15,23,215,24,17,13,042,10,19,40,039,19*71
$GPGSV,3,3,12,24,77,305,24,25,17,289,17,29,05,226,,32,01,323,*72
$GLGSV,2,1,07,74,58,074,28,73,16,118,12,,,,19,86,18,205,21*55
$GLGSV,2,2,07,75,42,338,25,84,47,030,15,85,74,195,25*55
$GPGGA,145951.0,3206.333168,N,03512.442950,E,1,09,0.7,657.2,M,19.0,M,,*51
$GPVTG,151.0,T,148.0,M,0.0,N,0.0,K,A*2B
$GPRMC,145951.0,A,3206.333168,N,03512.442950,E,0.0,151.0,040416,3.0,E,A*09
$GPGSA,A,2,02,06,12,13,15,17,19,24,25,,,,1.1,0.7,0.8*32
$GNGSA,A,2,02,06,12,13,15,17,19,24,25,,,,1.1,0.7,0.8*2C
$GNGSA,A,2,74,75,84,85,86,,,,,,,,1.1,0.7,0.8*2C
$GPGSV,3,1,12,02,40,142,32,06,38,082,18,12,46,314,26,13,08,180,12*75
$GPGSV,3,2,12,14,03,322,16,15,23,215,23,17,13,042,10,19,40,039,18*77
$GPGSV,3,3,12,24,77,305,24,25,17,289,19,29,05,226,,32,01,323,*7C
$GLGSV,2,1,07,74,58,074,27,73,16,118,12,,,,25,86,18,205,21*55
$GLGSV,2,2,07,75,42,338,20,84,47,030,15,85,74,195,27*52
$GPGGA,145952.0,3206.333076,N,03512.442910,E,1,09,0.7,657.3,M,19.0,M,,*59
$GPVTG,151.0,T,148.0,M,0.0,N,0.0,K,A*2B
$GPRMC,145952.0,A,3206.333076,N,03512.442910,E,0.0,151.0,040416,3.0,E,A*00
$GPGSA,A,2,02,06,12,13,15,17,19,24,25,,,,1.1,0.7,0.8*32
$GNGSA,A,2,02,06,12,13,15,17,19,24,25,,,,1.1,0.7,0.8*2C
$GNGSA,A,2,74,75,84,85,86,,,,,,,,1.1,0.7,0.8*2C
$GPGSV,3,1,12,02,40,142,30,06,38,082,23,12,46,314,25,13,08,180,12*7C
$GPGSV,3,2,12,14,03,322,16,15,23,215,19,17,13,042,10,19,40,039,23*76
$GPGSV,3,3,12,24,77,305,16,25,17,289,17,29,05,226,,32,01,323,*73
$GLGSV,2,1,07,74,58,074,23,73,16,118,19,,,,24,86,18,205,20*5A
$GLGSV,2,2,07,75,42,338,18,84,47,030,15,85,74,195,21*5F
$GPGGA,145953.0,3206.333042,N,03512.442955,E,1,09,0.7,656.9,M,19.0,M,,*55
$GPVTG,151.0,T,148.0,M,0.0,N,0.0,K,A*2B
$GPRMC,145953.0,A,3206.333042,N,03512.442955,E,0.0,151.0,040416,3.0,E,A*07
$GPGSA,A,2,02,06,12,13,15,17,19,24,25,,,,1.1,0.7,0.8*32
$GNGSA,A,2,02,06,12,13,15,17,19,24,25,,,,1.1,0.7,0.8*2C
$GNGSA,A,2,74,75,84,85,86,,,,,,,,1.1,0.7,0.8*2C
$GPGSV,3,1,12,02,40,142,29,06,38,082,20,12,46,314,24,13,08,180,12*76
$GPGSV,3,2,12,14,03,322,16,15,23,215,25,17,13,042,10,19,40,039,26*7C
$GPGSV,3,3,12,24,77,305,23,25,17,289,19,29,05,226,,32,01,323,*7B
$GLGSV,2,1,07,74,58,074,23,73,16,118,24,,,,23,86,18,205,23*50
$GLGSV,2,2,07,75,42,338,22,84,47,030,16,85,74,195,29*5D
$GPGGA,145954.0,3206.333029,N,03512.442923,E,1,09,0.7,656.9,M,19.0,M,,*5E
$GPVTG,151.0,T,148.0,M,0.0,N,0.0,K,A*2B
$GPRMC,145954.0,A,3206.333029,N,03512.442923,E,0.0,151.0,040416,3.0,E,A*0C
$GPGSA,A,2,02,06,12,13,15,17,19,24,25,,,,1.1,0.7,0.8*32
$GNGSA,A,2,02,06,12,13,15,17,19,24,25,,,,1.1,0.7,0.8*2C
$GNGSA,A,2,74,75,84,85,86,,,,,,,,1.1,0.7,0.8*2C
$GPGSV,3,1,12,02,40,142,28,06,38,082,24,12,46,314,29,13,08,180,12*7E
$GPGSV,3,2,12,14,03,322,14,15,23,215,29,17,13,042,15,19,40,039,25*74
$GPGSV,3,3,12,24,77,305,25,25,17,289,20,29,05,226,,32,01,323,*77
$GLGSV,2,1,07,74,58,074,24,73,16,118,24,,,,25,86,18,205,27*55
$GLGSV,2,2,07,75,42,338,22,84,47,030,20,85,74,195,29*58
$GPGGA,145955.0,3206.332840,N,03512.442858,E,1,09,0.7,657.8,M,19.0,M,,*54
$GPVTG,151.0,T,148.0,M,0.0,N,0.0,K,A*2B
$GPRMC,145955.0,A,3206.332840,N,03512.442858,E,0.0,151.0,040416,3.0,E,A*06
$GPGSA,A,2,02,06,12,13,15,17,19,24,25,,,,1.1,0.7,0.8*32
$GNGSA,A,2,02,06,12,13,15,17,19,24,25,,,,1.1,0.7,0.8*2C
$GNGSA,A,2,74,75,84,85,86,,,,,,,,1.1,0.7,0.8*2C
$GPGSV,3,1,12,02,40,142,25,06,38,082,25,12,46,314,28,13,08,180,12*73
$GPGSV,3,2,12,14,03,322,14,15,23,215,30,17,13,042,19,19,40,039,26*73
$GPGSV,3,3,12,24,77,305,16,25,17,289,20,29,05,226,,32,01,323,*77
$GLGSV,2,1,07,74,58,074,27,73,16,118,23,,,,24,86,18,205,24*53
$GLGSV,2,2,07,75,42,338,24,84,47,030,18,85,74,195,24*58
$GPGGA,145956.0,3206.332728,N,03512.442786,E,1,09,0.7,658.1,M,19.0,M,,*5C
$GPVTG,151.0,T,148.0,M,0.0,N,0.0,K,A*2B
$GPRMC,145956.0,A,3206.332728,N,03512.442786,E,0.0,151.0,040416,3.0,E,A*08
$GPGSA,A,2,02,06,12,13,15,17,19,24,25,,,,1.1,0.7,0.8*32
$GNGSA,A,2,02,06,12,13,15,17,19,24,25,,,,1.1,0.7,0.8*2C
$GNGSA,A,2,74,75,84,85,86,,,,,,,,1.1,0.7,0.8*2C
$GPGSV,3,1,12,02,40,142,21,06,38,082,24,12,46,314,27,13,08,180,12*79
$GPGSV,3,2,12,14,03,322,17,15,23,215,27,17,13,042,22,19,40,039,30*79
$GPGSV,3,3,12,24,77,305,20,25,17,289,23,29,05,226,,32,01,323,*71
$GLGSV,2,1,07,74,58,074,28,73,16,118,23,,,,22,86,18,205,26*58
$GLGSV,2,2,07,75,42,338,19,84,47,030,21,85,74,195,23*5B
$GPGGA,145957.0,3206.332664,N,03512.442648,E,1,08,0.8,658.1,M,19.0,M,,*59
$GPVTG,151.0,T,148.0,M,0.0,N,0.0,K,A*2B
$GPRMC,145957.0,A,3206.332664,N,03512.442648,E,0.0,151.0,040416,3.0,E,A*03
$GPGSA,A,2,02,06,12,15,17,19,24,25,,,,,1.1,0.8,0.8*3F
$GNGSA,A,2,02,06,12,15,17,19,24,25,,,,,1.1,0.8,0.8*21
$GNGSA,A,2,74,75,84,85,86,,,,,,,,1.1,0.8,0.8*23
$GPGSV,3,1,12,02,40,142,20,06,38,082,26,12,46,314,26,13,08,180,12*7B
$GPGSV,3,2,12,14,03,322,17,15,23,215,26,17,13,042,22,19,40,039,24*7D
$GPGSV,3,3,12,24,77,305,26,25,17,289,24,29,05,226,,32,01,323,*70
$GLGSV,2,1,07,74,58,074,25,73,16,118,22,,,,25,86,18,205,21*54
