$GPGGA,174616.00,3201.251262,N,03448.343044,E,1,09,0.6,27.6,M,19.1,M,,*55
$PGLOR,1,STA,174616.00,0.019,0.000,-308,1,6,1,P,F,L,0,C,2,S,0012,6721,5,R,33F4*44
$PGLOR,1,SAT,G25,014,1F,G29,029,1F,G12,024,1B,G21,040,1F,G20,024,1B,G31,036,1F,G05,030,1F,G02,022,17,G24,023,1B,R19,038,$PGLOR,1,SIO,TxERR,0,RxERR,0,TxCNT,388,RxCNT,1608,DTMS,995,DTIN,1,1,DTOUT,181,911,HATMD,81*30
$PGLOR,0,HLA,174616.00,L,,Al,,A,46,H,,,M,0,Ac,0,Gr,0,S,,,Sx,,,T,0,Tr,,Mn,0*37
$PGLOR,1,PWR,AvgP,105.320007,RFTm,1000,RunT,1000,OscTm,1000,SlpTm,0,MeasTm,1000*2D
$PGLOR,0,PPS,120416,174615.999,,,000.000,0,0,0,*00
$GPGSV,4,1,13,25,79,087,26,29,58,336,34,12,42,121,30,21,35,223,41*7C
$GPGSV,4,2,13,20,33,144,26,31,31,298,37,05,31,085,36,02,21,044,31*71
$GPGSV,4,3,13,24,03,171,24,11,01,000,,03,01,000,,27,01,000,*7F
$GPGSV,4,4,13,26,01,314,*48
$GLGSV,1,1,04,67,01,000,24,83,01,000,40,75,01,000,,84,01,000,*67
$GPGSA,A,3,02,05,12,20,21,24,25,29,31,,,,1.6,1.3,0.9*33
$GNGSA,A,3,02,05,12,20,21,24,25,29,31,,,,1.6,1.3,0.9*2D
$GNGSA,A,3,,,,,,,,,,,,,1.6,1.3,0.9*20
$QZGSA,A,3,,,,,,,,,,,,,1.6,1.3,0.9*22
$PGLOR,1,FIX,1.0,1.0*20
$GPRMC,174616.00,A,3201.251262,N,03448.343044,E,000.0,287.4,120416,,,A*5B
$GPGGA,174617.00,3201.251262,N,03448.343044,E,1,09,0.6,27.6,M,19.1,M,,*54
$PGLOR,1,STA,174617.00,0.019,0.000,-308,1,6,1,P,F,L,0,C,2,S,0012,6721,5,R,33F4*45
$PGLOR,1,SAT,G25,026,1F,G29,028,1F,G12,026,1B,G21,041,1F,G20,023,13,G31,037,1F,G05,030,1F,G02,022,1F,G24,022,1B,R19,037,$PGLOR,1,SIO,TxERR,0,RxERR,0,TxCNT,296,RxCNT,1572,DTMS,997,DTIN,1,1,DTOUT,203,921,HATMD,81*38
$PGLOR,0,HLA,174617.00,L,,Al,,A,46,H,,,M,0,Ac,0,Gr,0,S,,,Sx,,,T,0,Tr,,Mn,0*36
$PGLOR,1,PWR,AvgP,105.320007,RFTm,1000,RunT,1000,OscTm,1000,SlpTm,0,MeasTm,1000*2D
$PGLOR,0,PPS,120416,174616.999,,,000.000,0,0,0,*03
$GPGSV,4,1,13,25,79,087,26,29,58,336,33,12,42,121,30,21,35,224,41*7C
$GPGSV,4,2,13,20,33,144,26,31,31,298,37,05,31,085,35,02,21,044,30*73
$GPGSV,4,3,13,24,03,171,24,27,01,000,,03,01,000,,11,01,000,*7F
$GPGSV,4,4,13,26,01,314,*48
$GLGSV,1,1,04,83,01,000,40,67,01,000,27,75,01,000,,84,01,000,*64
$GPGSA,A,3,02,05,12,20,21,24,25,29,31,,,,1.6,1.3,0.9*33
$GNGSA,A,3,02,05,12,20,21,24,25,29,31,,,,1.6,1.3,0.9*2D
$GNGSA,A,3,,,,,,,,,,,,,1.6,1.3,0.9*20
$QZGSA,A,3,,,,,,,,,,,,,1.6,1.3,0.9*22
$PGLOR,1,FIX,1.0,1.0*20
$GPRMC,174617.00,A,3201.251262,N,03448.343044,E,000.0,287.4,120416,,,A*5A
$GPGGA,174618.00,3201.251262,N,03448.343044,E,1,09,0.8,27.6,M,19.1,M,,*55
$PGLOR,1,STA,174618.00,0.019,0.000,-308,1,8,1,P,F,L,0,C,2,S,0012,6721,5,R,33F4*44
$PGLOR,1,SAT,G25,027,1F,G29,025,1F,G12,026,1B,G21,039,1F,G20,023,1B,G31,035,1F,G05,030,1F,G02,022,17,G24,022,1B,R19,037,$PGLOR,1,SIO,TxERR,0,RxERR,0,TxCNT,308,RxCNT,1592,DTMS,997,DTIN,1,2,DTOUT,203,919,HATMD,82*3B
$PGLOR,0,HLA,174618.00,L,,Al,,A,46,H,,,M,0,Ac,0,Gr,0,S,,,Sx,,,T,0,Tr,,Mn,0*39
$PGLOR,1,PWR,AvgP,105.320007,RFTm,1000,RunT,1000,OscTm,1000,SlpTm,0,MeasTm,1000*2D
$PGLOR,0,PPS,120416,174617.999,,,000.000,0,0,0,*02
$GPGSV,4,1,13,25,79,087,27,29,58,336,32,12,42,121,30,21,35,224,40*7D
$GPGSV,4,2,13,20,33,144,26,31,31,298,37,05,31,085,35,02,21,044,29*7B
$GPGSV,4,3,13,24,03,171,24,27,01,000,,03,01,000,,11,01,000,*7F
$GPGSV,4,4,13,26,01,314,*48
$GLGSV,1,1,04,83,01,000,40,67,01,000,27,75,01,000,,84,01,000,*64
$GPGSA,A,3,02,05,12,20,21,24,25,29,31,,,,1.6,1.3,0.9*33
$GNGSA,A,3,02,05,12,20,21,24,25,29,31,,,,1.6,1.3,0.9*2D
$GNGSA,A,3,,,,,,,,,,,,,1.6,1.3,0.9*20
$QZGSA,A,3,,,,,,,,,,,,,1.6,1.3,0.9*22
$PGLOR,1,FIX,1.0,1.0*20
$GPRMC,174618.00,A,3201.251262,N,03448.343044,E,000.0,287.4,120416,,,A*55
$GPGGA,174619.00,3201.251262,N,03448.343044,E,1,09,1.2,27.6,M,19.1,M,,*5F
$PGLOR,1,STA,174619.00,0.019,0.000,-308,1,12,1,P,F,L,0,C,2,S,0012,6721,5,R,33F4*7E
$PGLOR,1,SAT,G25,029,1F,G29,024,17,G12,025,1B,G21,040,1F,G20,022,1B,G31,035,1F,G05,031,1F,G02,020,1F,G24,021,1B,R19,037,$PGLOR,1,SIO,TxERR,0,RxERR,0,TxCNT,324,RxCNT,1580,DTMS,996,DTIN,1,2,DTOUT,203,921,HATMD,97*38
$PGLOR,0,HLA,174619.00,L,,Al,,A,46,H,,,M,0,Ac,0,Gr,0,S,,,Sx,,,T,0,Tr,,Mn,0*38
$PGLOR,1,PWR,AvgP,105.320007,RFTm,1000,RunT,1000,OscTm,1000,SlpTm,0,MeasTm,1000*2D
$PGLOR,0,PPS,120416,174618.999,,,000.000,0,0,0,*0D
$GPGSV,4,1,13,25,79,087,29,29,58,336,31,12,42,121,29,21,35,224,40*78
$GPGSV,4,2,13,20,33,144,25,31,31,298,37,05,31,085,34,02,21,044,28*78
$GPGSV,4,3,13,24,03,171,24,27,01,000,,03,01,000,,11,01,000,*7F
$GPGSV,4,4,13,26,01,314,*48
$GLGSV,1,1,04,83,01,000,39,67,01,000,27,75,01,000,,84,01,000,*6A
$GPGSA,A,3,02,05,12,20,21,24,25,29,31,,,,1.6,1.3,0.9*33
$GNGSA,A,3,02,05,12,20,21,24,25,29,31,,,,1.6,1.3,0.9*2D
$GNGSA,A,3,,,,,,,,,,,,,1.6,1.3,0.9*20
$QZGSA,A,3,,,,,,,,,,,,,1.6,1.3,0.9*22
$PGLOR,1,FIX,1.0,1.0*20
$GPRMC,174619.00,A,3201.251262,N,03448.343044,E,000.0,287.4,120416,,,A*54
$GPGGA,174620.00,3201.251262,N,03448.343044,E,1,09,1.2,27.6,M,19.1,M,,*55
$PGLOR,1,STA,174620.00,0.019,0.000,-307,1,12,1,P,F,L,0,C,2,S,0012,6721,5,R,33F4*7B
$PGLOR,1,SAT,G25,031,1F,G29,024,1F,G12,025,1B,G21,041,1F,G20,021,13,G31,036,1F,G05,030,1F,G02,019,1F,G24,020,1B,R19,038,$PGLOR,1,SIO,TxERR,0,RxERR,0,TxCNT,300,RxCNT,1616,DTMS,981,DTIN,1,4,DTOUT,177,948,HATMD,104*06
$PGLOR,0,HLA,174620.00,L,,Al,,A,46,H,,,M,0,Ac,0,Gr,0,S,,,Sx,,,T,0,Tr,,Mn,0*32
$PGLOR,1,PWR,AvgP,105.320007,RFTm,1000,RunT,1000,OscTm,1000,SlpTm,0,MeasTm,1000*2D
$PGLOR,0,PPS,120416,174619.999,,,000.000,0,0,0,*0C
$GPGSV,4,1,14,25,79,087,31,29,58,336,31,12,42,121,29,21,35,224,41*77
$GPGSV,4,2,14,20,33,144,25,31,31,298,37,05,31,085,34,02,21,044,27*70
$GPGSV,4,3,14,24,03,171,23,07,01,000,,11,01,000,,03,01,000,*7D
$GPGSV,4,4,14,27,01,000,,26,01,314,*7B
$GLGSV,1,1,04,83,01,000,39,67,01,000,27,75,01,000,,84,01,000,*6A
$GPGSA,A,3,02,05,12,20,21,24,25,29,31,,,,1.6,1.3,0.9*33
$GNGSA,A,3,02,05,12,20,21,24,25,29,31,,,,1.6,1.3,0.9*2D
$GNGSA,A,3,,,,,,,,,,,,,1.6,1.3,0.9*20
$QZGSA,A,3,,,,,,,,,,,,,1.6,1.3,0.9*22
$PGLOR,1,FIX,1.0,1.0*20
$GPRMC,174620.00,A,3201.251262,N,03448.343044,E,000.0,287.4,120416,,,A*5E
$GPGGA,174621.00,3201.251262,N,03448.343044,E,1,09,1.2,27.6,M,19.1,M,,*54
$PGLOR,1,STA,174621.00,0.019,0.000,-308,1,12,1,P,F,L,0,C,2,S,0012,6721,5,R,33F4*75
$PGLOR,1,SAT,G25,031,1F,G29,027,1F,G12,025,1B,G21,041,1F,G20,021,1B,G31,036,1F,G05,030,1F,G02,018,1F,G24,019,13,R19,037,$PGLOR,1,SIO,TxERR,0,RxERR,0,TxCNT,412,RxCNT,1684,DTMS,974,DTIN,1,2,DTOUT,157,958,HATMD,93*39
$PGLOR,0,HLA,174621.00,L,,Al,,A,46,H,,,M,0,Ac,0,Gr,0,S,,,Sx,,,T,0,Tr,,Mn,0*33
$PGLOR,1,PWR,AvgP,105.320007,RFTm,1000,RunT,1000,OscTm,1000,SlpTm,0,MeasTm,1000*2D
$PGLOR,0,PPS,120416,174620.999,,,000.000,0,0,0,*06
$GPGSV,4,1,14,25,79,087,31,29,58,336,30,12,42,121,28,21,35,224,41*77
$GPGSV,4,2,14,20,33,144,24,31,31,298,37,05,31,085,33,02,21,044,26*77
$GPGSV,4,3,14,24,03,171,23,07,01,000,,11,01,000,,03,01,000,*7D
$GPGSV,4,4,14,27,01,000,,26,01,314,*7B
$GLGSV,1,1,04,83,01,000,39,67,01,000,27,75,01,000,,84,01,000,*6A
$GPGSA,A,3,02,05,12,20,21,24,25,29,31,,,,1.6,1.3,0.9*33
$GNGSA,A,3,02,05,12,20,21,24,25,29,31,,,,1.6,1.3,0.9*2D
$GNGSA,A,3,,,,,,,,,,,,,1.6,1.3,0.9*20
$QZGSA,A,3,,,,,,,,,,,,,1.6,1.3,0.9*22
$PGLOR,1,FIX,1.0,1.0*20
$GPRMC,174621.00,A,3201.251262,N,03448.343044,E,000.0,287.4,120416,,,A*5F
$GPGGA,174622.00,3201.251262,N,03448.343044,E,1,09,0.6,27.6,M,19.1,M,,*52
$PGLOR,1,STA,174622.00,0.019,0.000,-308,1,6,1,P,F,L,0,C,2,S,0012,6721,5,R,33F4*43
$PGLOR,1,SAT,G25,030,1F,G29,026,1F,G12,025,13,G21,041,1F,G20,024,1B,G31,036,1F,G05,029,1F,G02,027,1F,G24,018,1B,R19,037,$PGLOR,1,SIO,TxERR,0,RxERR,0,TxCNT,468,RxCNT,1788,DTMS,985,DTIN,1,2,DTOUT,172,955,HATMD,103*05
$PGLOR,0,HLA,174622.00,L,,Al,,A,46,H,,,M,0,Ac,0,Gr,0,S,,,Sx,,,T,0,Tr,,Mn,0*30
$PGLOR,1,PWR,AvgP,105.320007,RFTm,1000,RunT,1000,OscTm,1000,SlpTm,0,MeasTm,1000*2D
$PGLOR,0,PPS,120416,174621.999,,,000.000,0,0,0,*07
$GPGSV,4,1,14,25,79,087,31,29,58,336,30,12,42,121,28,21,35,224,41*77
$GPGSV,4,2,14,20,33,144,24,31,31,298,37,05,31,085,33,02,21,044,27*76
$GPGSV,4,3,14,24,03,171,22,07,01,000,,11,01,000,,03,01,000,*7C
$GPGSV,4,4,14,27,01,000,,26,01,314,*7B
$GLGSV,1,1,04,83,01,000,39,67,01,000,26,75,01,000,,84,01,000,*6B
$GPGSA,A,3,02,05,12,20,21,24,25,29,31,,,,1.6,1.3,0.9*33
$GNGSA,A,3,02,05,12,20,21,24,25,29,31,,,,1.6,1.3,0.9*2D
$GNGSA,A,3,,,,,,,,,,,,,1.6,1.3,0.9*20
$QZGSA,A,3,,,,,,,,,,,,,1.6,1.3,0.9*22
$PGLOR,1,FIX,1.0,1.0*20
$GPRMC,174622.00,A,3201.251262,N,03448.343044,E,000.0,287.4,120416,,,A*5C
$GPGGA,174623.00,3201.251262,N,03448.343044,E,1,09,0.6,27.6,M,19.1,M,,*53
$PGLOR,1,STA,174623.00,0.019,0.000,-307,1,6,1,P,F,L,0,C,3,S,0012,6721,5,R,33F4*4C
$PGLOR,1,SAT,G25,024,1F,G29,032,1F,G12,026,13,G21,039,1F,G20,026,1F,G31,034,1F,G05,031,1F,G02,028,1F,G24,018,1B,R19,036,$PGLOR,1,SIO,TxERR,0,RxERR,0,TxCNT,268,RxCNT,1656,DTMS,975,DTIN,1,2,DTOUT,189,956,HATMD,105*0F
$PGLOR,0,HLA,174623.00,L,,Al,,A,46,H,,,M,0,Ac,0,Gr,0,S,,,Sx,,,T,0,Tr,,Mn,0*31
$PGLOR,1,PWR,AvgP,105.320007,RFTm,1000,RunT,1000,OscTm,1000,SlpTm,0,MeasTm,1000*2D
$PGLOR,0,PPS,120416,174622.999,,,000.000,0,0,0,*04
$GPGSV,4,1,13,25,79,087,30,29,58,336,32,12,42,121,28,21,35,224,41*73
$GPGSV,4,2,13,20,33,144,26,31,31,298,36,05,31,085,33,02,21,044,28*7D
$GPGSV,4,3,13,24,03,171,22,27,01,000,,03,01,000,,07,01,000,*7E
$GPGSV,4,4,13,26,01,314,*48
$GLGSV,1,1,04,83,01,000,39,67,01,000,26,75,01,000,,84,01,000,*6B
$GPGSA,A,3,02,05,12,20,21,24,25,29,31,,,,1.4,1.0,0.9*32
$GNGSA,A,3,02,05,12,20,21,24,25,29,31,,,,1.4,1.0,0.9*2C
$GNGSA,A,3,,,,,,,,,,,,,1.4,1.0,0.9*21
$QZGSA,A,3,,,,,,,,,,,,,1.4,1.0,0.9*23
$PGLOR,1,FIX,1.0,1.0*20
$GPRMC,174623.00,A,3201.251262,N,03448.343044,E,000.0,287.4,120416,,,A*5D
$GPGGA,174624.00,3201.251262,N,03448.343044,E,1,09,0.6,27.6,M,19.1,M,,*54
$PGLOR,1,STA,174624.00,0.019,0.000,-308,1,6,1,P,F,L,0,C,3,S,0012,6721,5,R,33F4*44
$PGLOR,1,SAT,G25,023,1F,G29,033,1F,G12,027,13,G21,038,1F,G20,022,1F,G31,033,1F,G05,032,1F,G02,033,1F,G24,019,13,R19,035,$PGLOR,1,SIO,TxERR,0,RxERR,0,TxCNT,484,RxCNT,1612,DTMS,973,DTIN,1,2,DTOUT,123,953,HATMD,101*0C
$PGLOR,0,HLA,174624.00,L,,Al,,A,46,H,,,M,0,Ac,0,Gr,0,S,,,Sx,,,T,0,Tr,,Mn,0*36
$PGLOR,1,PWR,AvgP,105.320007,RFTm,1000,RunT,1000,OscTm,1000,SlpTm,0,MeasTm,1000*2D
$PGLOR,0,PPS,120416,174623.999,,,000.000,0,0,0,*05
$GPGSV,4,1,14,25,79,087,30,29,58,336,33,12,42,121,28,21,35,224,41*75
$GPGSV,4,2,14,20,33,144,26,31,31,298,36,05,31,085,33,02,21,044,33*70
$GPGSV,4,3,14,24,03,171,22,07,01,000,,13,01,000,,03,01,000,*7E
$GPGSV,4,4,14,27,01,000,,26,01,314,*7B
$GLGSV,1,1,04,67,01,000,24,83,01,000,38,75,01,000,,84,01,000,*68
$GPGSA,A,3,02,05,12,20,21,24,25,29,31,,,,1.4,1.0,0.9*32
$GNGSA,A,3,02,05,12,20,21,24,25,29,31,,,,1.4,1.0,0.9*2C
$GNGSA,A,3,,,,,,,,,,,,,1.4,1.0,0.9*21
$QZGSA,A,3,,,,,,,,,,,,,1.4,1.0,0.9*23
$PGLOR,1,FIX,1.0,1.0*20
$GPRMC,174624.00,A,3201.251262,N,03448.343044,E,000.0,287.4,120416,,,A*5A
$GPGGA,174625.00,3201.251262,N,03448.343044,E,1,09,0.6,27.6,M,19.1,M,,*55
$PGLOR,1,STA,174625.00,0.019,0.000,-307,1,6,0,P,F,L,0,C,3,S,0012,6721,5,R,33F4*4B
$PGLOR,1,SAT,G25,030,1F,G29,032,1F,G12,031,1F,G21,038,1F,G20,025,17,G31,035,1F,G05,029,1F,G02,032,1F,G24,019,1B,R19,035,$PGLOR,1,SIO,TxERR,0,RxERR,0,TxCNT,228,RxCNT,1576,DTMS,978,DTIN,2,2,DTOUT,199,895,HATMD,107*09
$PGLOR,0,HLA,174625.00,L,,Al,,A,46,H,,,M,0,Ac,0,Gr,0,S,,,Sx,,,T,0,Tr,,Mn,0*37
$PGLOR,1,PWR,AvgP,105.320007,RFTm,1000,RunT,1000,OscTm,1000,SlpTm,0,MeasTm,1000*2D
$PGLOR,0,PPS,120416,174624.999,,,000.000,0,0,0,*02
$GPGSV,4,1,14,25,79,087,30,29,58,336,33,12,42,121,31,21,35,224,40*7C
$GPGSV,4,2,14,20,33,144,26,31,31,298,36,05,31,085,32,02,21,044,33*71
$GPGSV,4,3,14,24,03,171,21,13,01,000,,27,01,000,,03,01,000,*7F
$GPGSV,4,4,14,07,01,000,,26,01,314,*79
$GLGSV,1,1,03,83,01,000,38,67,01,000,28,84,01,000,*50
$GPGSA,A,3,02,05,12,20,21,24,25,29,31,,,,1.3,1.0,0.9*35
$GNGSA,A,3,02,05,12,20,21,24,25,29,31,,,,1.3,1.0,0.9*2B
$GNGSA,A,3,,,,,,,,,,,,,1.3,1.0,0.9*26
$QZGSA,A,3,,,,,,,,,,,,,1.3,1.0,0.9*24
$PGLOR,1,FIX,1.0,1.0*20
$GPRMC,174625.00,A,3201.251262,N,03448.343044,E,000.0,287.4,120416,,,A*5B
$GPGGA,174626.00,3201.251262,N,03448.343044,E,1,09,0.4,27.7,M,19.1,M,,*55
$PGLOR,1,STA,174626.00,0.019,0.000,-307,1,4,0,P,F,L,0,C,3,S,0012,6721,5,R,33F4*4A
$PGLOR,1,SAT,G25,030,1F,G29,033,1F,G12,033,1F,G21,036,1F,G20,027,1F,G31,039,1F,G05,028,1F,G02,031,1F,G24,018,13,R19,036,$PGLOR,1,SIO,TxERR,0,RxERR,0,TxCNT,276,RxCNT,1600,DTMS,972,DTIN,1,2,DTOUT,198,888,HATMD,104*07
$PGLOR,0,HLA,174626.00,L,,Al,,A,46,H,,,M,0,Ac,0,Gr,0,S,,,Sx,,,T,0,Tr,,Mn,0*34
$PGLOR,1,PWR,AvgP,105.320007,RFTm,1000,RunT,1000,OscTm,1000,SlpTm,0,MeasTm,1000*2D
$PGLOR,0,PPS,120416,174625.999,,,000.000,0,0,0,*03
$GPGSV,4,1,14,25,79,087,30,29,58,336,33,12,42,121,33,21,35,224,40*7E
$GPGSV,4,2,14,20,33,144,27,31,31,298,39,05,31,085,32,02,21,044,33*7F
$GPGSV,4,3,14,24,03,171,21,13,01,000,,27,01,000,,03,01,000,*7F
$GPGSV,4,4,14,07,01,000,,26,01,314,*79
$GLGSV,1,1,03,83,01,000,38,67,01,000,28,84,01,000,*50
$GPGSA,A,3,02,05,12,20,21,24,25,29,31,,,,1.3,1.0,0.9*35
$GNGSA,A,3,02,05,12,20,21,24,25,29,31,,,,1.3,1.0,0.9*2B
$GNGSA,A,3,,,,,,,,,,,,,1.3,1.0,0.9*26
$QZGSA,A,3,,,,,,,,,,,,,1.3,1.0,0.9*24
$PGLOR,1,FIX,1.0,1.0*20
$GPRMC,174626.00,A,3201.251262,N,03448.343044,E,000.0,287.4,120416,,,A*58
$GPGGA,174627.00,3201.251262,N,03448.343044,E,1,09,0.6,27.7,M,19.1,M,,*56
$PGLOR,1,STA,174627.00,0.019,0.000,-307,1,6,0,P,F,L,0,C,3,S,0012,6721,5,R,33F4*49
$PGLOR,1,SAT,G25,028,1F,G29,034,1F,G12,034,1F,G21,031,1F,G20,029,1F,G31,040,1F,G05,028,1B,G02,031,1F,G24,018,13,R19,038,$PGLOR,1,SIO,TxERR,0,RxERR,0,TxCNT,320,RxCNT,1700,DTMS,975,DTIN,1,4,DTOUT,197,890,HATMD,104*03
$PGLOR,0,HLA,174627.00,L,,Al,,A,46,H,,,M,0,Ac,0,Gr,0,S,,,Sx,,,T,0,Tr,,Mn,0*35
$PGLOR,1,PWR,AvgP,105.320007,RFTm,1000,RunT,1000,OscTm,1000,SlpTm,0,MeasTm,1000*2D
$PGLOR,0,PPS,120416,174626.999,,,000.000,0,0,0,*00
$GPGSV,4,1,14,25,79,087,30,29,58,336,34,12,42,121,34,21,35,224,39*70
$GPGSV,4,2,14,20,33,144,29,31,31,298,40,05,31,085,31,02,21,044,32*7D
$GPGSV,4,3,14,24,03,171,21,13,01,000,,27,01,000,,03,01,000,*7F
$GPGSV,4,4,14,07,01,000,,26,01,314,*79
$GLGSV,1,1,03,83,01,000,38,67,01,000,28,84,01,000,*50
$GPGSA,A,3,02,05,12,20,21,24,25,29,31,,,,1.4,1.0,0.9*32
$GNGSA,A,3,02,05,12,20,21,24,25,29,31,,,,1.4,1.0,0.9*2C
$GNGSA,A,3,,,,,,,,,,,,,1.4,1.0,0.9*21
$QZGSA,A,3,,,,,,,,,,,,,1.4,1.0,0.9*23
$PGLOR,1,FIX,1.0,1.0*20
$GPRMC,174627.00,A,3201.251262,N,03448.343044,E,000.0,287.4,120416,,,A*59
$GPGGA,174628.00,3201.251262,N,03448.343044,E,1,09,0.6,27.7,M,19.1,M,,*59
$PGLOR,1,STA,174628.00,0.019,0.000,-307,1,6,0,P,F,L,0,C,3,S,0012,6721,5,R,33F4*46
$PGLOR,1,SAT,G25,025,1F,G29,034,1F,G12,032,1F,G21,033,1F,G20,024,1F,G31,041,1F,G05,027,1B,G02,028,17,G24,018,1B,R19,037,$PGLOR,1,SIO,TxERR,0,RxERR,0,TxCNT,384,RxCNT,1760,DTMS,975,DTIN,1,4,DTOUT,196,893,HATMD,89*3D
$PGLOR,0,HLA,174628.00,L,,Al,,A,46,H,,,M,0,Ac,0,Gr,0,S,,,Sx,,,T,0,Tr,,Mn,0*3A
$PGLOR,1,PWR,AvgP,105.320007,RFTm,1000,RunT,1000,OscTm,1000,SlpTm,0,MeasTm,1000*2D
$PGLOR,0,PPS,120416,174627.999,,,000.000,0,0,0,*01
$GPGSV,4,1,14,25,79,087,29,29,58,336,34,12,42,121,34,21,35,224,38*79
$GPGSV,4,2,14,20,33,144,28,31,31,298,41,05,31,085,31,02,21,044,32*7D
$GPGSV,4,3,14,24,03,171,21,13,01,000,,27,01,000,,03,01,000,*7F
$GPGSV,4,4,14,07,01,000,,26,01,314,*79
$GLGSV,1,1,03,83,01,000,38,67,01,000,30,84,01,000,*59
$GPGSA,A,3,02,05,12,20,21,24,25,29,31,,,,1.4,1.0,0.9*32
$GNGSA,A,3,02,05,12,20,21,24,25,29,31,,,,1.4,1.0,0.9*2C
$GNGSA,A,3,,,,,,,,,,,,,1.4,1.0,0.9*21
$QZGSA,A,3,,,,,,,,,,,,,1.4,1.0,0.9*23
$PGLOR,1,FIX,1.0,1.0*20
$GPRMC,174628.00,A,3201.251262,N,03448.343044,E,000.0,287.4,120416,,,A*56
$GPGGA,174629.00,3201.254597,N,03448.342317,E,1,09,0.6,27.7,M,19.1,M,,*54
$PGLOR,1,STA,174629.00,0.019,0.000,-307,1,6,1,P,F,L,0,C,2,S,0012,6725,5,R,33F4*43
$PGLOR,1,SAT,G25,027,1F,G29,033,1F,G12,026,1F,G21,035,1F,G20,023,1B,G31,038,1F,G05,027,1B,G02,029,1F,G24,017,13,R19,036,$PGLOR,1,SIO,TxERR,0,RxERR,0,TxCNT,452,RxCNT,1636,DTMS,990,DTIN,1,1,DTOUT,174,921,HATMD,83*33
$PGLOR,0,HLA,174629.00,L,,Al,,A,46,H,,,M,0,Ac,0,Gr,0,S,,,Sx,,,T,0,Tr,,Mn,0*3B
$PGLOR,1,PWR,AvgP,105.320007,RFTm,1000,RunT,1000,OscTm,1000,SlpTm,0,MeasTm,1000*2D
$PGLOR,0,PPS,120416,174628.999,,,000.000,0,0,0,*0E
$GPGSV,4,1,14,25,79,087,29,29,58,336,34,12,42,121,33,21,35,224,38*7E
$GPGSV,4,2,14,20,33,144,28,31,31,298,41,05,31,085,31,02,21,044,32*7D
$GPGSV,4,3,14,24,03,171,20,13,01,000,,27,01,000,,03,01,000,*7E
$GPGSV,4,4,14,07,01,000,,26,01,314,*79
$GLGSV,1,1,03,83,01,000,38,67,01,000,29,84,01,000,*51
$GPGSA,A,3,02,05,12,20,21,24,25,29,31,,,,1.5,1.2,0.9*31
$GNGSA,A,3,02,05,12,20,21,24,25,29,31,,,,1.5,1.2,0.9*2F
$GNGSA,A,3,,,,,,,,,,,,,1.5,1.2,0.9*22
$QZGSA,A,3,,,,,,,,,,,,,1.5,1.2,0.9*20
$PGLOR,1,FIX,1.0,1.0*20
$GPRMC,174629.00,A,3201.254597,N,03448.342317,E,002.9,357.3,120416,,,A*5B
$GPGGA,174630.00,3201.255662,N,03448.342182,E,1,09,0.6,27.7,M,19.1,M,,*5A
$PGLOR,1,STA,174630.00,0.019,0.000,-306,1,6,1,P,F,L,0,C,3,S,0012,6727,5,R,33F4*49
$PGLOR,1,SAT,G25,027,1F,G29,025,1F,G12,027,1F,G21,035,1F,G20,022,1B,G31,036,1F,G05,024,1F,G02,027,1F,G24,017,13,R19,033,$PGLOR,1,SIO,TxERR,0,RxERR,0,TxCNT,284,RxCNT,1536,DTMS,996,DTIN,1,1,DTOUT,171,916,HATMD,83*3A
$PGLOR,0,HLA,174630.00,L,,Al,,A,46,H,,,M,0,Ac,0,Gr,0,S,,,Sx,,,T,0,Tr,,Mn,0*33
$PGLOR,1,PWR,AvgP,105.320007,RFTm,1000,RunT,1000,OscTm,1000,SlpTm,0,MeasTm,1000*2D
$PGLOR,0,PPS,120416,174629.999,,,000.000,0,0,0,*0F
$GPGSV,4,1,15,25,79,087,29,29,58,336,33,12,42,121,32,21,35,224,38*79
$GPGSV,4,2,15,20,33,144,27,31,31,298,40,05,31,085,30,02,21,044,31*70
$GPGSV,4,3,15,24,03,171,20,07,01,000,,13,01,000,,14,01,000,*7B
$GPGSV,4,4,15,27,01,000,,03,01,000,,26,01,314,*48
$GLGSV,1,1,03,67,01,000,26,83,01,000,37,84,01,000,*51
$GPGSA,A,3,02,05,12,20,21,24,25,29,31,,,,1.4,1.1,0.9*33
$GNGSA,A,3,02,05,12,20,21,24,25,29,31,,,,1.4,1.1,0.9*2D
$GNGSA,A,3,,,,,,,,,,,,,1.4,1.1,0.9*20
$QZGSA,A,3,,,,,,,,,,,,,1.4,1.1,0.9*22
$PGLOR,1,FIX,1.0,1.0*20
$GPRMC,174630.00,A,3201.255662,N,03448.342182,E,003.2,350.3,120416,,,A*58
$GPGGA,174631.00,3201.256565,N,03448.342033,E,1,09,0.6,27.7,M,19.1,M,,*57
$PGLOR,1,STA,174631.00,0.019,0.000,-306,1,6,3,P,F,L,0,C,2,S,0012,6729,5,R,33F4*45
$PGLOR,1,SAT,G25,024,1F,G29,030,1F,G12,023,1F,G21,033,1F,G20,022,1B,G31,033,1F,G05,026,1B,G02,025,1F,G24,016,13,R19,032,$PGLOR,1,SIO,TxERR,0,RxERR,0,TxCNT,360,RxCNT,1580,DTMS,996,DTIN,1,1,DTOUT,169,928,HATMD,89*32
$PGLOR,0,HLA,174631.00,L,,Al,,A,46,H,,,M,0,Ac,0,Gr,0,S,,,Sx,,,T,0,Tr,,Mn,0*32
$PGLOR,1,PWR,AvgP,105.320007,RFTm,1000,RunT,1000,OscTm,1000,SlpTm,0,MeasTm,1000*2D
$PGLOR,0,PPS,120416,174630.999,,,000.000,0,0,0,*07
$GPGSV,4,1,14,25,79,087,28,29,58,336,33,12,42,121,31,21,35,224,37*75
$GPGSV,4,2,14,20,33,144,27,31,31,298,40,05,31,085,30,02,21,044,31*71
$GPGSV,4,3,14,24,03,171,19,14,01,000,,27,01,000,,03,01,000,*73
$GPGSV,4,4,14,13,01,000,,26,01,314,*7C
$GLGSV,1,1,03,83,01,000,37,67,01,000,30,84,01,000,*56
$GPGSA,A,3,02,05,12,20,21,24,25,29,31,,,,1.5,1.2,0.9*31
$GNGSA,A,3,02,05,12,20,21,24,25,29,31,,,,1.5,1.2,0.9*2F
$GNGSA,A,3,,,,,,,,,,,,,1.5,1.2,0.9*22
$QZGSA,A,3,,,,,,,,,,,,,1.5,1.2,0.9*20
$PGLOR,1,FIX,1.0,1.0*20
$GPRMC,174631.00,A,3201.256565,N,03448.342033,E,002.7,349.9,120416,,,A*53
$GPGGA,174632.00,3201.257440,N,03448.341901,E,1,09,0.6,27.7,M,19.1,M,,*58
$PGLOR,1,STA,174632.00,0.019,0.000,-306,1,6,3,P,F,L,0,C,2,S,0012,6730,5,R,33F4*4E
$PGLOR,1,SAT,G25,028,1F,G29,032,1F,G12,027,1B,G21,036,1F,G20,027,1B,G31,034,1F,G05,029,1F,G02,028,1F,G24,016,13,R19,034,$PGLOR,1,SIO,TxERR,0,RxERR,0,TxCNT,268,RxCNT,1600,DTMS,990,DTIN,1,2,DTOUT,169,931,HATMD,90*35
$PGLOR,0,HLA,174632.00,L,,Al,,A,46,H,,,M,0,Ac,0,Gr,0,S,,,Sx,,,T,0,Tr,,Mn,0*31
$PGLOR,1,PWR,AvgP,105.320007,RFTm,1000,RunT,1000,OscTm,1000,SlpTm,0,MeasTm,1000*2D
$PGLOR,0,PPS,120416,174631.999,,,000.000,0,0,0,*06
$GPGSV,4,1,14,25,79,087,28,29,58,336,33,12,42,121,31,21,35,224,37*75
$GPGSV,4,2,14,20,33,144,27,31,31,298,39,05,31,085,30,02,21,044,30*7E
$GPGSV,4,3,14,24,03,171,19,13,01,000,,14,01,000,,03,01,000,*74
$GPGSV,4,4,14,27,01,000,,26,01,314,*7B
$GLGSV,1,1,04,83,01,000,37,67,01,000,33,73,01,000,,84,01,000,*67
$GPGSA,A,3,02,05,12,20,21,24,25,29,31,,,,1.6,1.3,0.9*33
$GNGSA,A,3,02,05,12,20,21,24,25,29,31,,,,1.6,1.3,0.9*2D
$GNGSA,A,3,,,,,,,,,,,,,1.6,1.3,0.9*20
$QZGSA,A,3,,,,,,,,,,,,,1.6,1.3,0.9*22
$PGLOR,1,FIX,1.0,1.0*20
$GPRMC,174632.00,A,3201.257440,N,03448.341901,E,002.8,350.9,120416,,,A*5B
$GPGGA,174633.00,3201.258296,N,03448.341757,E,1,09,1.2,27.7,M,19.1,M,,*53
$PGLOR,1,STA,174633.00,0.019,0.000,-306,1,12,1,P,F,L,0,C,3,S,0012,6732,5,R,33F4*7B
$PGLOR,1,SAT,G25,030,1F,G29,032,1F,G12,023,1F,G21,036,1F,G20,024,1F,G31,035,1F,G05,029,1F,G02,026,1F,G24,016,13,R19,033,$PGLOR,1,SIO,TxERR,0,RxERR,0,TxCNT,360,RxCNT,1676,DTMS,989,DTIN,2,3,DTOUT,187,945,HATMD,83*36
$PGLOR,0,HLA,174633.00,L,,Al,,A,46,H,,,M,0,Ac,0,Gr,0,S,,,Sx,,,T,0,Tr,,Mn,0*30
$PGLOR,1,PWR,AvgP,105.320007,RFTm,1000,RunT,1000,OscTm,1000,SlpTm,0,MeasTm,1000*2D
$PGLOR,0,PPS,120416,174632.999,,,000.000,0,0,0,*05
$GPGSV,4,1,14,25,79,088,30,29,58,336,33,12,42,121,30,21,35,224,37*72
$GPGSV,4,2,14,20,33,144,27,31,31,298,39,05,31,085,29,02,21,044,30*76
$GPGSV,4,3,14,24,03,171,19,13,01,000,,14,01,000,,03,01,000,*74
$GPGSV,4,4,14,27,01,000,,26,01,314,*7B
$GLGSV,1,1,04,83,01,000,36,67,01,000,32,73,01,000,,84,01,000,*67
$GPGSA,A,3,02,05,12,20,21,24,25,29,31,,,,1.3,1.0,0.9*35
$GNGSA,A,3,02,05,12,20,21,24,25,29,31,,,,1.3,1.0,0.9*2B
$GNGSA,A,3,,,,,,,,,,,,,1.3,1.0,0.9*26
$QZGSA,A,3,,,,,,,,,,,,,1.3,1.0,0.9*24
$PGLOR,1,FIX,1.0,1.0*20
$GPRMC,174633.00,A,3201.258296,N,03448.341757,E,002.3,341.7,120416,,,A*50
$GPGGA,174634.00,3201.258296,N,03448.341757,E,1,09,0.6,27.7,M,19.1,M,,*51
$PGLOR,1,STA,174634.00,0.019,0.000,-306,1,6,0,P,F,L,0,C,2,S,0012,6732,5,R,33F4*49
$PGLOR,1,SAT,G25,028,1F,G29,030,1F,G12,026,13,G21,036,1F,G20,025,1B,G31,034,1F,G05,030,1F,G02,031,1F,G24,016,1B,R23,034,$PGLOR,1,SIO,TxERR,0,RxERR,0,TxCNT,384,RxCNT,1744,DTMS,996,DTIN,1,3,DTOUT,187,978,HATMD,110*04
$PGLOR,0,HLA,174634.00,L,,Al,,A,46,H,,,M,0,Ac,0,Gr,0,S,,,Sx,,,T,0,Tr,,Mn,0*37
$PGLOR,1,PWR,AvgP,105.320007,RFTm,1000,RunT,1000,OscTm,1000,SlpTm,0,MeasTm,1000*2D
$PGLOR,0,PPS,120416,174633.999,,,000.000,0,0,0,*04
$GPGSV,4,1,15,25,79,088,30,29,58,336,32,12,42,121,30,21,35,224,37*72
$GPGSV,4,2,15,20,33,144,26,31,31,298,38,05,31,085,30,02,21,044,31*7E
$GPGSV,4,3,15,24,03,171,18,03,01,000,,13,01,000,,14,01,000,*74
$GPGSV,4,4,15,18,01,000,,27,01,000,,26,01,314,*42
$GLGSV,1,1,04,87,01,000,36,67,01,000,32,84,01,000,,73,01,000,*63
$GPGSA,A,3,02,05,12,20,21,24,25,29,31,,,,1.6,1.3,0.9*33
$GNGSA,A,3,02,05,12,20,21,24,25,29,31,,,,1.6,1.3,0.9*2D
$GNGSA,A,3,,,,,,,,,,,,,1.6,1.3,0.9*20
$QZGSA,A,3,,,,,,,,,,,,,1.6,1.3,0.9*22
$PGLOR,1,FIX,1.0,1.0*20
$GPRMC,174634.00,A,3201.258296,N,03448.341757,E,000.0,341.7,120416,,,A*56
$GPGGA,174635.00,3201.259183,N,03448.341219,E,1,09,0.6,27.6,M,19.1,M,,*58
$PGLOR,1,STA,174635.00,0.019,0.000,-306,1,6,1,P,F,L,0,C,2,S,0012,6734,5,R,33F4*4F
$PGLOR,1,SAT,G25,026,1F,G29,031,1F,G12,027,1F,R23,035,13,G21,038,17,G20,026,1F,G31,035,1F,G05,029,1B,G02,031,1B,G24,016,$PGLOR,1,SIO,TxERR,0,RxERR,0,TxCNT,240,RxCNT,1544,DTMS,970,DTIN,1,1,DTOUT,180,958,HATMD,90*39
$PGLOR,0,HLA,174635.00,L,,Al,,A,46,H,,,M,0,Ac,0,Gr,0,S,,,Sx,,,T,0,Tr,,Mn,0*36
$PGLOR,1,PWR,AvgP,105.320007,RFTm,1000,RunT,1000,OscTm,1000,SlpTm,0,MeasTm,1000*2D
$PGLOR,0,PPS,120416,174634.999,,,000.000,0,0,0,*03
$GPGSV,4,1,14,25,79,088,29,29,58,336,32,12,42,121,29,21,35,224,38*7C
$GPGSV,4,2,14,20,33,144,26,31,31,298,38,05,31,085,30,02,21,044,31*7F
$GPGSV,4,3,14,24,03,171,18,14,01,000,,18,01,000,,27,01,000,*78
$GPGSV,4,4,14,03,01,000,,26,01,314,*7D
$GLGSV,1,1,04,87,41,285,36,67,01,000,32,73,01,000,,84,01,000,*68
$GPGSA,A,3,02,05,12,20,21,24,25,29,31,,,,1.7,1.4,1.0*3D
$GNGSA,A,3,02,05,12,20,21,24,25,29,31,,,,1.7,1.4,1.0*23
$GNGSA,A,3,,,,,,,,,,,,,1.7,1.4,1.0*2E
$QZGSA,A,3,,,,,,,,,,,,,1.7,1.4,1.0*2C
$PGLOR,1,FIX,1.0,1.0*20
$GPRMC,174635.00,A,3201.259183,N,03448.341219,E,001.9,325.5,120416,,,A*56
$GPGGA,174636.00,3201.259679,N,03448.340902,E,1,09,0.6,27.6,M,19.1,M,,*59
$PGLOR,1,STA,174636.00,0.019,0.000,-305,1,6,3,P,F,L,0,C,2,S,0012,6735,5,R,33F4*4C
$PGLOR,1,SAT,G25,028,1F,G29,031,1F,G12,027,1F,R23,033,13,G21,038,1F,G20,024,1B,G31,033,1F,G05,028,1B,G02,032,1F,G24,016,$PGLOR,1,SIO,TxERR,0,RxERR,0,TxCNT,292,RxCNT,1556,DTMS,989,DTIN,1,2,DTOUT,180,968,HATMD,105*0E
$PGLOR,0,HLA,174636.00,L,,Al,,A,46,H,,,M,0,Ac,0,Gr,0,S,,,Sx,,,T,0,Tr,,Mn,0*35
$PGLOR,1,PWR,AvgP,105.320007,RFTm,1000,RunT,1000,OscTm,1000,SlpTm,0,MeasTm,1000*2D
$PGLOR,0,PPS,120416,174635.999,,,000.000,0,0,0,*02
$GPGSV,4,1,14,25,79,088,29,29,58,336,32,12,42,121,29,21,35,224,38*7C
$GPGSV,4,2,14,20,33,144,26,31,31,298,38,05,31,085,30,02,21,044,32*7C
$GPGSV,4,3,14,24,03,171,18,14,01,000,,18,01,000,,27,01,000,*78
$GPGSV,4,4,14,03,01,000,,26,01,314,*7D
$GLGSV,1,1,04,87,41,285,36,67,01,000,32,73,01,000,,84,01,000,*68
$GPGSA,A,3,02,05,12,20,21,24,25,29,31,,,,1.5,1.2,0.9*31
$GNGSA,A,3,02,05,12,20,21,24,25,29,31,,,,1.5,1.2,0.9*2F
$GNGSA,A,3,,,,,,,,,,,,,1.5,1.2,0.9*22
$QZGSA,A,3,,,,,,,,,,,,,1.5,1.2,0.9*20
$PGLOR,1,FIX,1.0,1.0*20
$GPRMC,174636.00,A,3201.259679,N,03448.340902,E,001.9,326.9,120416,,,A*58
$GPGGA,174637.00,3201.259679,N,03448.340902,E,1,09,0.6,27.6,M,19.1,M,,*58
$PGLOR,1,STA,174637.00,0.019,0.000,-305,1,6,0,P,F,L,0,C,3,S,0012,6735,5,R,33F4*4F
$PGLOR,1,SAT,G25,029,1F,G29,031,1F,G12,026,1B,R23,030,13,G21,038,1F,G20,026,1F,G31,036,1F,G05,028,1F,G02,036,1F,G24,016,$PGLOR,1,SIO,TxERR,0,RxERR,0,TxCNT,240,RxCNT,1556,DTMS,974,DTIN,1,2,DTOUT,180,952,HATMD,83*35
$PGLOR,0,HLA,174637.00,L,,Al,,A,46,H,,,M,0,Ac,0,Gr,0,S,,,Sx,,,T,0,Tr,,Mn,0*34
$PGLOR,1,PWR,AvgP,105.320007,RFTm,1000,RunT,1000,OscTm,1000,SlpTm,0,MeasTm,1000*2D
$PGLOR,0,PPS,120416,174636.999,,,000.000,0,0,0,*01
$GPGSV,4,1,14,25,79,088,29,29,58,336,32,12,42,121,29,21,35,224,38*7C
$GPGSV,4,2,14,20,33,144,26,31,31,298,37,05,31,085,30,02,21,044,36*77
$GPGSV,4,3,14,24,03,171,18,14,01,000,,18,01,000,,27,01,000,*78
$GPGSV,4,4,14,03,01,000,,26,01,314,*7D
$GLGSV,1,1,04,87,41,285,35,67,01,000,31,73,01,000,,84,01,000,*68
$GPGSA,A,3,02,05,12,20,21,24,25,29,31,,,,1.4,1.0,0.9*32
$GNGSA,A,3,02,05,12,20,21,24,25,29,31,,,,1.4,1.0,0.9*2C
$GNGSA,A,3,,,,,,,,,,,,,1.4,1.0,0.9*21
$QZGSA,A,3,,,,,,,,,,,,,1.4,1.0,0.9*23
$PGLOR,1,FIX,1.0,1.0*20
$GPRMC,174637.00,A,3201.259679,N,03448.340902,E,000.0,326.9,120416,,,A*51
$GPGGA,174638.00,3201.259679,N,03448.340902,E,1,09,0.6,27.6,M,19.1,M,,*57
$PGLOR,1,STA,174638.00,0.019,0.000,-305,1,6,0,P,F,L,0,C,3,S,0012,6735,5,R,33F4*40
$PGLOR,1,SAT,G25,028,1F,G29,031,1F,G12,027,1F,R23,033,13,G21,039,1F,G20,027,13,G31,032,1F,G05,034,1F,G02,031,1F,G24,016,$PGLOR,1,SIO,TxERR,0,RxERR,0,TxCNT,228,RxCNT,1508,DTMS,972,DTIN,1,1,DTOUT,180,914,HATMD,60*3A
$PGLOR,0,HLA,174638.00,L,,Al,,A,46,H,,,M,0,Ac,0,Gr,0,S,,,Sx,,,T,0,Tr,,Mn,0*3B
$PGLOR,1,PWR,AvgP,105.320007,RFTm,1000,RunT,1000,OscTm,1000,SlpTm,0,MeasTm,1000*2D
$PGLOR,1,PFM,HAL,P,0,0,100,0,RF,F,-127,0.0,1,RTC,6000000.0,P,STO,P,LTO,F,SW,P*0C
$PGLOR,0,PPS,120416,174637.999,,,000.000,0,0,0,*00
$GPGSV,4,1,14,25,79,088,29,29,58,336,32,12,42,121,29,21,35,224,39*7D
$GPGSV,4,2,14,20,33,144,27,31,31,298,37,05,31,085,34,02,21,044,35*71
$GPGSV,4,3,14,24,03,171,18,14,01,000,,18,01,000,,27,01,000,*78
$GPGSV,4,4,14,03,01,000,,26,01,314,*7D
$GLGSV,1,1,04,87,41,285,35,67,01,000,31,73,01,000,,84,01,000,*68
$GPGSA,A,3,02,05,12,20,21,24,25,29,31,,,,1.4,1.1,0.9*33
$GNGSA,A,3,02,05,12,20,21,24,25,29,31,,,,1.4,1.1,0.9*2D
$GNGSA,A,3,,,,,,,,,,,,,1.4,1.1,0.9*20
$QZGSA,A,3,,,,,,,,,,,,,1.4,1.1,0.9*22
$PGLOR,1,FIX,1.0,1.0*20
$GPRMC,174638.00,A,3201.259679,N,03448.340902,E,000.0,326.9,120416,,,A*5E
$GPGGA,174639.00,3201.259679,N,03448.340902,E,1,09,0.6,27.5,M,19.1,M,,*55
$PGLOR,1,STA,174639.00,0.019,0.000,-305,1,6,0,P,F,L,0,C,2,S,0012,6735,5,R,33F4*40
$PGLOR,1,SAT,G25,030,1F,G29,032,1F,G12,024,1B,R23,029,13,G21,039,1F,G20,027,1B,G31,034,1F,G05,034,1F,G02,028,1F,G24,016,$PGLOR,1,SIO,TxERR,0,RxERR,0,TxCNT,360,RxCNT,1668,DTMS,994,DTIN,1,1,DTOUT,182,942,HATMD,59*31
$PGLOR,0,HLA,174639.00,L,,Al,,A,46,H,,,M,0,Ac,0,Gr,0,S,,,Sx,,,T,0,Tr,,Mn,0*3A
$PGLOR,1,PWR,AvgP,105.320007,RFTm,1000,RunT,1000,OscTm,1000,SlpTm,0,MeasTm,1000*2D
$PGLOR,0,PPS,120416,174638.999,,,000.000,0,0,0,*0F
$GPGSV,4,1,14,25,79,088,30,29,58,336,32,12,42,121,28,21,35,224,39*74
$GPGSV,4,2,14,20,33,144,27,31,31,298,36,05,31,085,34,02,21,044,35*70
$GPGSV,4,3,14,24,03,171,17,14,01,000,,18,01,000,,27,01,000,*77
$GPGSV,4,4,14,03,01,000,,26,01,314,*7D
$GLGSV,1,1,04,87,41,285,34,67,01,000,31,73,01,000,,84,01,000,*69
$GPGSA,A,3,02,05,12,20,21,24,25,29,31,,,,1.6,1.3,0.9*33
$GNGSA,A,3,02,05,12,20,21,24,25,29,31,,,,1.6,1.3,0.9*2D
$GNGSA,A,3,,,,,,,,,,,,,1.6,1.3,0.9*20
$QZGSA,A,3,,,,,,,,,,,,,1.6,1.3,0.9*22
$PGLOR,1,FIX,1.0,1.0*20
$GPRMC,174639.00,A,3201.259679,N,03448.340902,E,000.0,326.9,120416,,,A*5F
$GPGGA,174640.00,3201.259679,N,03448.340902,E,1,09,0.6,27.5,M,19.1,M,,*5B
$PGLOR,1,STA,174640.00,0.019,0.000,-306,1,6,0,P,F,L,0,C,2,S,0012,6735,5,R,33F4*4D
$PGLOR,1,SAT,G25,029,1F,G29,030,1F,G12,031,1F,R23,029,13,G21,034,1F,G20,026,1B,G31,032,1F,G05,029,1F,G02,028,1B,G24,016,$PGLOR,1,SIO,TxERR,0,RxERR,0,TxCNT,384,RxCNT,1744,DTMS,996,DTIN,1,1,DTOUT,159,940,HATMD,84*32
$PGLOR,0,HLA,174640.00,L,,Al,,A,46,H,,,M,0,Ac,0,Gr,0,S,,,Sx,,,T,0,Tr,,Mn,0*34
$PGLOR,1,PWR,AvgP,105.320007,RFTm,1000,RunT,1000,OscTm,1000,SlpTm,0,MeasTm,1000*2D
$PGLOR,0,PPS,120416,174639.999,,,000.000,0,0,0,*0E
$GPGSV,4,1,15,25,79,088,30,29,58,336,32,12,42,121,31,21,35,224,38*7C
$GPGSV,4,2,15,20,33,144,27,31,31,298,36,05,31,085,33,02,21,044,34*77
$GPGSV,4,3,15,24,03,171,17,14,01,000,,18,01,000,,27,01,000,*76
$GPGSV,4,4,15,32,01,000,,03,01,000,,26,01,314,*4C
$GLGSV,1,1,04,87,41,285,34,67,01,000,30,73,01,000,,84,01,000,*68
$GPGSA,A,3,02,05,12,20,21,24,25,29,31,,,,1.6,1.3,1.0*3B
$GNGSA,A,3,02,05,12,20,21,24,25,29,31,,,,1.6,1.3,1.0*25
$GNGSA,A,3,,,,,,,,,,,,,1.6,1.3,1.0*28
$QZGSA,A,3,,,,,,,,,,,,,1.6,1.3,1.0*2A
$PGLOR,1,FIX,1.0,1.0*20
$GPRMC,174640.00,A,3201.259679,N,03448.340902,E,000.0,326.9,120416,,,A*51
$GPGGA,174641.00,3201.259679,N,03448.340902,E,1,09,0.6,27.5,M,19.1,M,,*5A
$PGLOR,1,STA,174641.00,0.019,0.000,-305,1,6,0,P,F,L,0,C,3,S,0012,6735,5,R,33F4*4E
$PGLOR,1,SAT,G25,030,1F,G29,027,1F,G12,028,1F,R23,023,13,G21,037,1F,G20,025,1F,G31,031,1F,G05,031,1B,G02,030,1F,G24,016,$PGLOR,1,SIO,TxERR,0,RxERR,0,TxCNT,308,RxCNT,1588,DTMS,971,DTIN,1,4,DTOUT,159,909,HATMD,81*30
$PGLOR,0,HLA,174641.00,L,,Al,,A,46,H,,,M,0,Ac,0,Gr,0,S,,,Sx,,,T,0,Tr,,Mn,0*35
$PGLOR,1,PWR,AvgP,105.320007,RFTm,1000,RunT,1000,OscTm,1000,SlpTm,0,MeasTm,1000*2D
$PGLOR,0,PPS,120416,174640.999,,,000.000,0,0,0,*00
$GPGSV,4,1,14,25,79,088,30,29,58,336,31,12,42,121,31,21,35,224,38*7E
$GPGSV,4,2,14,20,33,144,26,31,31,298,35,05,31,085,33,02,21,044,34*74
$GPGSV,4,3,14,24,03,171,17,18,01,000,,27,01,000,,32,01,000,*73
$GPGSV,4,4,14,03,01,000,,26,01,314,*7D
$GLGSV,2,1,05,87,41,285,33,67,01,000,30,73,01,000,,76,01,000,*60
$GLGSV,2,2,05,84,01,000,*5D
$GPGSA,A,3,02,05,12,20,21,24,25,29,31,,,,1.4,1.0,0.9*32
$GNGSA,A,3,02,05,12,20,21,24,25,29,31,,,,1.4,1.0,0.9*2C
$GNGSA,A,3,,,,,,,,,,,,,1.4,1.0,0.9*21
$QZGSA,A,3,,,,,,,,,,,,,1.4,1.0,0.9*23
$PGLOR,1,FIX,1.0,1.0*20
$GPRMC,174641.00,A,3201.259679,N,03448.340902,E,000.0,326.9,120416,,,A*50
$GPGGA,174642.00,3201.259679,N,03448.340902,E,1,09,0.6,27.5,M,19.1,M,,*59
$PGLOR,1,STA,174642.00,0.019,0.000,-305,1,6,1,P,F,L,0,C,3,S,0012,6735,5,R,33F4*4C
$PGLOR,1,SAT,G25,027,1F,G29,025,1F,G12,029,1B,R23,022,13,G21,039,1F,G20,025,1F,G31,027,1F,G05,031,1F,G02,034,1F,G24,016,$PGLOR,1,SIO,TxERR,0,RxERR,0,TxCNT,308,RxCNT,1608,DTMS,974,DTIN,1,3,DTOUT,177,913,HATMD,61*30
$PGLOR,0,HLA,174642.00,L,,Al,,A,46,H,,,M,0,Ac,0,Gr,0,S,,,Sx,,,T,0,Tr,,Mn,0*36
$PGLOR,1,PWR,AvgP,105.320007,RFTm,1000,RunT,1000,OscTm,1000,SlpTm,0,MeasTm,1000*2D
$PGLOR,0,PPS,120416,174641.999,,,000.000,0,0,0,*01
$GPGSV,4,1,14,25,79,088,29,29,58,336,31,12,42,121,31,21,35,224,39*77
$GPGSV,4,2,14,20,33,144,26,31,31,298,35,05,31,085,33,02,21,044,34*74
$GPGSV,4,3,14,24,03,171,17,18,01,000,,19,01,000,,32,01,000,*7E
$GPGSV,4,4,14,03,01,000,,26,01,314,*7D
$GLGSV,2,1,05,87,41,285,32,67,01,000,31,73,01,000,,76,01,000,*60
$GLGSV,2,2,05,84,01,000,*5D
$GPGSA,A,3,02,05,12,20,21,24,25,29,31,,,,1.4,1.0,0.9*32
$GNGSA,A,3,02,05,12,20,21,24,25,29,31,,,,1.4,1.0,0.9*2C
$GNGSA,A,3,,,,,,,,,,,,,1.4,1.0,0.9*21
$QZGSA,A,3,,,,,,,,,,,,,1.4,1.0,0.9*23
$PGLOR,1,FIX,1.0,1.0*20
$GPRMC,174642.00,A,3201.259679,N,03448.340902,E,000.0,326.9,120416,,,A*53
$GPGGA,174643.00,3201.259679,N,03448.340902,E,1,09,0.6,27.5,M,19.1,M,,*58
$PGLOR,1,STA,174643.00,0.019,0.000,-305,1,6,1,P,F,L,0,C,3,S,0012,6735,5,R,33F4*4D
$PGLOR,1,SAT,G25,028,1F,G29,024,1F,G12,028,1F,R23,024,13,G21,038,1F,G20,030,1F,G31,022,1B,G05,033,1F,G02,033,1F,G24,016,$PGLOR,1,SIO,TxERR,0,RxERR,0,TxCNT,280,RxCNT,1564,DTMS,994,DTIN,0,0,DTOUT,177,941,HATMD,61*33
$PGLOR,0,HLA,174643.00,L,,Al,,A,46,H,,,M,0,Ac,0,Gr,0,S,,,Sx,,,T,0,Tr,,Mn,0*37
$PGLOR,1,PWR,AvgP,105.320007,RFTm,1000,RunT,1000,OscTm,1000,SlpTm,0,MeasTm,1000*2D
$PGLOR,0,PPS,120416,174642.999,,,000.000,0,0,0,*02
$GPGSV,4,1,14,25,79,088,29,29,58,336,30,12,42,121,31,21,35,224,39*76
$GPGSV,4,2,14,20,33,144,30,31,31,298,33,05,31,085,33,02,21,044,34*75
$GPGSV,4,3,14,24,03,171,17,18,01,000,,19,01,000,,32,01,000,*7E
$GPGSV,4,4,14,03,01,000,,26,01,314,*7D
$GLGSV,1,1,04,87,41,285,31,67,01,000,30,76,01,000,,84,01,000,*68
$GPGSA,A,3,02,05,12,20,21,24,25,29,31,,,,1.5,1.1,0.9*32
$GNGSA,A,3,02,05,12,20,21,24,25,29,31,,,,1.5,1.1,0.9*2C
$GNGSA,A,3,,,,,,,,,,,,,1.5,1.1,0.9*21
$QZGSA,A,3,,,,,,,,,,,,,1.5,1.1,0.9*23
$PGLOR,1,FIX,1.0,1.0*20
$GPRMC,174643.00,A,3201.259679,N,03448.340902,E,000.0,326.9,120416,,,A*52
$GPGGA,174644.00,3201.259679,N,03448.340902,E,1,09,0.6,27.5,M,19.1,M,,*5F
$PGLOR,1,STA,174644.00,0.019,0.000,-305,1,6,1,P,F,L,0,C,3,S,0012,6735,5,R,33F4*4A
$PGLOR,1,SAT,G25,029,1F,G29,027,1F,G12,031,1F,R23,022,13,G21,038,1F,G20,031,17,G31,025,1B,G05,032,1F,G02,030,1F,G24,016,$PGLOR,1,SIO,TxERR,0,RxERR,0,TxCNT,320,RxCNT,1608,DTMS,994,DTIN,1,2,DTOUT,159,939,HATMD,60*30
$PGLOR,0,HLA,174644.00,L,,Al,,A,46,H,,,M,0,Ac,0,Gr,0,S,,,Sx,,,T,0,Tr,,Mn,0*30
$PGLOR,1,PWR,AvgP,105.320007,RFTm,1000,RunT,1000,OscTm,1000,SlpTm,0,MeasTm,1000*2D
$PGLOR,0,PPS,120416,174643.999,,,000.000,0,0,0,*03
$GPGSV,4,1,15,25,79,088,29,29,58,336,30,12,42,121,31,21,35,224,39*77
$GPGSV,4,2,15,20,33,144,31,31,31,298,33,05,31,085,33,02,21,044,33*72
$GPGSV,4,3,15,24,03,171,17,18,01,000,,19,01,000,,28,01,000,*74
$GPGSV,4,4,15,32,01,000,,03,01,000,,26,01,314,*4C
$GLGSV,1,1,04,87,41,285,30,67,01,000,30,76,01,000,,84,01,000,*69
$GPGSA,A,3,02,05,12,20,21,24,25,29,31,,,,1.5,1.1,0.9*32
$GNGSA,A,3,02,05,12,20,21,24,25,29,31,,,,1.5,1.1,0.9*2C
$GNGSA,A,3,,,,,,,,,,,,,1.5,1.1,0.9*21
$QZGSA,A,3,,,,,,,,,,,,,1.5,1.1,0.9*23
$PGLOR,1,FIX,1.0,1.0*20
$GPRMC,174644.00,A,3201.259679,N,03448.340902,E,000.0,326.9,120416,,,A*55
$GPGGA,174645.00,3201.259679,N,03448.340902,E,1,09,0.8,27.5,M,19.1,M,,*50
$PGLOR,1,STA,174645.00,0.019,0.000,-305,1,8,1,P,F,L,0,C,3,S,0012,6735,5,R,33F4*45
$PGLOR,1,SAT,G25,025,1F,G29,025,1F,G12,025,1B,R23,022,13,G21,036,1F,G20,026,1F,G31,019,1F,G05,032,1F,G02,029,1F,G24,016,$PGLOR,1,SIO,TxERR,0,RxERR,0,TxCNT,364,RxCNT,1684,DTMS,995,DTIN,1,2,DTOUT,149,958,HATMD,59*39
$PGLOR,0,HLA,174645.00,L,,Al,,A,46,H,,,M,0,Ac,0,Gr,0,S,,,Sx,,,T,0,Tr,,Mn,0*31
$PGLOR,1,PWR,AvgP,105.320007,RFTm,1000,RunT,1000,OscTm,1000,SlpTm,0,MeasTm,1000*2D
$PGLOR,0,PPS,120416,174644.999,,,000.000,0,0,0,*04
$GPGSV,4,1,14,25,79,088,29,29,58,336,29,12,42,121,31,21,35,224,39*7E
$GPGSV,4,2,14,20,33,144,31,31,31,298,31,05,31,085,33,02,21,044,33*71
$GPGSV,4,3,14,24,03,171,17,19,01,000,,28,01,000,,32,01,000,*7D
$GPGSV,4,4,14,03,01,000,,26,01,314,*7D
$GLGSV,1,1,04,87,41,285,29,67,01,000,30,76,01,000,,84,01,000,*61
$GPGSA,A,3,02,05,12,20,21,24,25,29,31,,,,1.4,1.0,0.9*32
$GNGSA,A,3,02,05,12,20,21,24,25,29,31,,,,1.4,1.0,0.9*2C
$GNGSA,A,3,,,,,,,,,,,,,1.4,1.0,0.9*21
$QZGSA,A,3,,,,,,,,,,,,,1.4,1.0,0.9*23
$PGLOR,1,FIX,1.0,1.0*20
$GPRMC,174645.00,A,3201.259679,N,03448.340902,E,000.0,326.9,120416,,,A*54
$GPGGA,174646.00,3201.259679,N,03448.340902,E,1,09,0.6,27.5,M,19.1,M,,*5D
$PGLOR,1,STA,174646.00,0.019,0.000,-304,1,6,1,P,F,L,0,C,2,S,0012,6735,5,R,33F4*48
$PGLOR,1,SAT,G25,026,1F,G29,026,1F,G12,024,1B,R23,021,13,G21,036,1F,G20,020,17,G31,019,13,G05,028,1F,G02,029,1F,G24,016,$PGLOR,1,SIO,TxERR,0,RxERR,0,TxCNT,480,RxCNT,1752,DTMS,996,DTIN,0,0,DTOUT,166,978,HATMD,59*31
$PGLOR,0,HLA,174646.00,L,,Al,,A,46,H,,,M,0,Ac,0,Gr,0,S,,,Sx,,,T,0,Tr,,Mn,0*32
$PGLOR,1,PWR,AvgP,105.320007,RFTm,1000,RunT,1000,OscTm,1000,SlpTm,0,MeasTm,1000*2D
$PGLOR,0,PPS,120416,174645.999,,,000.000,0,0,0,*05
$GPGSV,4,1,14,25,79,088,28,29,58,336,29,12,42,121,30,21,35,224,39*7E
$GPGSV,4,2,14,20,33,144,30,31,31,298,30,05,31,085,33,02,21,044,32*70
$GPGSV,4,3,14,24,03,171,17,19,01,000,,28,01,000,,32,01,000,*7D
$GPGSV,4,4,14,03,01,000,,26,01,314,*7D
$GLGSV,1,1,04,87,41,285,28,67,01,000,29,76,01,000,,84,01,000,*68
$GPGSA,A,3,02,05,12,20,21,24,25,29,31,,,,1.5,1.2,0.9*31
$GNGSA,A,3,02,05,12,20,21,24,25,29,31,,,,1.5,1.2,0.9*2F
$GNGSA,A,3,,,,,,,,,,,,,1.5,1.2,0.9*22
$QZGSA,A,3,,,,,,,,,,,,,1.5,1.2,0.9*20
$PGLOR,1,FIX,1.0,1.0*20
$GPRMC,174646.00,A,3201.259679,N,03448.340902,E,000.0,326.9,120416,,,A*57
$GPGGA,174647.00,3201.259679,N,03448.340902,E,1,09,0.8,27.5,M,19.1,M,,*52
$PGLOR,1,STA,174647.00,0.019,0.000,-305,1,8,1,P,F,L,0,C,2,S,0012,6735,5,R,33F4*46
$PGLOR,1,SAT,G25,025,1F,G29,022,17,G12,023,13,R23,020,13,G21,035,1F,G20,020,17,G31,019,1B,G05,026,1F,G02,027,1F,G24,016,$PGLOR,1,SIO,TxERR,0,RxERR,0,TxCNT,380,RxCNT,1589,DTMS,997,DTIN,0,0,DTOUT,167,981,HATMD,60*3E
$PGLOR,0,HLA,174647.00,L,,Al,,A,46,H,,,M,0,Ac,0,Gr,0,S,,,Sx,,,T,0,Tr,,Mn,0*33
$PGLOR,1,PWR,AvgP,105.320007,RFTm,1000,RunT,1000,OscTm,1000,SlpTm,0,MeasTm,1000*2D
$PGLOR,0,PPS,120416,174646.999,,,000.000,0,0,0,*06
$GPGSV,4,1,14,25,79,088,28,29,58,336,28,12,42,121,29,21,35,224,38*76
$GPGSV,4,2,14,20,33,144,29,31,31,298,29,05,31,085,32,02,21,044,32*71
$GPGSV,4,3,14,24,03,171,16,19,01,000,,28,01,000,,32,01,000,*7C
$GPGSV,4,4,14,03,01,000,,26,01,314,*7D
$GLGSV,1,1,04,87,41,285,27,67,01,000,29,76,01,000,,84,01,000,*67
$GPGSA,A,3,02,05,12,20,21,24,25,29,31,,,,1.5,1.2,0.9*31
$GNGSA,A,3,02,05,12,20,21,24,25,29,31,,,,1.5,1.2,0.9*2F
$GNGSA,A,3,,,,,,,,,,,,,1.5,1.2,0.9*22
$QZGSA,A,3,,,,,,,,,,,,,1.5,1.2,0.9*20
$PGLOR,1,FIX,1.0,1.0*20
$GPRMC,174647.00,A,3201.259679,N,03448.340902,E,000.0,326.9,120416,,,A*56
$GPGGA,174648.00,3201.259679,N,03448.340902,E,1,09,0.8,27.5,M,19.1,M,,*5D
$PGLOR,1,STA,174648.00,0.019,0.000,-304,1,8,1,P,F,L,0,C,2,S,0012,6735,5,R,33F4*48
$PGLOR,1,SAT,G25,027,1F,G29,023,1B,G12,023,1F,R23,021,13,G21,036,1F,G20,026,1F,G31,027,1F,G05,024,1B,G02,025,1F,G24,015,$PGLOR,1,SIO,TxERR,0,RxERR,0,TxCNT,360,RxCNT,1567,DTMS,995,DTIN,0,0,DTOUT,167,948,HATMD,61*36
$PGLOR,0,HLA,174648.00,L,,Al,,A,46,H,,,M,0,Ac,0,Gr,0,S,,,Sx,,,T,0,Tr,,Mn,0*3C
$PGLOR,1,PWR,AvgP,105.320007,RFTm,1000,RunT,1000,OscTm,1000,SlpTm,0,MeasTm,1000*2D
$PGLOR,0,PPS,120416,174647.999,,,000.000,0,0,0,*07
$GPGSV,4,1,14,25,79,088,28,29,58,336,28,12,42,121,29,21,35,224,38*76
$GPGSV,4,2,14,20,33,144,28,31,31,298,29,05,31,085,31,02,21,044,31*70
$GPGSV,4,3,14,24,03,171,16,19,01,000,,28,01,000,,32,01,000,*7C
$GPGSV,4,4,14,03,01,000,,26,01,314,*7D
$GLGSV,1,1,04,87,41,285,27,67,01,000,28,76,01,000,,84,01,000,*66
$GPGSA,A,3,02,05,12,20,21,24,25,29,31,,,,1.4,1.1,0.9*33
$GNGSA,A,3,02,05,12,20,21,24,25,29,31,,,,1.4,1.1,0.9*2D
$GNGSA,A,3,,,,,,,,,,,,,1.4,1.1,0.9*20
$QZGSA,A,3,,,,,,,,,,,,,1.4,1.1,0.9*22
$PGLOR,1,FIX,1.0,1.0*20
$GPRMC,174648.00,A,3201.259679,N,03448.340902,E,000.0,326.9,120416,,,A*59
$GPGGA,174649.00,3201.259679,N,03448.340902,E,1,09,0.6,27.6,M,19.1,M,,*51
$PGLOR,1,STA,174649.00,0.019,0.000,-304,1,6,1,P,F,L,0,C,3,S,0012,6735,5,R,33F4*46
$PGLOR,1,SAT,G25,025,1F,G29,022,1B,G12,027,1F,R23,022,13,G21,035,1F,G20,026,1F,G31,028,1F,G05,023,1F,G02,032,1F,G24,015,$PGLOR,1,SIO,TxERR,0,RxERR,0,TxCNT,360,RxCNT,1580,DTMS,994,DTIN,1,2,DTOUT,167,938,HATMD,63*38
$PGLOR,0,HLA,174649.00,L,,Al,,A,46,H,,,M,0,Ac,0,Gr,0,S,,,Sx,,,T,0,Tr,,Mn,0*3D
$PGLOR,1,PWR,AvgP,105.320007,RFTm,1000,RunT,1000,OscTm,1000,SlpTm,0,MeasTm,1000*2D
$PGLOR,0,PPS,120416,174648.999,,,000.000,0,0,0,*08
$GPGSV,4,1,14,25,79,088,28,29,58,337,27,12,42,121,28,21,35,224,38*79
$GPGSV,4,2,14,20,33,144,28,31,31,298,29,05,31,085,30,02,21,044,32*72
$GPGSV,4,3,14,24,03,171,16,19,01,000,,28,01,000,,32,01,000,*7C
$GPGSV,4,4,14,03,01,000,,26,01,314,*7D
$GLGSV,1,1,04,87,41,285,26,67,01,000,28,76,01,000,,84,01,000,*67
$GPGSA,A,3,02,05,12,20,21,24,25,29,31,,,,1.4,1.0,0.9*32
$GNGSA,A,3,02,05,12,20,21,24,25,29,31,,,,1.4,1.0,0.9*2C
$GNGSA,A,3,,,,,,,,,,,,,1.4,1.0,0.9*21
$QZGSA,A,3,,,,,,,,,,,,,1.4,1.0,0.9*23
$PGLOR,1,FIX,1.0,1.0*20
$GPRMC,174649.00,A,3201.259679,N,03448.340902,E,000.0,326.9,120416,,,A*58
$GPGGA,174650.00,3201.259679,N,03448.340902,E,1,09,0.6,27.5,M,19.1,M,,*5A
$PGLOR,1,STA,174650.00,0.019,0.000,-303,1,6,0,P,F,L,0,C,3,S,0012,6735,5,R,33F4*48
$PGLOR,1,SAT,G25,024,1F,G29,022,1F,G12,028,1F,R23,026,13,G21,038,1F,G20,033,1F,G31,028,1F,G05,031,1F,G02,034,1F,G24,015,$PGLOR,1,SIO,TxERR,0,RxERR,0,TxCNT,432,RxCNT,1680,DTMS,992,DTIN,0,0,DTOUT,151,953,HATMD,62*37
$PGLOR,0,HLA,174650.00,L,,Al,,A,46,H,,,M,0,Ac,0,Gr,0,S,,,Sx,,,T,0,Tr,,Mn,0*35
$PGLOR,1,PWR,AvgP,105.320007,RFTm,1000,RunT,1000,OscTm,1000,SlpTm,0,MeasTm,1000*2D
$PGLOR,0,PPS,120416,174649.999,,,000.000,0,0,0,*09
$GPGSV,4,1,14,25,79,088,27,29,58,337,27,12,42,121,28,21,35,224,38*76
$GPGSV,4,2,14,20,33,144,33,31,31,298,29,05,31,085,31,02,21,044,34*7F
$GPGSV,4,3,14,24,03,171,16,19,01,000,,28,01,000,,32,01,000,*7C
$GPGSV,4,4,14,03,01,000,,26,01,314,*7D
$GLGSV,2,1,05,87,41,285,26,67,01,000,27,76,01,000,,84,01,000,*6A
$GLGSV,2,2,05,68,01,000,*5F
$GPGSA,A,3,02,05,12,20,21,24,25,29,31,,,,1.3,1.0,0.9*35
$GNGSA,A,3,02,05,12,20,21,24,25,29,31,,,,1.3,1.0,0.9*2B
$GNGSA,A,3,,,,,,,,,,,,,1.3,1.0,0.9*26
$QZGSA,A,3,,,,,,,,,,,,,1.3,1.0,0.9*24
$PGLOR,1,FIX,1.0,1.0*20
$GPRMC,174650.00,A,3201.259679,N,03448.340902,E,000.0,326.9,120416,,,A*50
$GPGGA,174651.00,3201.259679,N,03448.340902,E,1,09,0.6,27.5,M,19.1,M,,*5B
$PGLOR,1,STA,174651.00,0.019,0.000,-303,1,6,0,P,F,L,0,C,3,S,0012,6735,5,R,33F4*49
$PGLOR,1,SAT,G25,031,1F,G29,025,1F,G12,030,1F,R23,032,13,G21,040,1F,G20,031,1F,G31,035,1F,G05,027,1B,G02,029,1F,G24,015,$PGLOR,1,SIO,TxERR,0,RxERR,0,TxCNT,244,RxCNT,1704,DTMS,994,DTIN,1,4,DTOUT,151,966,HATMD,63*39
$PGLOR,0,HLA,174651.00,L,,Al,,A,46,H,,,M,0,Ac,0,Gr,0,S,,,Sx,,,T,0,Tr,,Mn,0*34
$PGLOR,1,PWR,AvgP,105.320007,RFTm,1000,RunT,1000,OscTm,1000,SlpTm,0,MeasTm,1000*2D
$PGLOR,0,PPS,120416,174650.999,,,000.000,0,0,0,*01
$GPGSV,4,1,13,25,79,088,31,29,58,337,26,12,42,121,30,21,35,224,40*71
$GPGSV,4,2,13,20,33,144,33,31,31,298,35,05,31,085,30,02,21,044,33*73
$GPGSV,4,3,13,24,03,171,16,19,01,000,,28,01,000,,03,01,000,*79
$GPGSV,4,4,13,26,01,314,*48
$GLGSV,2,1,05,87,41,285,32,67,01,000,27,76,01,000,,84,01,000,*6F
$GLGSV,2,2,05,68,01,000,*5F
$GPGSA,A,3,02,05,12,20,21,24,25,29,31,,,,1.4,1.0,0.9*32
$GNGSA,A,3,02,05,12,20,21,24,25,29,31,,,,1.4,1.0,0.9*2C
$GNGSA,A,3,,,,,,,,,,,,,1.4,1.0,0.9*21
$QZGSA,A,3,,,,,,,,,,,,,1.4,1.0,0.9*23
$PGLOR,1,FIX,1.0,1.0*20
$GPRMC,174651.00,A,3201.259679,N,03448.340902,E,000.0,326.9,120416,,,A*51
$GPGGA,174652.00,3201.260943,N,03448.338012,E,1,09,0.6,27.4,M,19.1,M,,*52
$PGLOR,1,STA,174652.00,0.019,0.000,-304,1,6,3,P,F,L,0,C,3,S,0012,6739,5,R,33F4*42
$PGLOR,1,SAT,G25,031,1F,G29,029,1F,G12,028,1F,R23,035,13,G21,038,1F,G20,028,1F,G31,035,1F,G05,028,1B,G02,023,1F,G24,015,$PGLOR,1,SIO,TxERR,0,RxERR,0,TxCNT,456,RxCNT,1604,DTMS,993,DTIN,1,4,DTOUT,154,927,HATMD,67*3E
$PGLOR,0,HLA,174652.00,L,,Al,,A,46,H,,,M,0,Ac,0,Gr,0,S,,,Sx,,,T,0,Tr,,Mn,0*37
$PGLOR,1,PWR,AvgP,105.320007,RFTm,1000,RunT,1000,OscTm,1000,SlpTm,0,MeasTm,1000*2D
$PGLOR,0,PPS,120416,174651.999,,,000.000,0,0,0,*00
$GPGSV,4,1,14,25,79,088,31,29,58,337,29,12,42,121,30,21,35,224,40*79
$GPGSV,4,2,14,20,33,144,32,31,31,298,35,05,31,085,30,02,21,044,32*74
$GPGSV,4,3,14,24,03,171,16,19,01,000,,23,01,000,,28,01,000,*7C
$GPGSV,4,4,14,03,01,000,,26,01,314,*7D
$GLGSV,2,1,05,87,41,285,35,67,01,000,27,76,01,000,,84,01,000,*68
$GLGSV,2,2,05,68,01,000,*5F
$GPGSA,A,3,02,05,12,20,21,24,25,29,31,,,,1.4,1.0,0.9*32
$GNGSA,A,3,02,05,12,20,21,24,25,29,31,,,,1.4,1.0,0.9*2C
$GNGSA,A,3,,,,,,,,,,,,,1.4,1.0,0.9*21
$QZGSA,A,3,,,,,,,,,,,,,1.4,1.0,0.9*23
$PGLOR,1,FIX,1.0,1.0*20
$GPRMC,174652.00,A,3201.260943,N,03448.338012,E,003.1,323.0,120416,,,A*57
$GPGGA,174653.00,3201.261726,N,03448.337185,E,1,09,0.8,27.3,M,19.1,M,,*56
$PGLOR,1,STA,174653.00,0.019,0.000,-304,1,8,1,P,F,L,0,C,3,S,0012,6741,5,R,33F4*40
$PGLOR,1,SAT,G25,029,1F,G29,027,1F,G12,028,1F,R23,035,13,G21,038,1F,G20,027,17,G31,034,1F,G05,031,1F,G02,024,1B,G24,016,$PGLOR,1,SIO,TxERR,0,RxERR,0,TxCNT,252,RxCNT,1588,DTMS,989,DTIN,1,3,DTOUT,176,932,HATMD,79*3C
$PGLOR,0,HLA,174653.00,L,,Al,,A,46,H,,,M,0,Ac,0,Gr,0,S,,,Sx,,,T,0,Tr,,Mn,0*36
$PGLOR,1,PWR,AvgP,105.320007,RFTm,1000,RunT,1000,OscTm,1000,SlpTm,0,MeasTm,1000*2D
$PGLOR,0,PPS,120416,174652.999,,,000.000,0,0,0,*03
$GPGSV,4,1,13,25,79,088,31,29,58,337,28,12,42,121,29,21,35,224,40*77
$GPGSV,4,2,13,20,33,144,32,31,31,298,35,05,31,085,31,02,21,044,32*72
$GPGSV,4,3,13,24,03,171,16,23,01,000,,28,01,000,,03,01,000,*70
$GPGSV,4,4,13,26,01,314,*48
$GLGSV,2,1,05,87,41,285,35,67,01,000,27,76,01,000,,84,01,000,*68
$GLGSV,2,2,05,68,01,000,*5F
$GPGSA,A,3,02,05,12,20,21,24,25,29,31,,,,1.5,1.2,1.0*39
$GNGSA,A,3,02,05,12,20,21,24,25,29,31,,,,1.5,1.2,1.0*27
$GNGSA,A,3,,,,,,,,,,,,,1.5,1.2,1.0*2A
$QZGSA,A,3,,,,,,,,,,,,,1.5,1.2,1.0*28
$PGLOR,1,FIX,1.0,1.0*20
$GPRMC,174653.00,A,3201.261726,N,03448.337185,E,002.8,331.8,120416,,,A*59
$GPGGA,174654.00,3201.261726,N,03448.337185,E,1,09,0.8,27.3,M,19.1,M,,*51
$PGLOR,1,STA,174654.00,0.019,0.000,-304,1,8,0,P,F,L,0,C,3,S,0012,6741,5,R,33F4*46
$PGLOR,1,SAT,G25,030,1F,G29,027,1F,G12,027,1F,R23,036,13,G21,037,1F,G20,025,17,G31,034,1F,G05,030,1F,G02,028,1F,G24,016,$PGLOR,1,SIO,TxERR,0,RxERR,0,TxCNT,268,RxCNT,1632,DTMS,977,DTIN,1,5,DTOUT,114,919,HATMD,79*3D
$PGLOR,0,HLA,174654.00,L,,Al,,A,46,H,,,M,0,Ac,0,Gr,0,S,,,Sx,,,T,0,Tr,,Mn,0*31
$PGLOR,1,PWR,AvgP,105.320007,RFTm,1000,RunT,1000,OscTm,1000,SlpTm,0,MeasTm,1000*2D
$PGLOR,0,PPS,120416,174653.999,,,000.000,0,0,0,*02
$GPGSV,4,1,13,25,79,088,31,29,58,337,28,12,42,121,29,21,35,224,40*77
$GPGSV,4,2,13,20,33,144,31,31,31,298,35,05,31,085,31,02,21,044,31*72
$GPGSV,4,3,13,24,03,171,16,23,01,000,,28,01,000,,03,01,000,*70
$GPGSV,4,4,13,26,01,314,*48
$GLGSV,2,1,06,87,41,285,36,67,01,000,27,76,01,000,,84,01,000,*68
$GLGSV,2,2,06,81,01,000,,68,01,000,*64
$GPGSA,A,3,02,05,12,20,21,24,25,29,31,,,,1.3,1.0,0.9*35
$GNGSA,A,3,02,05,12,20,21,24,25,29,31,,,,1.3,1.0,0.9*2B
$GNGSA,A,3,,,,,,,,,,,,,1.3,1.0,0.9*26
$QZGSA,A,3,,,,,,,,,,,,,1.3,1.0,0.9*24
$PGLOR,1,FIX,1.0,1.0*20
$GPRMC,174654.00,A,3201.261726,N,03448.337185,E,000.0,331.8,120416,,,A*54
$GPGGA,174655.00,3201.261726,N,03448.337185,E,1,09,0.8,27.3,M,19.1,M,,*50
$PGLOR,1,STA,174655.00,0.019,0.000,-304,1,8,0,P,F,L,0,C,3,S,0012,6741,5,R,33F4*47
$PGLOR,1,SAT,G25,030,1F,G29,028,1F,G12,028,1F,R23,035,13,G21,037,1F,G20,026,1F,G31,032,1F,G05,029,1F,G02,029,1F,G24,017,$PGLOR,1,SIO,TxERR,0,RxERR,0,TxCNT,264,RxCNT,1588,DTMS,977,DTIN,0,0,DTOUT,165,925,HATMD,66*30
$PGLOR,0,HLA,174655.00,L,,Al,,A,46,H,,,M,0,Ac,0,Gr,0,S,,,Sx,,,T,0,Tr,,Mn,0*30
$PGLOR,1,PWR,AvgP,105.320007,RFTm,1000,RunT,1000,OscTm,1000,SlpTm,0,MeasTm,1000*2D
$PGLOR,0,PPS,120416,174654.999,,,000.000,0,0,0,*05
$GPGSV,3,1,12,25,79,088,31,29,58,337,28,12,42,121,29,21,35,224,40*71
$GPGSV,3,2,12,20,33,144,31,31,31,298,35,05,31,085,31,02,21,044,31*74
$GPGSV,3,3,12,24,03,171,17,23,01,000,,03,01,000,,26,01,314,*7F
$GLGSV,2,1,06,87,41,285,36,67,01,000,29,76,01,000,,84,01,000,*66
$GLGSV,2,2,06,81,01,000,,68,01,000,*64
$GPGSA,A,3,02,05,12,20,21,24,25,29,31,,,,1.3,1.0,0.9*35
$GNGSA,A,3,02,05,12,20,21,24,25,29,31,,,,1.3,1.0,0.9*2B
$GNGSA,A,3,,,,,,,,,,,,,1.3,1.0,0.9*26
$QZGSA,A,3,,,,,,,,,,,,,1.3,1.0,0.9*24
$PGLOR,1,FIX,1.0,1.0*20
$GPRMC,174655.00,A,3201.261726,N,03448.337185,E,000.0,331.8,120416,,,A*55
$GPGGA,174656.00,3201.261726,N,03448.337185,E,1,09,0.4,27.3,M,19.1,M,,*5F
$PGLOR,1,STA,174656.00,0.019,0.000,-304,1,4,1,P,F,L,0,C,3,S,0012,6741,5,R,33F4*49
$PGLOR,1,SAT,G25,030,1F,G29,030,1F,G12,029,1F,R23,028,13,G21,037,1F,G20,025,1F,G31,032,1F,G05,029,1F,G02,027,1F,G24,019,$PGLOR,1,SIO,TxERR,0,RxERR,0,TxCNT,344,RxCNT,1720,DTMS,990,DTIN,1,4,DTOUT,122,934,HATMD,81*35
$PGLOR,0,HLA,174656.00,L,,Al,,A,46,H,,,M,0,Ac,0,Gr,0,S,,,Sx,,,T,0,Tr,,Mn,0*33
$PGLOR,1,PWR,AvgP,105.320007,RFTm,1000,RunT,1000,OscTm,1000,SlpTm,0,MeasTm,1000*2D
$PGLOR,0,PPS,120416,174655.999,,,000.000,0,0,0,*04
$GPGSV,3,1,12,25,79,088,31,29,58,337,30,12,42,121,29,21,35,224,39*76
$GPGSV,3,2,12,20,33,144,30,31,31,298,35,05,31,085,31,02,21,044,31*75
$GPGSV,3,3,12,24,03,171,19,23,01,000,,03,01,000,,26,01,314,*71
$GLGSV,2,1,06,87,41,285,35,67,01,000,29,76,01,000,,84,01,000,*65
$GLGSV,2,2,06,81,01,000,,68,01,000,*64
$GPGSA,A,3,02,05,12,20,21,24,25,29,31,,,,1.3,1.0,0.9*35
$GNGSA,A,3,02,05,12,20,21,24,25,29,31,,,,1.3,1.0,0.9*2B
$GNGSA,A,3,,,,,,,,,,,,,1.3,1.0,0.9*26
$QZGSA,A,3,,,,,,,,,,,,,1.3,1.0,0.9*24
$PGLOR,1,FIX,1.0,1.0*20
$GPRMC,174656.00,A,3201.261726,N,03448.337185,E,000.0,331.8,120416,,,A*56
$GPGGA,174657.00,3201.261726,N,03448.337185,E,1,09,0.4,27.4,M,19.1,M,,*59
$PGLOR,1,STA,174657.00,0.019,0.000,-303,1,4,0,P,F,L,0,C,3,S,0012,6741,5,R,33F4*4E
$PGLOR,1,SAT,G25,029,1F,G29,029,1F,G12,031,1F,R23,036,13,G21,039,1F,G20,028,1F,G31,037,1F,G05,030,1F,G02,030,1F,G24,019,$PGLOR,1,SIO,TxERR,0,RxERR,0,TxCNT,504,RxCNT,1784,DTMS,975,DTIN,1,4,DTOUT,166,927,HATMD,82*33
$PGLOR,0,HLA,174657.00,L,,Al,,A,46,H,,,M,0,Ac,0,Gr,0,S,,,Sx,,,T,0,Tr,,Mn,0*32
$PGLOR,1,PWR,AvgP,105.320007,RFTm,1000,RunT,1000,OscTm,1000,SlpTm,0,MeasTm,1000*2D
$PGLOR,0,PPS,120416,174656.999,,,000.000,0,0,0,*07
$GPGSV,3,1,12,25,79,089,31,29,58,337,29,12,42,121,31,21,35,224,39*76
$GPGSV,3,2,12,20,33,144,30,31,31,298,37,05,31,085,31,02,21,044,30*76
$GPGSV,3,3,12,24,03,171,19,23,01,000,,03,01,000,,26,01,314,*71
$GLGSV,2,1,06,87,41,285,36,67,01,000,29,76,01,000,,84,01,000,*66
$GLGSV,2,2,06,81,01,000,,68,01,000,*64
$GPGSA,A,3,02,05,12,20,21,24,25,29,31,,,,1.3,1.0,0.9*35
$GNGSA,A,3,02,05,12,20,21,24,25,29,31,,,,1.3,1.0,0.9*2B
$GNGSA,A,3,,,,,,,,,,,,,1.3,1.0,0.9*26
$QZGSA,A,3,,,,,,,,,,,,,1.3,1.0,0.9*24
$PGLOR,1,FIX,1.0,1.0*20
$GPRMC,174657.00,A,3201.261726,N,03448.337185,E,000.0,331.8,120416,,,A*57
$GPGGA,174658.00,3201.261726,N,03448.337185,E,1,09,1.2,27.4,M,19.1,M,,*51
$PGLOR,1,STA,174658.00,0.019,0.000,-303,1,12,0,P,F,L,0,C,3,S,0012,6741,5,R,33F4*76
$PGLOR,1,SAT,G25,033,1F,G29,032,1F,G12,028,1F,R23,038,13,G21,035,1F,G20,027,1F,G31,037,1F,G05,035,1F,G02,025,1F,G24,021,$PGLOR,1,SIO,TxERR,0,RxERR,0,TxCNT,272,RxCNT,1788,DTMS,976,DTIN,1,3,DTOUT,108,966,HATMD,69*35
$PGLOR,0,HLA,174658.00,L,,Al,,A,46,H,,,M,0,Ac,0,Gr,0,S,,,Sx,,,T,0,Tr,,Mn,0*3D
$PGLOR,1,PWR,AvgP,105.320007,RFTm,1000,RunT,1000,OscTm,1000,SlpTm,0,MeasTm,1000*2D
$PGLOR,0,PPS,120416,174657.999,,,000.000,0,0,0,*06
$GPGSV,3,1,12,25,79,089,33,29,58,337,32,12,42,121,31,21,35,224,39*7E
$GPGSV,3,2,12,20,33,144,30,31,31,297,37,05,31,085,35,02,21,044,30*7D
$GPGSV,3,3,12,24,03,171,21,03,01,000,,23,01,000,,26,01,314,*7A
$GLGSV,2,1,06,87,41,285,38,67,01,000,26,81,01,000,27,76,01,000,*67
$GLGSV,2,2,06,84,01,000,,68,01,000,*61
$GPGSA,A,3,02,05,12,20,21,24,25,29,31,,,,1.3,1.0,0.9*35
$GNGSA,A,3,02,05,12,20,21,24,25,29,31,,,,1.3,1.0,0.9*2B
$GNGSA,A,3,,,,,,,,,,,,,1.3,1.0,0.9*26
$QZGSA,A,3,,,,,,,,,,,,,1.3,1.0,0.9*24
$PGLOR,1,FIX,1.0,1.0*20
$GPRMC,174658.00,A,3201.261726,N,03448.337185,E,000.0,331.8,120416,,,A*58
$GPGGA,174659.00,3201.261726,N,03448.337185,E,1,09,0.6,27.5,M,19.1,M,,*54
$PGLOR,1,STA,174659.00,0.019,0.000,-303,1,6,0,P,F,L,0,C,3,S,0012,6741,5,R,33F4*42
$PGLOR,1,SAT,G25,031,1F,G29,032,1F,G12,029,1F,R23,028,13,G21,036,1F,G20,029,1F,G31,039,1F,G05,033,1F,G02,032,1F,G24,022,$PGLOR,1,SIO,TxERR,0,RxERR,0,TxCNT,268,RxCNT,1560,DTMS,987,DTIN,1,1,DTOUT,117,957,HATMD,62*31
$PGLOR,0,HLA,174659.00,L,,Al,,A,46,H,,,M,0,Ac,0,Gr,0,S,,,Sx,,,T,0,Tr,,Mn,0*3C
$PGLOR,1,PWR,AvgP,105.320007,RFTm,1000,RunT,1000,OscTm,1000,SlpTm,0,MeasTm,1000*2D
$PGLOR,0,PPS,120416,174658.999,,,000.000,0,0,0,*09
$GPGSV,4,1,13,25,79,089,33,29,58,337,32,12,42,121,31,21,35,224,38*79
$GPGSV,4,2,13,20,33,144,29,31,31,297,39,05,31,085,34,02,21,044,32*7E
$GPGSV,4,3,13,24,03,171,22,23,01,000,,03,01,000,,10,01,000,*7C
$GPGSV,4,4,13,26,01,314,*48
$GLGSV,2,1,06,87,41,285,37,81,01,000,25,67,01,000,31,76,01,000,*6C
$GLGSV,2,2,06,84,01,000,,68,01,000,*61
$GPGSA,A,3,02,05,12,20,21,24,25,29,31,,,,1.3,1.0,0.9*35
$GNGSA,A,3,02,05,12,20,21,24,25,29,31,,,,1.3,1.0,0.9*2B
$GNGSA,A,3,,,,,,,,,,,,,1.3,1.0,0.9*26
$QZGSA,A,3,,,,,,,,,,,,,1.3,1.0,0.9*24
$PGLOR,1,FIX,1.0,1.0*20
$GPRMC,174659.00,A,3201.261726,N,03448.337185,E,000.0,331.8,120416,,,A*59
$GPGGA,174700.00,3201.261726,N,03448.337185,E,1,09,0.6,27.5,M,19.1,M,,*59
$PGLOR,1,STA,174700.00,0.019,0.000,-303,1,6,1,P,F,L,0,C,3,S,0012,6741,5,R,33F4*4E
$PGLOR,1,SAT,G25,028,1F,G29,033,1F,G12,027,1F,R23,029,13,G21,034,1F,G20,025,1F,G31,033,1F,G05,032,1F,G02,029,1F,G24,021,$PGLOR,1,SIO,TxERR,0,RxERR,0,TxCNT,240,RxCNT,1556,DTMS,995,DTIN,1,4,DTOUT,119,936,HATMD,82*3F
$PGLOR,0,HLA,174700.00,L,,Al,,A,46,H,,,M,0,Ac,0,Gr,0,S,,,Sx,,,T,0,Tr,,Mn,0*31
$PGLOR,1,PWR,AvgP,105.320007,RFTm,1000,RunT,1000,OscTm,1000,SlpTm,0,MeasTm,1000*2D
$PGLOR,0,PPS,120416,174659.999,,,000.000,0,0,0,*08
$GPGSV,4,1,13,25,79,089,32,29,58,337,33,12,42,121,30,21,35,224,38*78
$GPGSV,4,2,13,20,33,144,29,31,31,297,38,05,31,085,34,02,21,044,32*7F
$GPGSV,4,3,13,24,03,171,22,10,01,000,,23,01,000,,03,01,000,*7C
$GPGSV,4,4,13,26,01,314,*48
$GLGSV,2,1,05,87,41,285,36,81,01,000,20,67,01,000,31,76,01,000,*6B
$GLGSV,2,2,05,84,01,000,*5D
$GPGSA,A,3,02,05,12,20,21,24,25,29,31,,,,1.3,1.0,0.9*35
$GNGSA,A,3,02,05,12,20,21,24,25,29,31,,,,1.3,1.0,0.9*2B
$GNGSA,A,3,,,,,,,,,,,,,1.3,1.0,0.9*26
$QZGSA,A,3,,,,,,,,,,,,,1.3,1.0,0.9*24
$PGLOR,1,FIX,1.0,1.0*20
$GPRMC,174700.00,A,3201.261726,N,03448.337185,E,000.0,331.8,120416,,,A*54
$GPGGA,174701.00,3201.261726,N,03448.337185,E,1,09,0.6,27.5,M,19.1,M,,*58
$PGLOR,1,STA,174701.00,0.019,0.000,-303,1,6,1,P,F,L,0,C,3,S,0012,6741,5,R,33F4*4F
$PGLOR,1,SAT,G25,028,1F,G29,029,1F,G12,025,1F,R23,037,13,G21,035,1F,G20,030,1F,G31,037,1F,G05,027,1F,G02,031,13,G24,021,$PGLOR,1,SIO,TxERR,0,RxERR,0,TxCNT,252,RxCNT,1556,DTMS,975,DTIN,1,2,DTOUT,120,916,HATMD,80*3E
$PGLOR,0,HLA,174701.00,L,,Al,,A,46,H,,,M,0,Ac,0,Gr,0,S,,,Sx,,,T,0,Tr,,Mn,0*30
$PGLOR,1,PWR,AvgP,105.320007,RFTm,1000,RunT,1000,OscTm,1000,SlpTm,0,MeasTm,1000*2D
$PGLOR,0,PPS,120416,174700.999,,,000.000,0,0,0,*05
$GPGSV,4,1,13,25,79,089,32,29,58,337,33,12,42,121,30,21,35,224,38*78
$GPGSV,4,2,13,20,33,144,30,31,31,297,38,05,31,085,33,02,21,044,32*70
$GPGSV,4,3,13,24,03,171,22,10,01,000,,23,01,000,,03,01,000,*7C
$GPGSV,4,4,13,26,01,314,*48
$GLGSV,2,1,05,87,41,285,37,81,01,000,14,67,01,000,30,76,01,000,*6C
$GLGSV,2,2,05,84,01,000,*5D
$GPGSA,A,3,02,05,12,20,21,24,25,29,31,,,,1.5,1.2,1.0*39
$GNGSA,A,3,02,05,12,20,21,24,25,29,31,,,,1.5,1.2,1.0*27
$GNGSA,A,3,,,,,,,,,,,,,1.5,1.2,1.0*2A
$QZGSA,A,3,,,,,,,,,,,,,1.5,1.2,1.0*28
$PGLOR,1,FIX,1.0,1.0*20
$GPRMC,174701.00,A,3201.261726,N,03448.337185,E,000.0,331.8,120416,,,A*55
$GPGGA,174702.00,3201.261726,N,03448.337185,E,1,09,0.8,27.5,M,19.1,M,,*55
$PGLOR,1,STA,174702.00,0.019,0.000,-302,1,8,1,P,F,L,0,C,3,S,0012,6741,5,R,33F4*43
$PGLOR,1,SAT,G25,031,1F,G29,032,1F,G12,031,1F,R23,032,13,G21,029,1F,G20,030,1F,G31,039,1F,G05,029,1F,G02,030,17,G24,021,$PGLOR,1,SIO,TxERR,0,RxERR,0,TxCNT,324,RxCNT,1712,DTMS,977,DTIN,2,5,DTOUT,117,924,HATMD,83*3C
$PGLOR,0,HLA,174702.00,L,,Al,,A,46,H,,,M,0,Ac,0,Gr,0,S,,,Sx,,,T,0,Tr,,Mn,0*33
$PGLOR,1,PWR,AvgP,105.320007,RFTm,1000,RunT,1000,OscTm,1000,SlpTm,0,MeasTm,1000*2D
$PGLOR,0,PPS,120416,174701.999,,,000.000,0,0,0,*04
$GPGSV,4,1,14,25,79,089,32,29,58,337,33,12,42,121,31,21,35,224,37*71
$GPGSV,4,2,14,20,33,144,30,31,31,297,39,05,31,085,33,02,21,044,32*76
$GPGSV,4,3,14,24,03,171,22,10,01,000,,16,01,000,,23,01,000,*7F
$GPGSV,4,4,14,03,01,000,,26,01,314,*7D
$GLGSV,2,1,05,87,41,285,36,81,01,000,08,67,01,000,31,76,01,000,*61
$GLGSV,2,2,05,84,01,000,*5D
$GPGSA,A,3,02,05,12,20,21,24,25,29,31,,,,1.3,1.0,0.9*35
$GNGSA,A,3,02,05,12,20,21,24,25,29,31,,,,1.3,1.0,0.9*2B
$GNGSA,A,3,,,,,,,,,,,,,1.3,1.0,0.9*26
$QZGSA,A,3,,,,,,,,,,,,,1.3,1.0,0.9*24
$PGLOR,1,FIX,1.0,1.0*20
$GPRMC,174702.00,A,3201.261726,N,03448.337185,E,000.0,331.8,120416,,,A*56
$GPGGA,174703.00,3201.261726,N,03448.337185,E,1,09,0.8,27.5,M,19.1,M,,*54
$PGLOR,1,STA,174703.00,0.019,0.000,-302,1,8,1,P,F,L,0,C,3,S,0012,6741,5,R,33F4*42
$PGLOR,1,SAT,G25,035,1F,G29,038,1F,G12,032,1F,R23,034,13,G21,029,1F,G20,028,1F,G31,035,1F,G05,032,1F,G02,030,1F,G24,021,$PGLOR,1,SIO,TxERR,0,RxERR,0,TxCNT,368,RxCNT,1700,DTMS,974,DTIN,1,4,DTOUT,149,937,HATMD,83*3F
$PGLOR,0,HLA,174703.00,L,,Al,,A,46,H,,,M,0,Ac,0,Gr,0,S,,,Sx,,,T,0,Tr,,Mn,0*32
$PGLOR,1,PWR,AvgP,105.320007,RFTm,1000,RunT,1000,OscTm,1000,SlpTm,0,MeasTm,1000*2D
$PGLOR,0,PPS,120416,174702.999,,,000.000,0,0,0,*07
$GPGSV,4,1,13,25,79,089,35,29,58,337,38,12,42,121,32,21,35,224,36*78
$GPGSV,4,2,13,20,33,144,30,31,31,297,38,05,31,085,33,02,21,044,32*70
$GPGSV,4,3,13,24,03,171,22,10,01,000,,16,01,000,,03,01,000,*7A
$GPGSV,4,4,13,26,01,314,*48
$GLGSV,2,1,05,87,41,285,36,67,01,000,35,76,01,000,,84,01,000,*68
$GLGSV,2,2,05,81,01,000,*58
$GPGSA,A,3,02,05,12,20,21,24,25,29,31,,,,1.3,1.0,0.9*35
$GNGSA,A,3,02,05,12,20,21,24,25,29,31,,,,1.3,1.0,0.9*2B
$GNGSA,A,3,,,,,,,,,,,,,1.3,1.0,0.9*26
$QZGSA,A,3,,,,,,,,,,,,,1.3,1.0,0.9*24
$PGLOR,1,FIX,1.0,1.0*20
$GPRMC,174703.00,A,3201.261726,N,03448.337185,E,000.0,331.8,120416,,,A*57
$GPGGA,174704.00,3201.261726,N,03448.337185,E,1,09,1.2,27.6,M,19.1,M,,*5B
$PGLOR,1,STA,174704.00,0.019,0.000,-302,1,12,0,P,F,L,0,C,3,S,0012,6741,5,R,33F4*7F
$PGLOR,1,SAT,G25,030,1F,G29,035,1F,G12,030,17,R23,037,13,G21,025,1F,G20,032,1F,G31,032,1F,G05,034,1F,G02,026,1F,G24,021,$PGLOR,1,SIO,TxERR,0,RxERR,0,TxCNT,252,RxCNT,1576,DTMS,974,DTIN,1,4,DTOUT,150,954,HATMD,67*33
$PGLOR,0,HLA,174704.00,L,,Al,,A,46,H,,,M,0,Ac,0,Gr,0,S,,,Sx,,,T,0,Tr,,Mn,0*35
$PGLOR,1,PWR,AvgP,105.320007,RFTm,1000,RunT,1000,OscTm,1000,SlpTm,0,MeasTm,1000*2D
$PGLOR,0,PPS,120416,174703.999,,,000.000,0,0,0,*06
$GPGSV,4,1,13,25,79,089,34,29,58,337,38,12,42,121,32,21,35,224,35*7A
$GPGSV,4,2,13,20,33,144,32,31,31,297,38,05,31,085,34,02,21,044,31*76
$GPGSV,4,3,13,24,03,171,22,10,01,000,,16,01,000,,03,01,000,*7A
$GPGSV,4,4,13,26,01,314,*48
$GLGSV,2,1,05,87,41,285,37,67,01,000,35,76,01,000,,84,01,000,*69
$GLGSV,2,2,05,81,01,000,*58
$GPGSA,A,3,02,05,12,20,21,24,25,29,31,,,,1.3,1.0,0.9*35
$GNGSA,A,3,02,05,12,20,21,24,25,29,31,,,,1.3,1.0,0.9*2B
$GNGSA,A,3,,,,,,,,,,,,,1.3,1.0,0.9*26
$QZGSA,A,3,,,,,,,,,,,,,1.3,1.0,0.9*24
$PGLOR,1,FIX,1.0,1.0*20
$GPRMC,174704.00,A,3201.261726,N,03448.337185,E,000.0,331.8,120416,,,A*50
$GPGGA,174705.00,3201.261726,N,03448.337185,E,1,09,0.6,27.7,M,19.1,M,,*5E
$PGLOR,1,STA,174705.00,0.019,0.000,-302,1,6,0,P,F,L,0,C,3,S,0012,6741,5,R,33F4*4B
$PGLOR,1,SAT,G25,029,1F,G29,036,1F,G12,023,17,R23,036,13,G21,030,1F,G20,029,1F,G31,039,1F,G05,028,1F,G02,026,1F,G24,021,$PGLOR,1,SIO,TxERR,0,RxERR,0,TxCNT,292,RxCNT,1544,DTMS,990,DTIN,1,2,DTOUT,150,935,HATMD,68*3A
$PGLOR,0,HLA,174705.00,L,,Al,,A,46,H,,,M,0,Ac,0,Gr,0,S,,,Sx,,,T,0,Tr,,Mn,0*34
$PGLOR,1,PWR,AvgP,105.320007,RFTm,1000,RunT,1000,OscTm,1000,SlpTm,0,MeasTm,1000*2D
$PGLOR,0,PPS,120416,174704.999,,,000.000,0,0,0,*01
$GPGSV,4,1,13,25,79,089,34,29,58,337,38,12,42,121,31,21,35,224,34*78
$GPGSV,4,2,13,20,33,144,31,31,31,297,39,05,31,085,33,02,21,044,31*73
$GPGSV,4,3,13,24,03,171,22,10,01,000,,16,01,000,,03,01,000,*7A
$GPGSV,4,4,13,26,01,314,*48
$GLGSV,2,1,05,87,41,285,37,67,01,000,34,76,01,000,,84,01,000,*68
$GLGSV,2,2,05,81,01,000,*58
$GPGSA,A,3,02,05,12,20,21,24,25,29,31,,,,1.3,1.0,0.9*35
$GNGSA,A,3,02,05,12,20,21,24,25,29,31,,,,1.3,1.0,0.9*2B
$GNGSA,A,3,,,,,,,,,,,,,1.3,1.0,0.9*26
$QZGSA,A,3,,,,,,,,,,,,,1.3,1.0,0.9*24
$PGLOR,1,FIX,1.0,1.0*20
$GPRMC,174705.00,A,3201.261726,N,03448.337185,E,000.0,331.8,120416,,,A*51
$GPGGA,174706.00,3201.261726,N,03448.337185,E,1,09,0.6,27.8,M,19.1,M,,*52
