$GPGSV,3,1,11,02,58,085,26,06,23,045,18,12,61,016,25,14,12,292,22*79
$GPGSV,3,2,11,19,08,049,20,24,55,181,28,25,40,319,24,29,33,253,25*75
$GPGSV,3,3,11,32,08,292,12,05,03,136,,15,,,*7C
$GLGSV,2,1,07,74,33,136,23,86,56,244,20,75,80,047,17,85,56,012,21*6B
$GLGSV,2,2,07,76,29,330,,84,09,032,,87,04,222,*55
$GPGGA,,,,,,0,,,,,,,,*66
$GPVTG,,T,,M,,N,,K,N*2C
$GPRMC,,V,,,,,,,,,,N*53
$GPGSA,A,1,,,,,,,,,,,,,,,*1E
$GNGSA,A,1,,,,,,,,,,,,,,,*00
$GPGSV,3,1,11,02,58,085,26,06,23,045,18,12,61,016,25,14,12,292,22*79
$GPGSV,3,2,11,19,08,049,20,24,55,181,28,25,40,319,24,29,33,253,25*75
$GPGSV,3,3,11,32,08,292,12,05,03,136,,15,,,*7C
$GLGSV,2,1,07,74,33,136,23,86,56,244,20,75,80,047,17,85,56,012,21*6B
$GLGSV,2,2,07,76,29,330,,84,09,032,,87,04,222,*55
$GPGGA,,,,,,0,,,,,,,,*66
$GPVTG,,T,,M,,N,,K,N*2C
$GPRMC,,V,,,,,,,,,,N*53
$GPGSA,A,1,,,,,,,,,,,,,,,*1E
$GNGSA,A,1,,,,,,,,,,,,,,,*00
$GPGSV,3,1,10,02,58,082,,05,04,135,,06,22,043,,12,61,019,*74
$GPGSV,3,2,10,14,11,291,,19,07,050,,24,53,180,,25,42,320,*75
$GPGSV,3,3,10,29,34,254,,32,08,291,*74
$GLGSV,2,1,07,86,56,247,30,74,30,137,,76,31,330,,75,81,060,*65
$GLGSV,2,2,07,84,08,033,,87,05,223,,85,55,014,*57
$GPGGA,,,,,,0,,,,,,,,*66
$GPVTG,,T,,M,,N,,K,N*2C
$GPRMC,,V,,,,,,,,,,N*53
$GPGSA,A,1,,,,,,,,,,,,,,,*1E
$GNGSA,A,1,,,,,,,,,,,,,,,*00
$GPGSV,3,1,10,02,58,082,19,14,11,291,23,24,53,180,20,25,42,320,27*77
$GPGSV,3,2,10,29,34,254,24,05,04,135,,06,22,043,,12,61,019,*7B
$GPGSV,3,3,10,19,07,050,,32,08,291,*71
$GLGSV,2,1,07,86,56,247,29,74,30,137,,76,31,330,,75,81,060,*6D
$GLGSV,2,2,07,84,08,033,,87,05,223,,85,55,014,*57
$GPGGA,,,,,,0,,,,,,,,*66
$GPVTG,,T,,M,,N,,K,N*2C
$GPRMC,,V,,,,,,,,,,N*53
$GPGSA,A,1,,,,,,,,,,,,,,,*1E
$GNGSA,A,1,,,,,,,,,,,,,,,*00
$GPGSV,3,1,10,02,58,082,19,14,11,291,23,24,53,180,20,25,42,320,27*77
$GPGSV,3,2,10,29,34,254,24,05,04,135,,06,22,043,,12,61,019,*7B
$GPGSV,3,3,10,19,07,050,,32,08,291,*71
$GLGSV,2,1,07,86,56,247,29,74,30,137,,76,31,330,,75,81,060,*6D
$GLGSV,2,2,07,84,08,033,,87,05,223,,85,55,014,*57
$GPGGA,,,,,,0,,,,,,,,*66
$GPVTG,,T,,M,,N,,K,N*2C
$GPRMC,,V,,,,,,,,,,N*53
$GPGSA,A,1,,,,,,,,,,,,,,,*1E
$GNGSA,A,1,,,,,,,,,,,,,,,*00
$GPGSV,3,1,10,02,58,082,17,14,11,291,23,24,53,180,19,25,42,320,26*72
$GPGSV,3,2,10,29,34,254,20,32,08,291,19,05,04,135,,06,22,043,*78
$GPGSV,3,3,10,12,61,019,,19,07,050,*7E
$GLGSV,2,1,07,86,56,247,29,74,30,137,,76,31,330,,75,81,060,*6D
$GLGSV,2,2,07,84,08,033,,87,05,223,,85,55,014,*57
$GPGGA,,,,,,0,,,,,,,,*66
$GPVTG,,T,,M,,N,,K,N*2C
$GPRMC,,V,,,,,,,,,,N*53
$GPGSA,A,1,,,,,,,,,,,,,,,*1E
$GNGSA,A,1,,,,,,,,,,,,,,,*00
$GPGSV,3,1,10,02,58,082,17,14,11,291,22,19,07,050,19,24,53,180,19*75
$GPGSV,3,2,10,25,42,320,24,29,34,254,20,32,08,291,18,05,04,135,*7E
$GPGSV,3,3,10,06,22,043,,12,61,019,*75
$GLGSV,2,1,07,86,56,247,28,85,55,014,20,74,30,137,,76,31,330,*6B
$GLGSV,2,2,07,75,81,060,,84,08,033,,87,05,223,*52
$GPGGA,,,,,,0,,,,,,,,*66
$GPVTG,,T,,M,,N,,K,N*2C
$GPRMC,,V,,,,,,,,,,N*53
$GPGSA,A,1,,,,,,,,,,,,,,,*1E
$GNGSA,A,1,,,,,,,,,,,,,,,*00
$GPGSV,3,1,10,02,58,082,17,14,11,291,23,19,07,050,19,24,53,180,20*7E
$GPGSV,3,2,10,25,42,320,23,29,34,254,16,32,08,291,18,05,04,135,*7C
$GPGSV,3,3,10,06,22,043,,12,61,019,*75
$GLGSV,2,1,07,86,56,247,17,85,55,014,19,74,30,137,,76,31,330,*6D
$GLGSV,2,2,07,75,81,060,,84,08,033,,87,05,223,*52
$GPGGA,,,,,,0,,,,,,,,*66
$GPVTG,,T,,M,,N,,K,N*2C
$GPRMC,,V,,,,,,,,,,N*53
$GPGSA,A,1,,,,,,,,,,,,,,,*1E
$GNGSA,A,1,,,,,,,,,,,,,,,*00
$GPGSV,3,1,10,02,58,082,20,06,22,043,22,14,11,291,26,19,07,050,17*7B
$GPGSV,3,2,10,24,53,180,20,25,42,320,25,29,34,254,25,32,08,291,21*7D
$GPGSV,3,3,10,05,04,135,,12,61,019,*72
$GLGSV,2,1,07,86,56,247,27,87,05,223,30,85,55,014,19,74,30,137,*67
$GLGSV,2,2,07,76,31,330,,75,81,060,,84,08,033,*58
$GPGGA,,,,,,0,,,,,,,,*66
$GPVTG,,T,,M,,N,,K,N*2C
$GPRMC,,V,,,,,,,,,,N*53
$GPGSA,A,1,,,,,,,,,,,,,,,*1E
$GNGSA,A,1,,,,,,,,,,,,,,,*00
$GPGSV,3,1,10,02,58,082,19,06,22,043,21,12,61,019,17,14,11,291,22*70
$GPGSV,3,2,10,19,07,050,18,24,53,180,19,25,42,320,25,29,34,254,23*72
$GPGSV,3,3,10,32,08,291,18,05,04,135,*74
$GLGSV,2,1,07,74,30,137,16,86,56,247,23,75,81,060,17,87,05,223,30*6F
$GLGSV,2,2,07,85,55,014,16,76,31,330,,84,08,033,*5A
$GPGGA,154934.0,3205.489674,N,03458.523312,E,1,08,1.1,108.5,M,19.0,M,,*54
$GPVTG,335.2,T,332.2,M,2.3,N,4.3,K,A*22
$GPRMC,154934.0,A,3205.489674,N,03458.523312,E,2.3,335.2,120416,3.0,E,A*04
$GPGSA,A,2,02,06,12,19,24,25,29,32,,,,,1.4,1.1,0.8*3A
$GNGSA,A,2,02,06,12,19,24,25,29,32,,,,,1.4,1.1,0.8*24
$GNGSA,A,2,,,,,,,,,,,,,1.4,1.1,0.8*20
$GPGSV,3,1,10,02,58,082,18,06,22,043,20,12,61,019,18,14,11,291,18*76
$GPGSV,3,2,10,19,07,050,17,24,53,180,18,25,42,320,20,29,34,254,31*7A
$GPGSV,3,3,10,32,08,291,21,05,04,135,*7E
$GLGSV,2,1,07,74,30,137,16,86,56,247,26,75,81,060,16,87,05,223,29*63
$GLGSV,2,2,07,85,55,014,18,76,31,330,,84,08,033,*54
$GPGGA,154935.0,3205.486245,N,03458.527548,E,1,08,1.1,113.5,M,19.0,M,,*5B
$GPVTG,335.2,T,332.2,M,2.1,N,3.9,K,A*2D
$GPRMC,154935.0,A,3205.486245,N,03458.527548,E,2.1,335.2,120416,3.0,E,A*03
$GPGSA,A,2,02,06,12,19,24,25,29,32,,,,,1.4,1.1,0.8*3A
$GNGSA,A,2,02,06,12,19,24,25,29,32,,,,,1.4,1.1,0.8*24
$GNGSA,A,2,,,,,,,,,,,,,1.4,1.1,0.8*20
$GPGSV,3,1,10,02,58,082,18,06,22,043,18,12,61,019,20,14,11,291,18*76
$GPGSV,3,2,10,19,07,050,17,24,53,180,18,25,42,320,23,29,34,254,30*78
$GPGSV,3,3,10,32,08,291,17,05,04,135,*7B
$GLGSV,2,1,07,74,30,137,16,86,56,247,25,75,81,060,16,87,05,223,29*60
$GLGSV,2,2,07,85,55,014,19,76,31,330,,84,08,033,*55
$GPGGA,154936.0,3205.485724,N,03458.528581,E,1,08,1.1,113.3,M,19.0,M,,*55
$GPVTG,335.2,T,332.2,M,2.0,N,3.8,K,A*2D
$GPRMC,154936.0,A,3205.485724,N,03458.528581,E,2.0,335.2,120416,3.0,E,A*0A
$GPGSA,A,2,02,06,12,19,24,25,29,32,,,,,1.4,1.1,0.8*3A
$GNGSA,A,2,02,06,12,19,24,25,29,32,,,,,1.4,1.1,0.8*24
$GNGSA,A,2,,,,,,,,,,,,,1.4,1.1,0.8*20
$GPGSV,3,1,10,02,58,082,18,06,22,043,18,12,61,019,23,14,11,291,18*75
$GPGSV,3,2,10,19,07,050,17,24,53,180,25,25,42,320,26,29,34,254,28*7A
$GPGSV,3,3,10,32,08,291,17,05,04,135,*7B
$GLGSV,2,1,07,74,30,137,16,86,56,247,28,75,81,060,16,87,05,223,28*6C
$GLGSV,2,2,07,85,55,014,23,76,31,330,,84,08,033,*5C
$GPGGA,154937.0,3205.487672,N,03458.529250,E,1,08,1.1,117.7,M,19.0,M,,*5E
$GPVTG,343.7,T,340.7,M,2.9,N,5.4,K,A*2A
$GPRMC,154937.0,A,3205.487672,N,03458.529250,E,2.9,343.7,120416,3.0,E,A*0C
$GPGSA,A,2,02,06,12,19,24,25,29,32,,,,,1.4,1.1,0.8*3A
$GNGSA,A,2,02,06,12,19,24,25,29,32,,,,,1.4,1.1,0.8*24
$GNGSA,A,2,,,,,,,,,,,,,1.4,1.1,0.8*20
$GPGSV,3,1,10,02,58,082,18,06,22,043,15,12,61,019,27,14,11,291,18*7C
$GPGSV,3,2,10,19,07,050,17,24,53,180,26,25,42,320,26,29,34,254,31*71
$GPGSV,3,3,10,32,08,291,17,05,04,135,*7B
$GLGSV,2,1,07,74,30,137,16,86,56,247,28,75,81,060,15,87,05,223,29*6E
$GLGSV,2,2,07,85,55,014,23,76,31,330,,84,08,033,*5C
$GPGGA,154938.0,3205.489757,N,03458.529985,E,1,08,1.1,119.2,M,19.0,M,,*51
$GPVTG,353.8,T,350.9,M,2.9,N,5.4,K,A*2B
$GPRMC,154938.0,A,3205.489757,N,03458.529985,E,2.9,353.8,120416,3.0,E,A*06
$GPGSA,A,2,02,06,12,19,24,25,29,32,,,,,1.4,1.1,0.8*3A
$GNGSA,A,2,02,06,12,19,24,25,29,32,,,,,1.4,1.1,0.8*24
$GNGSA,A,2,,,,,,,,,,,,,1.4,1.1,0.8*20
$GPGSV,3,1,10,02,58,082,18,06,22,043,18,12,61,019,21,14,11,291,15*7A
$GPGSV,3,2,10,19,07,050,17,24,53,180,22,25,42,320,25,29,34,254,31*76
$GPGSV,3,3,10,32,08,291,17,05,04,135,*7B
$GLGSV,2,1,07,74,30,137,16,86,56,247,27,75,81,060,16,87,05,223,25*6E
$GLGSV,2,2,07,85,55,014,26,76,31,330,,84,08,033,*59
$GPGGA,154939.0,3205.488318,N,03458.531476,E,1,08,1.1,119.1,M,19.0,M,,*55
$GPVTG,2.9,T,359.9,M,2.5,N,4.6,K,A*2B
$GPRMC,154939.0,A,3205.488318,N,03458.531476,E,2.5,2.9,120416,3.0,E,A*0B
$GPGSA,A,2,02,06,12,19,24,25,29,32,,,,,1.4,1.1,0.8*3A
$GNGSA,A,2,02,06,12,19,24,25,29,32,,,,,1.4,1.1,0.8*24
$GNGSA,A,2,,,,,,,,,,,,,1.4,1.1,0.8*20
$GPGSV,3,1,10,02,58,082,24,06,22,043,18,12,61,019,25,14,11,291,15*71
$GPGSV,3,2,10,19,07,050,17,24,53,180,20,25,42,320,20,29,34,254,32*72
$GPGSV,3,3,10,32,08,291,17,05,04,135,*7B
$GLGSV,2,1,07,74,30,137,16,86,56,247,31,75,81,060,25,87,05,223,22*6E
$GLGSV,2,2,07,85,55,014,26,76,31,330,,84,08,033,*59
$GPGGA,154940.0,3205.488237,N,03458.532058,E,1,08,1.1,120.7,M,19.0,M,,*50
$GPVTG,2.9,T,359.9,M,2.3,N,4.2,K,A*29
$GPRMC,154940.0,A,3205.488237,N,03458.532058,E,2.3,2.9,120416,3.0,E,A*04
$GPGSA,A,2,02,06,12,19,24,25,29,32,,,,,1.4,1.1,0.8*3A
$GNGSA,A,2,02,06,12,19,24,25,29,32,,,,,1.4,1.1,0.8*24
$GNGSA,A,2,,,,,,,,,,,,,1.4,1.1,0.8*20
$GPGSV,3,1,10,02,58,082,21,06,22,043,18,12,61,019,26,14,11,291,15*77
$GPGSV,3,2,10,19,07,050,17,24,53,180,23,25,42,320,25,29,34,254,31*77
$GPGSV,3,3,10,32,08,291,17,05,04,135,*7B
$GLGSV,2,1,07,74,30,137,16,86,56,247,26,75,81,060,22,87,05,223,20*6D
$GLGSV,2,2,07,85,55,014,24,76,31,330,,84,08,033,*5B
$GPGGA,154941.0,3205.489187,N,03458.532240,E,1,08,1.1,121.8,M,19.0,M,,*5D
$GPVTG,2.9,T,359.9,M,2.5,N,4.6,K,A*2B
$GPRMC,154941.0,A,3205.489187,N,03458.532240,E,2.5,2.9,120416,3.0,E,A*01
$GPGSA,A,2,02,06,12,19,24,25,29,32,,,,,1.4,1.1,0.8*3A
$GNGSA,A,2,02,06,12,19,24,25,29,32,,,,,1.4,1.1,0.8*24
$GNGSA,A,2,,,,,,,,,,,,,1.4,1.1,0.8*20
$GPGSV,3,1,10,02,58,082,23,06,22,043,18,12,61,019,24,14,11,291,17*75
$GPGSV,3,2,10,19,07,050,17,24,53,180,23,25,42,320,26,29,34,254,25*71
$GPGSV,3,3,10,32,08,291,17,05,04,135,*7B
$GLGSV,2,1,07,74,30,137,16,86,56,247,24,75,81,060,21,87,05,223,20*6C
$GLGSV,2,2,07,85,55,014,24,76,31,330,,84,08,033,*5B
$GPGGA,154942.0,3205.488283,N,03458.531765,E,1,07,1.2,121.2,M,19.0,M,,*5F
$GPVTG,2.9,T,359.9,M,1.1,N,2.1,K,A*2D
$GPRMC,154942.0,A,3205.488283,N,03458.531765,E,1.1,2.9,120416,3.0,E,A*02
$GPGSA,A,2,02,06,12,24,25,29,32,,,,,,1.5,1.2,0.9*31
$GNGSA,A,2,02,06,12,24,25,29,32,,,,,,1.5,1.2,0.9*2F
$GNGSA,A,2,,,,,,,,,,,,,1.5,1.2,0.9*23
$GPGSV,3,1,10,02,58,082,24,06,22,043,18,12,61,019,26,14,11,291,17*70
$GPGSV,3,2,10,19,07,050,17,24,53,180,23,25,42,320,27,29,34,254,24*71
$GPGSV,3,3,10,32,08,289,17,05,05,135,*73
$GLGSV,2,1,07,74,30,137,16,86,56,247,16,75,81,061,22,87,05,223,20*6F
$GLGSV,2,2,07,85,55,014,19,76,31,330,,84,07,033,*5A
$GPGGA,154943.0,3205.488919,N,03458.532107,E,1,06,1.3,122.8,M,19.0,M,,*5E
$GPVTG,87.3,T,84.3,M,1.5,N,2.8,K,A*2E
$GPRMC,154943.0,A,3205.488919,N,03458.532107,E,1.5,87.3,120416,3.0,E,A*39
$GPGSA,A,2,02,06,12,24,25,29,,,,,,,1.6,1.3,0.9*32
$GNGSA,A,2,02,06,12,24,25,29,,,,,,,1.6,1.3,0.9*2C
$GNGSA,A,2,,,,,,,,,,,,,1.6,1.3,0.9*21
$GPGSV,3,1,10,02,58,082,21,06,22,043,18,12,61,019,29,14,11,291,17*7A
$GPGSV,3,2,10,19,07,050,17,24,53,180,22,25,42,320,22,29,34,254,21*70
$GPGSV,3,3,10,32,08,289,12,05,05,135,*76
$GLGSV,2,1,07,74,30,137,16,86,56,247,16,75,81,061,20,87,05,223,15*6B
$GLGSV,2,2,07,85,55,014,26,76,31,330,,84,07,033,*56
$GPGGA,154944.0,3205.489341,N,03458.532350,E,1,07,1.2,124.1,M,19.0,M,,*50
$GPVTG,87.3,T,84.3,M,1.5,N,2.8,K,A*2E
$GPRMC,154944.0,A,3205.489341,N,03458.532350,E,1.5,87.3,120416,3.0,E,A*38
$GPGSA,A,2,02,06,12,24,25,29,32,,,,,,1.5,1.2,0.9*31
$GNGSA,A,2,02,06,12,24,25,29,32,,,,,,1.5,1.2,0.9*2F
$GNGSA,A,2,,,,,,,,,,,,,1.5,1.2,0.9*23
$GPGSV,3,1,10,02,58,082,18,06,22,043,18,12,61,019,26,14,11,291,17*7F
$GPGSV,3,2,10,19,07,050,17,24,53,180,23,25,42,320,22,29,34,254,28*78
$GPGSV,3,3,10,32,08,289,12,05,05,135,*76
$GLGSV,2,1,07,74,30,137,18,86,56,247,16,75,81,061,17,87,05,223,15*61
$GLGSV,2,2,07,85,55,014,23,76,31,330,,84,07,033,*53
$GPGGA,154945.0,3205.488910,N,03458.533826,E,1,07,1.2,124.6,M,19.0,M,,*52
$GPVTG,87.3,T,84.3,M,1.6,N,2.9,K,A*2C
$GPRMC,154945.0,A,3205.488910,N,03458.533826,E,1.6,87.3,120416,3.0,E,A*3E
$GPGSA,A,2,02,06,12,24,25,29,32,,,,,,1.5,1.2,0.9*31
$GNGSA,A,2,02,06,12,24,25,29,32,,,,,,1.5,1.2,0.9*2F
$GNGSA,A,2,,,,,,,,,,,,,1.5,1.2,0.9*23
$GPGSV,3,1,10,02,58,082,26,06,22,043,13,12,61,019,24,14,11,291,17*7B
$GPGSV,3,2,10,19,07,050,17,24,53,180,26,25,42,320,19,29,34,254,23*7E
$GPGSV,3,3,10,32,08,289,12,05,05,135,*76
$GLGSV,2,1,07,74,30,137,31,86,56,247,21,75,81,061,18,87,05,223,21*66
$GLGSV,2,2,07,85,55,014,22,76,31,330,,84,07,033,*52
$GPGGA,154946.0,3205.489198,N,03458.534241,E,1,07,1.2,123.0,M,19.0,M,,*55
$GPVTG,87.3,T,84.3,M,1.1,N,2.0,K,A*22
$GPRMC,154946.0,A,3205.489198,N,03458.534241,E,1.1,87.3,120416,3.0,E,A*3F
$GPGSA,A,2,02,06,12,24,25,29,32,,,,,,1.5,1.2,0.9*31
$GNGSA,A,2,02,06,12,24,25,29,32,,,,,,1.5,1.2,0.9*2F
$GNGSA,A,2,,,,,,,,,,,,,1.5,1.2,0.9*23
$GPGSV,3,1,10,02,58,082,26,06,22,043,17,12,61,019,24,14,11,291,17*7F
$GPGSV,3,2,10,19,07,050,10,24,53,180,23,25,42,320,19,29,34,254,23*7C
$GPGSV,3,3,10,32,08,289,12,05,05,135,*76
$GLGSV,2,1,07,74,30,137,27,86,56,247,22,75,81,061,20,87,05,223,18*63
$GLGSV,2,2,07,85,55,014,25,76,31,330,,84,07,033,*55
$GPGGA,154947.0,3205.488749,N,03458.534481,E,1,08,1.1,122.9,M,19.0,M,,*51
$GPVTG,87.3,T,84.3,M,0.6,N,1.1,K,A*26
$GPRMC,154947.0,A,3205.488749,N,03458.534481,E,0.6,87.3,120416,3.0,E,A*39
$GPGSA,A,2,02,06,12,19,24,25,29,32,,,,,1.4,1.1,0.8*3A
$GNGSA,A,2,02,06,12,19,24,25,29,32,,,,,1.4,1.1,0.8*24
$GNGSA,A,2,,,,,,,,,,,,,1.4,1.1,0.8*20
$GPGSV,3,1,10,02,58,082,25,06,22,043,17,12,61,019,24,14,11,291,17*7C
$GPGSV,3,2,10,19,07,050,10,24,53,180,23,25,42,320,19,29,34,254,21*7E
$GPGSV,3,3,10,32,08,289,12,05,05,135,*76
$GLGSV,2,1,07,74,30,137,23,86,56,247,20,75,81,061,20,87,05,223,22*6C
$GLGSV,2,2,07,85,55,014,23,76,31,330,,84,07,033,*53
$GPGGA,154948.0,3205.488717,N,03458.535454,E,1,08,1.1,122.0,M,19.0,M,,*55
$GPVTG,87.3,T,84.3,M,0.3,N,0.6,K,A*25
$GPRMC,154948.0,A,3205.488717,N,03458.535454,E,0.3,87.3,120416,3.0,E,A*31
$GPGSA,A,2,02,06,12,19,24,25,29,32,,,,,1.4,1.1,0.8*3A
$GNGSA,A,2,02,06,12,19,24,25,29,32,,,,,1.4,1.1,0.8*24
$GNGSA,A,2,,,,,,,,,,,,,1.4,1.1,0.8*20
$GPGSV,3,1,10,02,58,082,21,06,22,043,17,12,61,019,24,14,11,291,17*78
$GPGSV,3,2,10,19,07,050,10,24,53,180,23,25,42,320,19,29,34,254,17*7B
$GPGSV,3,3,10,32,08,289,12,05,05,135,*76
$GLGSV,2,1,07,74,30,137,23,86,56,247,18,75,81,061,14,87,05,223,22*60
$GLGSV,2,2,07,85,55,014,23,76,31,330,,84,07,033,*53
$GPGGA,154949.0,3205.488033,N,03458.535518,E,1,08,1.1,121.7,M,19.0,M,,*58
$GPVTG,87.3,T,84.3,M,0.7,N,1.3,K,A*25
$GPRMC,154949.0,A,3205.488033,N,03458.535518,E,0.7,87.3,120416,3.0,E,A*3C
$GPGSA,A,2,02,06,12,19,24,25,29,32,,,,,1.4,1.1,0.8*3A
$GNGSA,A,2,02,06,12,19,24,25,29,32,,,,,1.4,1.1,0.8*24
$GNGSA,A,2,,,,,,,,,,,,,1.4,1.1,0.8*20
$GPGSV,3,1,10,02,58,082,24,06,22,043,17,12,61,019,28,14,11,291,17*71
$GPGSV,3,2,10,19,07,050,10,24,53,180,17,25,42,320,14,29,34,254,17*71
$GPGSV,3,3,10,32,08,289,12,05,05,135,*76
$GLGSV,2,1,07,74,30,137,17,86,56,247,17,75,81,061,20,87,05,223,22*6F
$GLGSV,2,2,07,85,55,014,29,76,31,330,,84,07,033,*59
$GPGGA,154950.0,3205.487156,N,03458.536367,E,1,08,1.1,120.7,M,19.0,M,,*51
$GPVTG,87.3,T,84.3,M,1.3,N,2.4,K,A*24
$GPRMC,154950.0,A,3205.487156,N,03458.536367,E,1.3,87.3,120416,3.0,E,A*31
$GPGSA,A,2,02,06,12,19,24,25,29,32,,,,,1.4,1.1,0.8*3A
$GNGSA,A,2,02,06,12,19,24,25,29,32,,,,,1.4,1.1,0.8*24
$GNGSA,A,2,,,,,,,,,,,,,1.4,1.1,0.8*20
$GPGSV,3,1,10,02,58,082,25,06,22,043,17,12,61,019,25,14,11,291,17*7D
$GPGSV,3,2,10,19,07,050,10,24,53,180,19,25,42,320,17,29,34,254,17*7C
$GPGSV,3,3,10,32,08,289,12,05,05,135,*76
$GLGSV,2,1,07,74,30,137,17,86,56,247,18,75,81,061,17,87,05,223,14*61
$GLGSV,2,2,07,85,55,014,25,76,31,330,,84,07,033,*55
$GPGGA,154951.0,3205.488923,N,03458.535416,E,1,07,1.3,119.2,M,19.0,M,,*55
$GPVTG,87.3,T,84.3,M,0.9,N,1.6,K,A*2E
$GPRMC,154951.0,A,3205.488923,N,03458.535416,E,0.9,87.3,120416,3.0,E,A*3C
$GPGSA,A,2,02,06,12,19,24,25,29,,,,,,1.5,1.3,0.9*39
$GNGSA,A,2,02,06,12,19,24,25,29,,,,,,1.5,1.3,0.9*27
$GNGSA,A,2,,,,,,,,,,,,,1.5,1.3,0.9*22
$GPGSV,3,1,10,02,58,082,23,06,22,043,17,12,61,019,23,14,11,291,17*7D
$GPGSV,3,2,10,19,07,050,10,24,53,180,21,25,42,320,17,29,34,254,16*76
$GPGSV,3,3,10,32,08,289,12,05,05,135,*76
$GLGSV,2,1,07,74,30,137,17,86,56,247,19,75,81,061,16,87,05,223,14*61
$GLGSV,2,2,07,85,55,014,20,76,31,330,,84,07,033,*50
$GPGGA,154952.0,3205.490045,N,03458.536669,E,1,07,1.3,119.0,M,19.0,M,,*5D
$GPVTG,45.2,T,42.2,M,2.2,N,4.0,K,A*20
$GPRMC,154952.0,A,3205.490045,N,03458.536669,E,2.2,45.2,120416,3.0,E,A*30
$GPGSA,A,2,02,06,12,19,24,25,29,,,,,,1.5,1.3,0.9*39
$GNGSA,A,2,02,06,12,19,24,25,29,,,,,,1.5,1.3,0.9*27
$GNGSA,A,2,,,,,,,,,,,,,1.5,1.3,0.9*22
$GPGSV,3,1,10,02,58,082,27,06,22,043,17,12,61,019,24,14,11,291,17*7E
$GPGSV,3,2,10,19,07,050,10,24,53,180,19,25,42,320,16,29,34,254,20*79
$GPGSV,3,3,10,32,08,289,12,05,05,135,*76
$GLGSV,2,1,07,74,30,137,19,86,56,247,20,75,81,061,19,87,05,223,14*6A
$GLGSV,2,2,07,85,55,014,21,76,31,330,,84,07,033,*51
$GPGGA,154953.0,3205.490229,N,03458.536578,E,1,07,1.3,120.6,M,19.0,M,,*5B
$GPVTG,45.2,T,42.2,M,2.3,N,4.2,K,A*23
$GPRMC,154953.0,A,3205.490229,N,03458.536578,E,2.3,45.2,120416,3.0,E,A*3B
$GPGSA,A,2,02,06,12,19,24,25,29,,,,,,1.5,1.3,0.9*39
$GNGSA,A,2,02,06,12,19,24,25,29,,,,,,1.5,1.3,0.9*27
$GNGSA,A,2,,,,,,,,,,,,,1.5,1.3,0.9*22
$GPGSV,3,1,10,02,58,082,20,06,22,043,17,12,61,019,18,14,11,291,10*71
$GPGSV,3,2,10,19,07,050,10,24,53,180,17,25,42,320,18,29,34,254,21*78
$GPGSV,3,3,10,32,08,289,12,05,05,135,*76
$GLGSV,2,1,07,74,30,137,19,86,56,247,19,75,81,061,19,87,05,223,14*60
$GLGSV,2,2,07,85,55,014,18,76,31,330,,84,07,033,*5B
$GPGGA,154954.0,3205.491050,N,03458.538621,E,1,05,1.5,121.0,M,19.0,M,,*53
$GPVTG,55.5,T,52.6,M,5.1,N,9.4,K,A*2E
$GPRMC,154954.0,A,3205.491050,N,03458.538621,E,5.1,55.5,120416,3.0,E,A*33
$GPGSA,A,2,02,12,24,25,29,,,,,,,,1.8,1.5,1.0*34
$GNGSA,A,2,02,12,24,25,29,,,,,,,,1.8,1.5,1.0*2A
$GNGSA,A,2,,,,,,,,,,,,,1.8,1.5,1.0*21
$GPGSV,3,1,10,02,58,082,21,06,22,043,17,12,61,019,18,14,11,291,10*70
$GPGSV,3,2,10,19,07,050,10,24,53,180,18,25,42,320,20,29,34,254,19*77
$GPGSV,3,3,10,32,08,289,12,05,05,135,*76
$GLGSV,2,1,07,74,30,137,18,86,56,247,21,75,81,061,19,87,05,223,14*6A
$GLGSV,2,2,07,85,55,014,17,76,31,330,,84,07,033,*54
$GPGGA,154955.0,3205.491176,N,03458.541090,E,1,05,1.5,121.6,M,19.0,M,,*53
$GPVTG,63.7,T,60.8,M,6.0,N,11.0,K,A*19
$GPRMC,154955.0,A,3205.491176,N,03458.541090,E,6.0,63.7,120416,3.0,E,A*30
$GPGSA,A,2,02,12,24,25,29,,,,,,,,1.8,1.5,1.0*34
$GNGSA,A,2,02,12,24,25,29,,,,,,,,1.8,1.5,1.0*2A
$GNGSA,A,2,,,,,,,,,,,,,1.8,1.5,1.0*21
$GPGSV,3,1,10,02,58,082,25,06,22,043,17,12,61,019,19,14,11,291,10*75
$GPGSV,3,2,10,19,07,050,10,24,53,180,18,25,42,320,20,29,34,254,18*76
$GPGSV,3,3,10,32,08,289,12,05,05,135,*76
$GLGSV,2,1,07,74,30,137,20,86,56,247,17,75,81,061,15,87,05,223,17*6B
$GLGSV,2,2,07,85,55,014,19,76,31,330,,84,07,033,*5A
$GPGGA,154956.0,3205.492567,N,03458.542712,E,1,05,1.5,121.1,M,19.0,M,,*5E
$GPVTG,56.9,T,53.9,M,5.7,N,10.6,K,A*13
$GPRMC,154956.0,A,3205.492567,N,03458.542712,E,5.7,56.9,120416,3.0,E,A*36
$GPGSA,A,2,02,12,24,25,29,,,,,,,,1.8,1.5,1.0*34
$GNGSA,A,2,02,12,24,25,29,,,,,,,,1.8,1.5,1.0*2A
$GNGSA,A,2,,,,,,,,,,,,,1.8,1.5,1.0*21
$GPGSV,3,1,10,02,58,082,21,06,22,043,10,12,61,019,23,14,11,291,10*7F
$GPGSV,3,2,10,19,07,050,10,24,53,180,17,25,42,320,18,29,34,254,18*72
$GPGSV,3,3,10,32,08,289,12,05,05,135,*76
$GLGSV,2,1,07,74,30,137,24,86,56,247,18,75,81,061,15,87,05,223,17*60
$GLGSV,2,2,07,85,55,014,22,76,31,330,,84,07,033,*52
$GPGGA,154957.0,3205.493345,N,03458.543922,E,1,06,1.3,120.6,M,19.0,M,,*57
$GPVTG,60.2,T,57.2,M,4.5,N,8.4,K,A*2A
$GPRMC,154957.0,A,3205.493345,N,03458.543922,E,4.5,60.2,120416,3.0,E,A*31
$GPGSA,A,2,02,06,12,24,25,29,,,,,,,1.6,1.3,0.9*32
$GNGSA,A,2,02,06,12,24,25,29,,,,,,,1.6,1.3,0.9*2C
$GNGSA,A,2,,,,,,,,,,,,,1.6,1.3,0.9*21
$GPGSV,3,1,10,02,58,082,21,06,22,043,16,12,61,019,27,14,11,291,10*7D
$GPGSV,3,2,10,19,07,050,10,24,53,180,18,25,42,320,20,29,34,254,16*78
$GPGSV,3,3,10,32,08,289,12,05,05,135,*76
$GLGSV,2,1,07,74,30,137,23,86,56,247,19,75,81,061,16,87,05,223,16*64
$GLGSV,2,2,07,85,55,014,27,76,31,330,,84,07,033,*57
$GPGGA,154958.0,3205.493655,N,03458.545042,E,1,06,1.3,121.7,M,19.0,M,,*55
$GPVTG,63.6,T,60.7,M,4.3,N,8.0,K,A*2E
$GPRMC,154958.0,A,3205.493655,N,03458.545042,E,4.3,63.6,120416,3.0,E,A*32
$GPGSA,A,2,02,06,12,24,25,29,,,,,,,1.6,1.3,0.9*32
$GNGSA,A,2,02,06,12,24,25,29,,,,,,,1.6,1.3,0.9*2C
$GNGSA,A,2,,,,,,,,,,,,,1.6,1.3,0.9*21
$GPGSV,3,1,10,02,58,082,22,06,22,043,18,12,61,019,24,14,11,291,10*73
$GPGSV,3,2,10,19,07,050,10,24,53,180,18,25,42,320,24,29,34,254,22*7B
$GPGSV,3,3,10,32,08,289,12,05,05,135,*76
$GLGSV,2,1,07,74,30,137,21,86,56,247,21,75,81,061,16,87,05,223,22*6A
$GLGSV,2,2,07,85,55,014,24,76,31,330,,84,07,033,*54
$GPGGA,154959.0,3205.493326,N,03458.549027,E,1,06,1.3,121.0,M,19.0,M,,*5D
$GPVTG,87.8,T,84.8,M,5.4,N,10.1,K,A*11
$GPRMC,154959.0,A,3205.493326,N,03458.549027,E,5.4,87.8,120416,3.0,E,A*3F
$GPGSA,A,2,02,06,12,24,25,29,,,,,,,1.6,1.3,0.9*32
$GNGSA,A,2,02,06,12,24,25,29,,,,,,,1.6,1.3,0.9*2C
$GNGSA,A,2,,,,,,,,,,,,,1.6,1.3,0.9*21
$GPGSV,3,1,10,02,58,082,22,06,22,043,16,12,61,019,22,14,11,291,10*7B
$GPGSV,3,2,10,19,07,050,10,24,53,180,17,25,42,320,21,29,34,254,22*71
$GPGSV,3,3,10,32,08,289,12,05,05,135,*76
$GLGSV,2,1,07,74,30,137,21,86,56,247,18,75,81,061,16,87,05,223,18*69
$GLGSV,2,2,07,85,55,014,22,76,31,330,,84,07,033,*52
$GPGGA,155000.0,3205.494821,N,03458.549408,E,1,06,1.3,120.5,M,19.0,M,,*5F
$GPVTG,71.1,T,68.1,M,4.8,N,8.9,K,A*26
$GPRMC,155000.0,A,3205.494821,N,03458.549408,E,4.8,71.1,120416,3.0,E,A*34
$GPGSA,A,2,02,06,12,24,25,29,,,,,,,1.6,1.3,0.9*32
$GNGSA,A,2,02,06,12,24,25,29,,,,,,,1.6,1.3,0.9*2C
$GNGSA,A,2,,,,,,,,,,,,,1.6,1.3,0.9*21
$GPGSV,3,1,10,02,58,082,23,06,22,043,24,12,61,019,26,14,11,291,10*7F
$GPGSV,3,2,10,19,07,050,17,24,53,180,17,25,42,320,20,29,34,254,19*7F
$GPGSV,3,3,10,32,08,289,12,05,05,135,*76
$GLGSV,2,1,07,74,30,137,23,86,56,247,18,75,81,061,16,87,05,223,21*61
$GLGSV,2,2,07,85,55,014,25,76,31,330,,84,07,033,*55
$GPGGA,155001.0,3205.494904,N,03458.551019,E,1,07,1.3,124.2,M,19.0,M,,*57
$GPVTG,73.9,T,70.9,M,4.7,N,8.7,K,A*2C
$GPRMC,155001.0,A,3205.494904,N,03458.551019,E,4.7,73.9,120416,3.0,E,A*3B
$GPGSA,A,2,02,06,12,19,24,25,29,,,,,,1.5,1.3,0.9*39
$GNGSA,A,2,02,06,12,19,24,25,29,,,,,,1.5,1.3,0.9*27
$GNGSA,A,2,,,,,,,,,,,,,1.5,1.3,0.9*22
$GPGSV,3,1,10,02,58,082,25,06,22,043,25,12,61,019,26,14,11,291,10*78
$GPGSV,3,2,10,19,07,050,19,24,53,180,17,25,42,320,26,29,34,254,18*76
$GPGSV,3,3,10,32,08,289,12,05,05,135,*76
$GLGSV,2,1,07,74,30,137,24,86,56,247,18,75,81,061,18,87,05,223,19*63
$GLGSV,2,2,07,85,55,014,26,76,31,330,,84,07,033,*56
$GPGGA,155002.0,3205.496374,N,03458.552193,E,1,07,1.3,113.7,M,19.0,M,,*5A
$GPVTG,72.8,T,69.8,M,4.7,N,8.8,K,A*2A
$GPRMC,155002.0,A,3205.496374,N,03458.552193,E,4.7,72.8,120416,3.0,E,A*37
$GPGSA,A,2,02,06,12,19,24,25,29,,,,,,1.5,1.3,0.9*39
$GNGSA,A,2,02,06,12,19,24,25,29,,,,,,1.5,1.3,0.9*27
$GNGSA,A,2,,,,,,,,,,,,,1.5,1.3,0.9*22
$GPGSV,3,1,10,02,58,082,24,06,22,043,27,12,61,019,27,14,11,291,10*7A
$GPGSV,3,2,10,19,07,050,19,24,53,180,18,25,42,320,20,29,34,254,22*76
$GPGSV,3,3,10,32,08,289,12,05,05,135,*76
$GLGSV,2,1,07,74,30,137,23,86,56,247,19,75,81,061,18,87,05,223,19*65
$GLGSV,2,2,07,85,55,014,26,76,31,330,,84,07,033,*56
$GPGGA,155003.0,3205.496642,N,03458.553503,E,1,07,1.3,113.2,M,19.0,M,,*52
$GPVTG,78.1,T,75.2,M,5.3,N,9.9,K,A*2B
$GPRMC,155003.0,A,3205.496642,N,03458.553503,E,5.3,78.1,120416,3.0,E,A*3C
$GPGSA,A,2,02,06,12,19,24,25,29,,,,,,1.5,1.3,0.9*39
$GNGSA,A,2,02,06,12,19,24,25,29,,,,,,1.5,1.3,0.9*27
$GNGSA,A,2,,,,,,,,,,,,,1.5,1.3,0.9*22
$GPGSV,3,1,10,02,58,082,24,06,22,043,28,12,61,019,30,14,11,291,10*73
$GPGSV,3,2,10,19,07,050,19,24,53,180,20,25,42,320,26,29,34,254,22*7B
$GPGSV,3,3,10,32,08,289,14,05,05,135,*70
$GLGSV,2,1,07,74,30,137,21,86,56,247,21,75,81,061,20,87,05,223,19*67
$GLGSV,2,2,07,85,55,014,29,76,31,330,,84,07,033,*59
$GPGGA,155004.0,3205.497348,N,03458.555822,E,1,08,1.1,113.7,M,19.0,M,,*5B
$GPVTG,76.4,T,73.4,M,5.4,N,9.9,K,A*27
$GPRMC,155004.0,A,3205.497348,N,03458.555822,E,5.4,76.4,120416,3.0,E,A*31
$GPGSA,A,2,02,06,12,19,24,25,29,32,,,,,1.4,1.1,0.8*3A
$GNGSA,A,2,02,06,12,19,24,25,29,32,,,,,1.4,1.1,0.8*24
$GNGSA,A,2,,,,,,,,,,,,,1.4,1.1,0.8*20
$GPGSV,3,1,10,02,58,082,21,06,22,043,26,12,61,019,25,14,11,291,10*7C
$GPGSV,3,2,10,19,07,050,19,24,53,180,20,25,42,320,28,29,34,254,20*77
$GPGSV,3,3,10,32,08,289,18,05,05,135,*7C
$GLGSV,2,1,07,74,30,137,21,86,56,247,18,75,81,061,18,87,05,223,13*6C
$GLGSV,2,2,07,85,55,014,26,76,31,330,,84,07,033,*56
$GPGGA,155005.0,3205.497878,N,03458.558161,E,1,08,1.1,114.8,M,19.0,M,,*59
$GPVTG,77.5,T,74.6,M,5.7,N,10.5,K,A*15
$GPRMC,155005.0,A,3205.497878,N,03458.558161,E,5.7,77.5,120416,3.0,E,A*38
$GPGSA,A,2,02,06,12,19,24,25,29,32,,,,,1.4,1.1,0.8*3A
$GNGSA,A,2,02,06,12,19,24,25,29,32,,,,,1.4,1.1,0.8*24
$GNGSA,A,2,,,,,,,,,,,,,1.4,1.1,0.8*20
$GPGSV,3,1,10,02,58,082,23,06,22,043,20,12,61,019,26,14,11,291,10*7B
$GPGSV,3,2,10,19,07,050,19,24,53,180,20,25,42,320,26,29,34,254,19*73
$GPGSV,3,3,10,32,08,289,18,05,05,135,*7C
$GLGSV,2,1,07,74,30,137,18,86,56,247,17,75,81,061,17,87,05,223,13*66
$GLGSV,2,2,07,85,55,014,27,76,31,330,,84,07,033,*57
$GPGGA,155006.0,3205.497225,N,03458.560954,E,1,08,1.1,114.3,M,19.0,M,,*56
$GPVTG,85.2,T,82.2,M,6.4,N,11.9,K,A*1F
$GPRMC,155006.0,A,3205.497225,N,03458.560954,E,6.4,85.2,120416,3.0,E,A*36
$GPGSA,A,2,02,06,12,19,24,25,29,32,,,,,1.4,1.1,0.8*3A
$GNGSA,A,2,02,06,12,19,24,25,29,32,,,,,1.4,1.1,0.8*24
$GNGSA,A,2,,,,,,,,,,,,,1.4,1.1,0.8*20
$GPGSV,3,1,10,02,58,082,25,06,22,043,26,12,61,019,28,14,11,291,10*75
$GPGSV,3,2,10,19,07,050,19,24,53,180,14,25,42,320,28,29,34,254,21*71
$GPGSV,3,3,10,32,08,289,18,05,05,135,*7C
$GLGSV,2,1,07,74,30,137,25,86,56,247,17,75,81,061,20,87,05,223,14*6B
$GLGSV,2,2,07,85,55,014,28,76,31,330,,84,07,033,*58
$GPGGA,155007.0,3205.496569,N,03458.563102,E,1,08,1.1,113.9,M,19.0,M,,*5C
$GPVTG,83.9,T,80.9,M,5.7,N,10.5,K,A*16
$GPRMC,155007.0,A,3205.496569,N,03458.563102,E,5.7,83.9,120416,3.0,E,A*3C
$GPGSA,A,2,02,06,12,19,24,25,29,32,,,,,1.4,1.1,0.8*3A
$GNGSA,A,2,02,06,12,19,24,25,29,32,,,,,1.4,1.1,0.8*24
$GNGSA,A,2,,,,,,,,,,,,,1.4,1.1,0.8*20
$GPGSV,3,1,10,02,58,082,24,05,05,135,23,06,22,043,22,12,61,019,25*75
$GPGSV,3,2,10,14,11,291,10,19,07,050,19,24,53,180,14,25,42,320,25*7E
$GPGSV,3,3,10,29,34,254,21,32,08,289,18*77
$GLGSV,2,1,07,74,30,137,23,86,56,247,19,75,81,061,20,87,05,223,14*63
$GLGSV,2,2,07,85,55,014,25,76,31,330,,84,07,033,*55
$GPGGA,155008.0,3205.497184,N,03458.564229,E,1,08,1.1,112.5,M,19.0,M,,*55
$GPVTG,82.2,T,79.2,M,5.3,N,9.8,K,A*20
$GPRMC,155008.0,A,3205.497184,N,03458.564229,E,5.3,82.2,120416,3.0,E,A*36
$GPGSA,A,2,02,06,12,19,24,25,29,32,,,,,1.4,1.1,0.8*3A
$GNGSA,A,2,02,06,12,19,24,25,29,32,,,,,1.4,1.1,0.8*24
$GNGSA,A,2,,,,,,,,,,,,,1.4,1.1,0.8*20
$GPGSV,3,1,10,02,58,082,23,05,05,135,19,06,22,043,26,12,61,019,30*7B
$GPGSV,3,2,10,14,11,291,17,19,07,050,19,24,53,180,16,25,42,320,30*7F
$GPGSV,3,3,10,29,34,254,22,32,08,289,18*74
$GLGSV,2,1,07,74,30,137,23,86,56,247,23,75,81,061,18,87,05,223,18*6D
$GLGSV,2,2,07,85,55,014,29,76,31,330,,84,07,033,*59
$GPGGA,155009.0,3205.498180,N,03458.565818,E,1,08,1.1,113.0,M,19.0,M,,*52
$GPVTG,71.0,T,68.1,M,4.5,N,8.3,K,A*20
$GPRMC,155009.0,A,3205.498180,N,03458.565818,E,4.5,71.0,120416,3.0,E,A*3C
$GPGSA,A,2,02,06,12,19,24,25,29,32,,,,,1.4,1.1,0.8*3A
$GNGSA,A,2,02,06,12,19,24,25,29,32,,,,,1.4,1.1,0.8*24
$GNGSA,A,2,,,,,,,,,,,,,1.4,1.1,0.8*20
$GPGSV,3,1,10,02,58,082,23,05,05,135,17,06,22,043,22,12,61,019,27*77
$GPGSV,3,2,10,14,11,291,24,19,07,050,19,24,53,180,18,25,42,320,24*74
$GPGSV,3,3,10,29,34,254,20,32,08,289,15*7B
$GLGSV,2,1,07,74,30,137,21,86,56,247,20,75,81,061,19,87,05,223,18*6D
$GLGSV,2,2,07,85,55,014,27,76,31,330,,84,07,033,*57
$GPGGA,155010.0,3205.499955,N,03458.567133,E,1,08,1.1,113.3,M,19.0,M,,*5A
$GPVTG,60.0,T,57.0,M,5.4,N,10.1,K,A*16
$GPRMC,155010.0,A,3205.499955,N,03458.567133,E,5.4,60.0,120416,3.0,E,A*37
$GPGSA,A,2,02,06,12,19,24,25,29,32,,,,,1.4,1.1,0.8*3A
$GNGSA,A,2,02,06,12,19,24,25,29,32,,,,,1.4,1.1,0.8*24
$GNGSA,A,2,,,,,,,,,,,,,1.4,1.1,0.8*20
$GPGSV,3,1,10,02,58,082,20,05,05,135,16,06,22,043,19,12,61,019,24*7E
$GPGSV,3,2,10,14,11,291,24,19,07,050,19,24,53,180,18,25,42,320,20*70
$GPGSV,3,3,10,29,34,254,20,32,08,289,15*7B
$GLGSV,2,1,07,74,30,137,18,86,56,247,20,75,81,061,19,87,05,223,19*66
$GLGSV,2,2,07,85,55,014,24,76,31,330,,84,07,033,*54
$GPGGA,155011.0,3205.501279,N,03458.569041,E,1,07,1.2,114.2,M,19.0,M,,*5E
$GPVTG,55.1,T,52.1,M,6.0,N,11.1,K,A*13
$GPRMC,155011.0,A,3205.501279,N,03458.569041,E,6.0,55.1,120416,3.0,E,A*39
$GPGSA,A,2,02,06,12,24,25,29,32,,,,,,1.5,1.2,0.9*31
$GNGSA,A,2,02,06,12,24,25,29,32,,,,,,1.5,1.2,0.9*2F
$GNGSA,A,2,,,,,,,,,,,,,1.5,1.2,0.9*23
$GPGSV,3,1,10,02,58,082,23,05,05,135,15,06,22,043,17,12,61,019,27*73
$GPGSV,3,2,10,14,11,291,16,19,07,050,19,24,53,180,17,25,42,320,29*77
$GPGSV,3,3,10,29,34,254,22,32,08,289,16*7A
$GLGSV,2,1,07,74,30,137,24,86,56,247,19,75,81,061,17,87,05,223,18*6C
$GLGSV,2,2,07,85,55,014,28,76,31,330,,84,07,033,*58
$GPGGA,155012.0,3205.502696,N,03458.570411,E,1,07,1.2,116.0,M,19.0,M,,*52
$GPVTG,51.9,T,48.9,M,5.5,N,10.2,K,A*18
$GPRMC,155012.0,A,3205.502696,N,03458.570411,E,5.5,51.9,120416,3.0,E,A*3F
$GPGSA,A,2,02,06,12,24,25,29,32,,,,,,1.5,1.2,0.9*31
$GNGSA,A,2,02,06,12,24,25,29,32,,,,,,1.5,1.2,0.9*2F
$GNGSA,A,2,,,,,,,,,,,,,1.5,1.2,0.9*23
$GPGSV,3,1,10,02,58,082,22,05,05,135,14,06,22,043,17,12,61,019,26*72
$GPGSV,3,2,10,14,11,291,20,19,07,050,19,24,53,180,17,25,42,320,29*72
$GPGSV,3,3,10,29,34,254,21,32,08,289,17*78
$GLGSV,2,1,07,74,30,137,24,86,56,247,20,75,81,061,16,87,05,223,18*67
$GLGSV,2,2,07,85,55,014,28,76,31,330,,84,07,033,*58
$GPGGA,155013.0,3205.503214,N,03458.571349,E,1,07,1.2,115.8,M,19.0,M,,*5C
$GPVTG,46.9,T,43.9,M,4.8,N,8.9,K,A*2B
$GPRMC,155013.0,A,3205.503214,N,03458.571349,E,4.8,46.9,120416,3.0,E,A*30
$GPGSA,A,2,02,06,12,24,25,29,32,,,,,,1.5,1.2,0.9*31
$GNGSA,A,2,02,06,12,24,25,29,32,,,,,,1.5,1.2,0.9*2F
$GNGSA,A,2,,,,,,,,,,,,,1.5,1.2,0.9*23
$GPGSV,3,1,10,02,58,082,24,05,05,135,14,06,22,043,17,12,61,019,27*75
$GPGSV,3,2,10,14,11,291,21,19,07,050,11,24,53,180,16,25,42,320,31*73
$GPGSV,3,3,10,29,34,254,21,32,08,289,22*7E
$GLGSV,2,1,07,74,30,137,19,86,56,247,18,75,81,061,18,87,05,223,17*63
$GLGSV,2,2,07,85,55,014,28,76,31,330,,84,07,033,*58
$GPGGA,155014.0,3205.504484,N,03458.573421,E,1,08,1.1,116.2,M,19.0,M,,*5D
$GPVTG,50.2,T,47.2,M,5.7,N,10.6,K,A*10
$GPRMC,155014.0,A,3205.504484,N,03458.573421,E,5.7,50.2,120416,3.0,E,A*36
$GPGSA,A,2,02,06,12,19,24,25,29,32,,,,,1.4,1.1,0.8*3A
$GNGSA,A,2,02,06,12,19,24,25,29,32,,,,,1.4,1.1,0.8*24
$GNGSA,A,2,,,,,,,,,,,,,1.4,1.1,0.8*20
$GPGSV,3,1,10,02,58,082,23,05,05,135,13,06,22,043,22,12,61,019,28*7C
$GPGSV,3,2,10,14,11,291,21,19,07,050,11,24,53,180,19,25,42,320,29*75
$GPGSV,3,3,10,29,34,254,21,32,08,289,22*7E
$GLGSV,2,1,07,74,30,137,20,86,56,247,20,75,81,061,18,87,05,223,17*62
$GLGSV,2,2,07,85,55,014,28,76,31,330,,84,07,033,*58
$GPGGA,155015.0,3205.504917,N,03458.575504,E,1,08,1.1,117.3,M,19.0,M,,*5B
$GPVTG,59.7,T,56.7,M,6.0,N,11.1,K,A*1B
$GPRMC,155015.0,A,3205.504917,N,03458.575504,E,6.0,59.7,120416,3.0,E,A*38
$GPGSA,A,2,02,06,12,19,24,25,29,32,,,,,1.4,1.1,0.8*3A
$GNGSA,A,2,02,06,12,19,24,25,29,32,,,,,1.4,1.1,0.8*24
$GNGSA,A,2,,,,,,,,,,,,,1.4,1.1,0.8*20
$GPGSV,3,1,10,02,58,082,23,05,05,135,13,06,22,043,23,12,61,019,29*7C
$GPGSV,3,2,10,14,11,291,21,19,07,050,11,24,53,180,18,25,42,320,29*74
$GPGSV,3,3,10,29,34,254,21,32,08,289,22*7E
$GLGSV,2,1,07,74,30,137,23,86,56,247,20,75,81,061,18,87,05,223,17*61
$GLGSV,2,2,07,85,55,014,26,76,31,330,,84,07,033,*56
$GPGGA,155016.0,3205.506976,N,03458.578460,E,1,08,1.1,117.0,M,19.0,M,,*50
$GPVTG,55.6,T,52.6,M,7.0,N,12.9,K,A*19
$GPRMC,155016.0,A,3205.506976,N,03458.578460,E,7.0,55.6,120416,3.0,E,A*3C
$GPGSA,A,2,02,06,12,19,24,25,29,32,,,,,1.4,1.1,0.8*3A
$GNGSA,A,2,02,06,12,19,24,25,29,32,,,,,1.4,1.1,0.8*24
$GNGSA,A,2,,,,,,,,,,,,,1.4,1.1,0.8*20
$GPGSV,3,1,10,02,58,082,25,05,05,135,13,06,22,043,23,12,61,019,29*7A
$GPGSV,3,2,10,14,11,291,21,19,07,050,11,24,53,180,19,25,42,320,30*7D
$GPGSV,3,3,10,29,34,254,22,32,08,289,22*7D
$GLGSV,2,1,07,74,30,137,25,86,56,247,21,75,81,061,17,87,05,223,17*69
$GLGSV,2,2,07,85,55,014,27,76,31,330,,84,07,033,*57
$GPGGA,155017.0,3205.507202,N,03458.580217,E,1,08,1.1,115.6,M,19.0,M,,*5D
$GPVTG,56.2,T,53.3,M,6.0,N,11.1,K,A*10
$GPRMC,155017.0,A,3205.507202,N,03458.580217,E,6.0,56.2,120416,3.0,E,A*33
$GPGSA,A,2,02,06,12,19,24,25,29,32,,,,,1.4,1.1,0.8*3A
$GNGSA,A,2,02,06,12,19,24,25,29,32,,,,,1.4,1.1,0.8*24
$GNGSA,A,2,,,,,,,,,,,,,1.4,1.1,0.8*20
$GPGSV,3,1,10,02,58,082,23,05,05,135,13,06,22,043,19,12,61,019,28*74
$GPGSV,3,2,10,14,11,291,21,19,07,050,14,24,53,180,17,25,42,320,26*71
$GPGSV,3,3,10,29,34,254,24,32,08,289,22*7B
$GLGSV,2,1,07,74,30,137,19,86,56,247,22,75,81,061,20,87,05,223,17*61
$GLGSV,2,2,07,85,55,014,26,76,31,330,,84,07,033,*56
$GPGGA,155018.0,3205.505619,N,03458.582166,E,1,08,1.1,113.5,M,19.0,M,,*5C
$GPVTG,67.2,T,64.3,M,5.5,N,10.3,K,A*13
$GPRMC,155018.0,A,3205.505619,N,03458.582166,E,5.5,67.2,120416,3.0,E,A*33
$GPGSA,A,2,02,06,12,19,24,25,29,32,,,,,1.4,1.1,0.8*3A
$GNGSA,A,2,02,06,12,19,24,25,29,32,,,,,1.4,1.1,0.8*24
$GNGSA,A,2,,,,,,,,,,,,,1.4,1.1,0.8*20
$GPGSV,3,1,10,02,58,082,24,05,05,135,14,06,22,043,20,12,61,019,28*7E
$GPGSV,3,2,10,14,11,291,21,19,07,050,18,24,53,180,17,25,42,320,23*78
$GPGSV,3,3,10,29,34,254,24,32,08,289,13*79
$GLGSV,2,1,07,74,30,137,20,86,56,247,19,75,81,061,18,87,05,223,18*67
$GLGSV,2,2,07,85,55,014,25,76,31,330,,84,07,033,*55
$GPGGA,155019.0,3205.505275,N,03458.584771,E,1,08,1.1,112.6,M,19.0,M,,*57
$GPVTG,74.0,T,71.0,M,5.7,N,10.6,K,A*13
$GPRMC,155019.0,A,3205.505275,N,03458.584771,E,5.7,74.0,120416,3.0,E,A*38
$GPGSA,A,2,02,06,12,19,24,25,29,32,,,,,1.4,1.1,0.8*3A
$GNGSA,A,2,02,06,12,19,24,25,29,32,,,,,1.4,1.1,0.8*24
$GNGSA,A,2,,,,,,,,,,,,,1.4,1.1,0.8*20
$GPGSV,3,1,10,02,58,082,24,05,05,135,22,06,22,043,27,12,61,019,30*75
$GPGSV,3,2,10,14,11,291,21,19,07,050,18,24,53,180,19,25,42,320,25*70
$GPGSV,3,3,10,29,34,254,21,32,08,289,13*7C
$GLGSV,2,1,07,74,30,137,22,86,56,247,20,75,81,061,19,87,05,223,17*61
$GLGSV,2,2,07,85,55,014,27,76,31,330,,84,07,033,*57
$GPGGA,155020.0,3205.503803,N,03458.585372,E,1,08,1.1,114.6,M,19.0,M,,*50
$GPVTG,84.6,T,81.7,M,4.6,N,8.6,K,A*2B
$GPRMC,155020.0,A,3205.503803,N,03458.585372,E,4.6,84.6,120416,3.0,E,A*30
$GPGSA,A,2,02,06,12,19,24,25,29,32,,,,,1.4,1.1,0.8*3A
$GNGSA,A,2,02,06,12,19,24,25,29,32,,,,,1.4,1.1,0.8*24
$GNGSA,A,2,,,,,,,,,,,,,1.4,1.1,0.8*20
$GPGSV,3,1,10,02,58,082,20,05,05,135,22,06,22,043,25,12,61,019,27*75
$GPGSV,3,2,10,14,11,291,21,19,07,050,18,24,53,180,18,25,42,320,24*70
$GPGSV,3,3,10,29,34,254,19,32,08,289,13*77
$GLGSV,2,1,07,74,30,137,21,86,56,247,21,75,81,061,18,87,05,223,22*64
$GLGSV,2,2,07,85,55,014,23,76,31,330,,84,07,033,*53
$GPGGA,155021.0,3205.503723,N,03458.586935,E,1,08,1.1,113.5,M,19.0,M,,*52
$GPVTG,72.1,T,69.1,M,4.7,N,8.8,K,A*2A
$GPRMC,155021.0,A,3205.503723,N,03458.586935,E,4.7,72.1,120416,3.0,E,A*39
$GPGSA,A,2,02,06,12,19,24,25,29,32,,,,,1.4,1.1,0.8*3A
$GNGSA,A,2,02,06,12,19,24,25,29,32,,,,,1.4,1.1,0.8*24
$GNGSA,A,2,,,,,,,,,,,,,1.4,1.1,0.8*20
$GPGSV,3,1,10,02,58,082,23,05,05,135,21,06,22,043,21,12,61,019,28*7E
$GPGSV,3,2,10,14,11,291,12,19,07,050,18,24,53,180,19,25,42,320,20*75
$GPGSV,3,3,10,29,34,254,21,32,08,289,13*7C
$GLGSV,2,1,07,74,30,137,23,86,56,247,21,75,81,061,19,87,05,223,16*60
$GLGSV,2,2,07,85,55,014,30,76,31,330,,84,07,033,*51
$GPGGA,155022.0,3205.504248,N,03458.588651,E,1,08,1.1,111.8,M,19.0,M,,*52
$GPVTG,71.9,T,69.0,M,4.8,N,8.9,K,A*2E
$GPRMC,155022.0,A,3205.504248,N,03458.588651,E,4.8,71.9,120416,3.0,E,A*32
$GPGSA,A,2,02,06,12,19,24,25,29,32,,,,,1.4,1.1,0.8*3A
$GNGSA,A,2,02,06,12,19,24,25,29,32,,,,,1.4,1.1,0.8*24
$GNGSA,A,2,,,,,,,,,,,,,1.4,1.1,0.8*20
$GPGSV,3,1,10,02,58,082,24,05,05,135,21,06,22,043,18,12,61,019,28*73
$GPGSV,3,2,10,14,11,291,12,19,07,050,14,24,53,180,19,25,42,320,25*7C
$GPGSV,3,3,10,29,34,254,22,32,08,289,13*7F
$GLGSV,2,1,07,74,30,137,22,86,56,247,19,75,81,061,16,87,05,223,16*65
$GLGSV,2,2,07,85,55,014,28,76,31,330,,84,07,033,*58
$GPGGA,155023.0,3205.505179,N,03458.589648,E,1,08,1.1,112.0,M,19.0,M,,*51
$GPVTG,68.4,T,65.4,M,4.7,N,8.6,K,A*23
$GPRMC,155023.0,A,3205.505179,N,03458.589648,E,4.7,68.4,120416,3.0,E,A*30
$GPGSA,A,2,02,06,12,19,24,25,29,32,,,,,1.4,1.1,0.8*3A
$GNGSA,A,2,02,06,12,19,24,25,29,32,,,,,1.4,1.1,0.8*24
$GNGSA,A,2,,,,,,,,,,,,,1.4,1.1,0.8*20
$GPGSV,3,1,10,02,58,082,24,05,05,135,20,06,22,043,18,12,61,019,28*72
$GPGSV,3,2,10,14,11,291,12,19,07,050,14,24,53,180,19,25,42,320,28*71
$GPGSV,3,3,10,29,34,254,22,32,08,289,13*7F
$GLGSV,2,1,07,74,30,137,23,86,56,247,20,75,81,061,19,87,05,223,16*61
$GLGSV,2,2,07,85,55,014,27,76,31,330,,84,07,033,*57
$GPGGA,155024.0,3205.506464,N,03458.591501,E,1,08,1.1,112.9,M,19.0,M,,*52
$GPVTG,67.3,T,64.4,M,5.0,N,9.2,K,A*29
$GPRMC,155024.0,A,3205.506464,N,03458.591501,E,5.0,67.3,120416,3.0,E,A*34
$GPGSA,A,2,02,06,12,19,24,25,29,32,,,,,1.4,1.1,0.8*3A
$GNGSA,A,2,02,06,12,19,24,25,29,32,,,,,1.4,1.1,0.8*24
$GNGSA,A,2,,,,,,,,,,,,,1.4,1.1,0.8*20
$GPGSV,3,1,10,02,58,082,25,05,05,135,20,06,22,043,18,12,61,019,30*7A
$GPGSV,3,2,10,14,11,291,12,19,07,050,17,24,53,180,19,25,42,320,29*73
$GPGSV,3,3,10,29,34,254,20,32,08,289,13*7D
$GLGSV,2,1,07,74,30,137,24,86,56,247,20,75,81,061,19,87,05,223,16*66
$GLGSV,2,2,07,85,55,014,29,76,31,330,,84,07,033,*59
$GPGGA,155025.0,3205.506872,N,03458.592296,E,1,08,1.1,112.6,M,19.0,M,,*5D
$GPVTG,63.5,T,60.5,M,4.1,N,7.6,K,A*24
$GPRMC,155025.0,A,3205.506872,N,03458.592296,E,4.1,63.5,120416,3.0,E,A*36
$GPGSA,A,2,02,06,12,19,24,25,29,32,,,,,1.4,1.1,0.8*3A
$GNGSA,A,2,02,06,12,19,24,25,29,32,,,,,1.4,1.1,0.8*24
$GNGSA,A,2,,,,,,,,,,,,,1.4,1.1,0.8*20
$GPGSV,3,1,10,02,58,082,22,05,05,135,18,06,22,043,18,12,61,019,25*72
$GPGSV,3,2,10,14,11,291,12,19,07,050,17,24,53,180,16,25,42,320,28*7D
$GPGSV,3,3,10,29,34,254,20,32,08,289,13*7D
$GLGSV,2,1,07,74,30,137,20,86,56,247,17,75,81,061,19,87,05,223,14*64
$GLGSV,2,2,07,85,55,014,26,76,31,330,,84,07,033,*56
$GPGGA,155026.0,3205.507352,N,03458.594478,E,1,07,1.3,113.2,M,19.0,M,,*5E
$GPVTG,64.2,T,61.2,M,4.4,N,8.2,K,A*2C
$GPRMC,155026.0,A,3205.507352,N,03458.594478,E,4.4,64.2,120416,3.0,E,A*38
$GPGSA,A,2,02,06,12,19,24,25,29,,,,,,1.5,1.3,0.9*39
$GNGSA,A,2,02,06,12,19,24,25,29,,,,,,1.5,1.3,0.9*27
$GNGSA,A,2,,,,,,,,,,,,,1.5,1.3,0.9*22
$GPGSV,3,1,10,02,58,082,25,05,05,135,18,06,22,043,14,12,61,019,28*74
$GPGSV,3,2,10,14,11,291,15,19,07,050,16,24,53,180,19,25,42,320,26*7A
$GPGSV,3,3,10,29,34,254,21,32,08,289,13*7C
$GLGSV,2,1,07,74,30,137,21,86,56,247,20,75,81,061,17,87,05,223,14*6F
$GLGSV,2,2,07,85,55,014,25,76,31,330,,84,07,033,*55
$GPGGA,155027.0,3205.509845,N,03458.596245,E,1,07,1.3,115.0,M,19.0,M,,*52
$GPVTG,55.1,T,52.1,M,5.2,N,9.7,K,A*2D
$GPRMC,155027.0,A,3205.509845,N,03458.596245,E,5.2,55.1,120416,3.0,E,A*36
$GPGSA,A,2,02,06,12,19,24,25,29,,,,,,1.5,1.3,0.9*39
$GNGSA,A,2,02,06,12,19,24,25,29,,,,,,1.5,1.3,0.9*27
$GNGSA,A,2,,,,,,,,,,,,,1.5,1.3,0.9*22
$GPGSV,3,1,10,02,58,082,24,05,05,135,18,06,22,043,19,12,61,019,24*74
$GPGSV,3,2,10,14,11,291,15,19,07,050,16,24,53,180,20,25,42,320,23*75
$GPGSV,3,3,10,29,34,254,22,32,08,289,12*7E
$GLGSV,2,1,07,74,30,137,22,86,56,247,21,75,81,061,19,87,05,223,14*63
$GLGSV,2,2,07,85,55,014,17,76,31,330,,84,07,033,*54
$GPGGA,155028.0,3205.507718,N,03458.598067,E,1,08,1.1,113.0,M,19.0,M,,*53
$GPVTG,80.2,T,77.2,M,4.5,N,8.4,K,A*26
$GPRMC,155028.0,A,3205.507718,N,03458.598067,E,4.5,80.2,120416,3.0,E,A*31
$GPGSA,A,2,02,06,12,19,24,25,29,32,,,,,1.4,1.1,0.8*3A
$GNGSA,A,2,02,06,12,19,24,25,29,32,,,,,1.4,1.1,0.8*24
$GNGSA,A,2,,,,,,,,,,,,,1.4,1.1,0.8*20
$GPGSV,3,1,10,02,58,082,20,05,05,135,16,06,22,043,19,12,61,019,21*7B
$GPGSV,3,2,10,14,11,291,15,19,07,050,16,24,53,180,20,25,42,320,19*7C
$GPGSV,3,3,10,29,34,254,21,32,08,289,12*7D
$GLGSV,2,1,07,74,30,137,21,86,56,247,21,75,81,061,19,87,05,223,14*60
$GLGSV,2,2,07,85,55,014,19,76,31,330,,84,07,033,*5A
$GPGGA,155029.0,3205.507271,N,03458.599466,E,1,08,1.1,112.5,M,19.0,M,,*58
$GPVTG,91.8,T,88.9,M,4.3,N,8.0,K,A*25
$GPRMC,155029.0,A,3205.507271,N,03458.599466,E,4.3,91.8,120416,3.0,E,A*32
$GPGSA,A,2,02,06,12,19,24,25,29,32,,,,,1.4,1.1,0.8*3A
$GNGSA,A,2,02,06,12,19,24,25,29,32,,,,,1.4,1.1,0.8*24
$GNGSA,A,2,,,,,,,,,,,,,1.4,1.1,0.8*20
$GPGSV,3,1,10,02,58,082,21,05,05,135,16,06,22,043,18,12,61,019,22*78
$GPGSV,3,2,10,14,11,291,17,19,07,050,17,24,53,180,16,25,42,320,21*71
$GPGSV,3,3,10,29,34,254,20,32,08,289,12*7C
$GLGSV,2,1,07,74,30,137,18,86,56,247,19,75,81,061,18,87,05,223,14*60
$GLGSV,2,2,07,85,55,014,21,76,31,330,,84,07,033,*51
$GPGGA,155030.0,3205.508053,N,03458.601268,E,1,08,1.1,112.9,M,19.0,M,,*5B
$GPVTG,79.1,T,76.2,M,4.8,N,9.0,K,A*2A
$GPRMC,155030.0,A,3205.508053,N,03458.601268,E,4.8,79.1,120416,3.0,E,A*39
$GPGSA,A,2,02,06,12,19,24,25,29,32,,,,,1.4,1.1,0.8*3A
$GNGSA,A,2,02,06,12,19,24,25,29,32,,,,,1.4,1.1,0.8*24
$GNGSA,A,2,,,,,,,,,,,,,1.4,1.1,0.8*20
$GPGSV,3,1,10,02,58,082,24,05,05,135,16,06,22,043,20,12,61,019,25*71
$GPGSV,3,2,10,14,11,291,17,19,07,050,17,24,53,180,16,25,42,320,25*75
$GPGSV,3,3,10,29,34,254,20,32,08,289,12*7C
$GLGSV,2,1,07,74,30,137,20,86,56,247,18,75,81,061,19,87,05,223,14*6B
$GLGSV,2,2,07,85,55,014,23,76,31,330,,84,07,033,*53
$GPGGA,155031.0,3205.508973,N,03458.603155,E,1,08,1.1,111.0,M,19.0,M,,*54
$GPVTG,73.6,T,70.6,M,5.5,N,10.3,K,A*12
$GPRMC,155031.0,A,3205.508973,N,03458.603155,E,5.5,73.6,120416,3.0,E,A*3D
$GPGSA,A,2,02,06,12,19,24,25,29,32,,,,,1.4,1.1,0.8*3A
$GNGSA,A,2,02,06,12,19,24,25,29,32,,,,,1.4,1.1,0.8*24
$GNGSA,A,2,,,,,,,,,,,,,1.4,1.1,0.8*20
$GPGSV,3,1,10,02,58,082,26,05,05,135,16,06,22,043,20,12,61,019,25*73
$GPGSV,3,2,10,14,11,291,17,19,07,050,17,24,53,180,17,25,42,320,25*74
$GPGSV,3,3,10,29,34,254,15,32,08,289,15*7D
$GLGSV,2,1,07,74,30,137,24,86,56,247,17,75,81,061,18,87,05,223,17*62
$GLGSV,2,2,07,85,55,014,18,76,31,330,,84,07,033,*5B
$GPGGA,155032.0,3205.509791,N,03458.604883,E,1,08,1.1,111.5,M,19.0,M,,*54
$GPVTG,72.3,T,69.3,M,5.1,N,9.5,K,A*21
$GPRMC,155032.0,A,3205.509791,N,03458.604883,E,5.1,72.3,120416,3.0,E,A*38
$GPGSA,A,2,02,06,12,19,24,25,29,32,,,,,1.4,1.1,0.8*3A
$GNGSA,A,2,02,06,12,19,24,25,29,32,,,,,1.4,1.1,0.8*24
$GNGSA,A,2,,,,,,,,,,,,,1.4,1.1,0.8*20
$GPGSV,3,1,10,02,58,082,24,05,05,135,17,06,22,043,16,12,61,019,25*75
$GPGSV,3,2,10,14,11,291,15,19,07,050,17,24,53,180,19,25,42,320,19*77
$GPGSV,3,3,10,29,34,254,15,32,08,289,15*7D
$GLGSV,2,1,07,74,30,137,22,86,56,247,21,75,81,061,18,87,05,223,17*61
$GLGSV,2,2,07,85,55,014,22,76,31,330,,84,07,033,*52
$GPGGA,155033.0,3205.510558,N,03458.606977,E,1,08,1.1,111.6,M,19.0,M,,*51
$GPVTG,70.7,T,67.7,M,5.6,N,10.5,K,A*12
$GPRMC,155033.0,A,3205.510558,N,03458.606977,E,5.6,70.7,120416,3.0,E,A*3F
$GPGSA,A,2,02,06,12,19,24,25,29,32,,,,,1.4,1.1,0.8*3A
$GNGSA,A,2,02,06,12,19,24,25,29,32,,,,,1.4,1.1,0.8*24
$GNGSA,A,2,,,,,,,,,,,,,1.4,1.1,0.8*20
$GPGSV,3,1,10,02,58,082,24,05,05,135,19,06,22,043,18,12,61,019,27*77
$GPGSV,3,2,10,14,11,291,15,19,07,050,14,24,53,180,19,25,42,320,24*7A
$GPGSV,3,3,10,29,34,254,19,32,08,289,15*71
$GLGSV,2,1,07,74,30,137,21,86,56,247,19,75,81,061,15,87,05,223,17*64
$GLGSV,2,2,07,85,55,014,27,76,31,330,,84,07,033,*57
$GPGGA,155034.0,3205.511074,N,03458.609685,E,1,08,1.1,109.8,M,19.0,M,,*56
$GPVTG,71.1,T,68.1,M,6.0,N,11.0,K,A*1D
$GPRMC,155034.0,A,3205.511074,N,03458.609685,E,6.0,71.1,120416,3.0,E,A*3D
$GPGSA,A,2,02,06,12,19,24,25,29,32,,,,,1.4,1.1,0.8*3A
$GNGSA,A,2,02,06,12,19,24,25,29,32,,,,,1.4,1.1,0.8*24
$GNGSA,A,2,,,,,,,,,,,,,1.4,1.1,0.8*20
$GPGSV,3,1,10,02,58,082,24,05,05,135,20,06,22,043,22,12,61,019,25*76
$GPGSV,3,2,10,14,11,291,15,19,07,050,14,24,53,180,16,25,42,320,28*79
$GPGSV,3,3,10,29,34,254,19,32,08,289,15*71
$GLGSV,2,1,07,74,30,137,24,86,56,247,17,75,81,061,20,87,05,223,15*6B
$GLGSV,2,2,07,85,55,014,20,76,31,330,,84,07,033,*50
$GPGGA,155035.0,3205.513246,N,03458.612240,E,1,08,1.1,108.5,M,19.0,M,,*5D
$GPVTG,65.7,T,62.7,M,6.4,N,11.9,K,A*1F
$GPRMC,155035.0,A,3205.513246,N,03458.612240,E,6.4,65.7,120416,3.0,E,A*3D
$GPGSA,A,2,02,06,12,19,24,25,29,32,,,,,1.4,1.1,0.8*3A
$GNGSA,A,2,02,06,12,19,24,25,29,32,,,,,1.4,1.1,0.8*24
$GNGSA,A,2,,,,,,,,,,,,,1.4,1.1,0.8*20
$GPGSV,3,1,10,02,58,082,20,05,05,135,18,06,22,043,23,12,61,019,22*7F
$GPGSV,3,2,10,14,11,291,15,19,07,050,15,24,53,180,16,25,42,320,26*76
$GPGSV,3,3,10,29,34,254,19,32,08,289,15*71
$GLGSV,2,1,07,74,30,137,21,86,56,247,19,75,81,061,19,87,05,223,15*6A
$GLGSV,2,2,07,85,55,014,18,76,31,330,,84,07,033,*5B
$GPGGA,155036.0,3205.513399,N,03458.612856,E,1,08,1.1,110.3,M,19.0,M,,*5F
$GPVTG,65.6,T,62.6,M,5.3,N,9.9,K,A*22
$GPRMC,155036.0,A,3205.513399,N,03458.612856,E,5.3,65.6,120416,3.0,E,A*35
$GPGSA,A,2,02,06,12,19,24,25,29,32,,,,,1.4,1.1,0.8*3A
$GNGSA,A,2,02,06,12,19,24,25,29,32,,,,,1.4,1.1,0.8*24
$GNGSA,A,2,,,,,,,,,,,,,1.4,1.1,0.8*20
$GPGSV,3,1,10,02,58,082,22,05,05,135,19,06,22,043,26,12,61,019,22*79
$GPGSV,3,2,10,14,11,291,16,19,07,050,21,24,53,180,16,25,42,320,23*77
$GPGSV,3,3,10,29,34,254,19,32,08,289,15*71
$GLGSV,2,1,07,74,30,137,22,86,56,247,18,75,81,061,17,87,05,223,16*65
$GLGSV,2,2,07,85,55,014,21,76,31,330,,84,07,033,*51
$GPGGA,155037.0,3205.513486,N,03458.613731,E,1,08,1.1,111.3,M,19.0,M,,*59
$GPVTG,66.5,T,63.5,M,5.3,N,9.9,K,A*20
$GPRMC,155037.0,A,3205.513486,N,03458.613731,E,5.3,66.5,120416,3.0,E,A*32
$GPGSA,A,2,02,06,12,19,24,25,29,32,,,,,1.4,1.1,0.8*3A
$GNGSA,A,2,02,06,12,19,24,25,29,32,,,,,1.4,1.1,0.8*24
$GNGSA,A,2,,,,,,,,,,,,,1.4,1.1,0.8*20
$GPGSV,3,1,10,02,58,082,21,05,05,135,19,06,22,043,24,12,61,019,19*70
$GPGSV,3,2,10,14,11,291,19,19,07,050,24,24,53,180,15,25,42,320,19*77
$GPGSV,3,3,10,29,34,254,21,32,08,289,15*7A
$GLGSV,2,1,07,74,30,137,20,86,56,247,21,75,81,061,17,87,05,223,20*68
$GLGSV,2,2,07,85,55,014,23,76,31,330,,84,07,033,*53
$GPGGA,155038.0,3205.514185,N,03458.614762,E,1,08,1.1,111.5,M,19.0,M,,*50
$GPVTG,74.0,T,71.0,M,4.6,N,8.5,K,A*29
$GPRMC,155038.0,A,3205.514185,N,03458.614762,E,4.6,74.0,120416,3.0,E,A*3F
$GPGSA,A,2,02,06,12,19,24,25,29,32,,,,,1.4,1.1,0.8*3A
$GNGSA,A,2,02,06,12,19,24,25,29,32,,,,,1.4,1.1,0.8*24
$GNGSA,A,2,,,,,,,,,,,,,1.4,1.1,0.8*20
$GPGSV,3,1,10,02,58,082,23,05,05,135,20,06,22,043,24,12,61,019,27*75
$GPGSV,3,2,10,14,11,291,19,19,07,050,24,24,53,180,15,25,42,320,19*77
$GPGSV,3,3,10,29,34,254,21,32,08,289,15*7A
$GLGSV,2,1,07,74,30,137,21,86,56,247,17,75,81,061,16,87,05,223,19*67
$GLGSV,2,2,07,85,55,014,25,76,31,330,,84,07,033,*55
$GPGGA,155039.0,3205.515827,N,03458.615942,E,1,07,1.3,112.2,M,19.0,M,,*55
$GPVTG,63.9,T,60.9,M,4.1,N,7.6,K,A*24
$GPRMC,155039.0,A,3205.515827,N,03458.615942,E,4.1,63.9,120416,3.0,E,A*3B
$GPGSA,A,2,02,06,12,19,24,25,29,,,,,,1.5,1.3,0.9*39
$GNGSA,A,2,02,06,12,19,24,25,29,,,,,,1.5,1.3,0.9*27
$GNGSA,A,2,,,,,,,,,,,,,1.5,1.3,0.9*22
$GPGSV,3,1,10,02,58,082,26,05,05,135,20,06,22,043,25,12,61,019,27*71
$GPGSV,3,2,10,14,11,291,19,19,07,050,26,24,53,180,15,25,42,320,25*7A
$GPGSV,3,3,10,29,34,254,21,32,08,289,15*7A
$GLGSV,2,1,07,74,30,137,24,86,56,247,17,75,81,061,21,87,05,223,16*69
$GLGSV,2,2,07,85,55,014,26,76,31,330,,84,07,033,*56
$GPGGA,155040.0,3205.515225,N,03458.618039,E,1,07,1.3,112.1,M,19.0,M,,*58
$GPVTG,71.1,T,68.1,M,4.3,N,8.0,K,A*24
$GPRMC,155040.0,A,3205.515225,N,03458.618039,E,4.3,71.1,120416,3.0,E,A*3C
$GPGSA,A,2,02,06,12,19,24,25,29,,,,,,1.5,1.3,0.9*39
$GNGSA,A,2,02,06,12,19,24,25,29,,,,,,1.5,1.3,0.9*27
$GNGSA,A,2,,,,,,,,,,,,,1.5,1.3,0.9*22
$GPGSV,3,1,10,02,58,082,19,05,05,135,20,06,22,043,22,12,61,019,25*78
$GPGSV,3,2,10,14,11,291,19,19,07,050,25,24,53,180,15,25,42,320,27*7B
$GPGSV,3,3,10,29,34,254,21,32,08,289,15*7A
$GLGSV,2,1,07,74,30,137,22,86,56,247,18,75,81,061,18,87,05,223,16*6A
$GLGSV,2,2,07,85,55,014,27,76,31,330,,84,07,033,*57
$GPGGA,155041.0,3205.515574,N,03458.620107,E,1,07,1.3,110.4,M,19.0,M,,*5A
$GPVTG,73.8,T,70.8,M,4.7,N,8.7,K,A*2C
$GPRMC,155041.0,A,3205.515574,N,03458.620107,E,4.7,73.8,120416,3.0,E,A*36
$GPGSA,A,2,02,06,12,19,24,25,29,,,,,,1.5,1.3,0.9*39
$GNGSA,A,2,02,06,12,19,24,25,29,,,,,,1.5,1.3,0.9*27
$GNGSA,A,2,,,,,,,,,,,,,1.5,1.3,0.9*22
$GPGSV,3,1,10,02,58,082,19,05,05,135,19,06,22,043,27,12,61,019,24*76
$GPGSV,3,2,10,14,11,291,19,19,07,050,28,24,53,180,16,25,42,320,27*75
$GPGSV,3,3,10,29,34,254,16,32,08,289,15*7E
$GLGSV,2,1,07,74,30,137,24,86,56,247,19,75,81,061,18,87,05,223,16*6D
$GLGSV,2,2,07,85,55,014,26,76,31,330,,84,07,033,*56
$GPGGA,155042.0,3205.516284,N,03458.621858,E,1,07,1.3,111.0,M,19.0,M,,*55
$GPVTG,72.9,T,69.9,M,4.9,N,9.1,K,A*2C
$GPRMC,155042.0,A,3205.516284,N,03458.621858,E,4.9,72.9,120416,3.0,E,A*32
$GPGSA,A,2,02,06,12,19,24,25,29,,,,,,1.5,1.3,0.9*39
$GNGSA,A,2,02,06,12,19,24,25,29,,,,,,1.5,1.3,0.9*27
$GNGSA,A,2,,,,,,,,,,,,,1.5,1.3,0.9*22
$GPGSV,3,1,10,02,58,082,22,05,05,135,19,06,22,043,24,12,61,019,28*71
$GPGSV,3,2,10,14,11,291,19,19,07,050,22,24,53,180,19,25,42,320,25*72
$GPGSV,3,3,10,29,34,254,20,32,08,289,15*7B
$GLGSV,2,1,07,74,30,137,23,86,56,247,19,75,81,061,15,87,05,223,15*64
$GLGSV,2,2,07,85,55,014,27,76,31,330,,84,07,033,*57
$GPGGA,155043.0,3205.514501,N,03458.624302,E,1,07,1.3,113.2,M,19.0,M,,*5D
$GPVTG,84.7,T,81.8,M,4.9,N,9.1,K,A*2C
$GPRMC,155043.0,A,3205.514501,N,03458.624302,E,4.9,84.7,120416,3.0,E,A*3D
$GPGSA,A,2,02,06,12,19,24,25,29,,,,,,1.5,1.3,0.9*39
$GNGSA,A,2,02,06,12,19,24,25,29,,,,,,1.5,1.3,0.9*27
$GNGSA,A,2,,,,,,,,,,,,,1.5,1.3,0.9*22
$GPGSV,3,1,10,02,58,082,24,05,05,135,24,06,22,043,27,12,61,019,29*7B
$GPGSV,3,2,10,14,11,291,19,19,07,050,26,24,53,180,18,25,42,320,30*73
$GPGSV,3,3,10,29,34,254,19,32,08,289,11*75
$GLGSV,2,1,07,74,30,137,25,86,56,247,16,75,81,061,15,87,05,223,17*6F
$GLGSV,2,2,07,85,55,014,28,76,31,330,,84,07,033,*58
$GPGGA,155044.0,3205.515321,N,03458.626383,E,1,08,1.1,112.3,M,19.0,M,,*59
$GPVTG,70.8,T,67.9,M,4.6,N,8.5,K,A*2B
$GPRMC,155044.0,A,3205.515321,N,03458.626383,E,4.6,70.8,120416,3.0,E,A*3F
$GPGSA,A,2,02,06,12,19,24,25,29,32,,,,,1.4,1.1,0.8*3A
$GNGSA,A,2,02,06,12,19,24,25,29,32,,,,,1.4,1.1,0.8*24
$GNGSA,A,2,,,,,,,,,,,,,1.4,1.1,0.8*20
$GPGSV,3,1,10,02,58,082,27,05,05,135,26,06,22,043,31,12,61,019,31*74
$GPGSV,3,2,10,14,11,291,19,19,07,050,32,24,53,180,22,25,42,320,31*7E
$GPGSV,3,3,10,29,34,254,23,32,08,289,11*7C
$GLGSV,2,1,07,74,30,137,26,86,56,247,21,75,81,061,18,87,05,223,20*61
$GLGSV,2,2,07,85,55,014,28,76,31,330,,84,07,033,*58
$GPGGA,155045.0,3205.518294,N,03458.628309,E,1,08,1.1,114.0,M,19.0,M,,*53
$GPVTG,63.1,T,60.1,M,5.6,N,10.5,K,A*17
$GPRMC,155045.0,A,3205.518294,N,03458.628309,E,5.6,63.1,120416,3.0,E,A*3A
$GPGSA,A,2,02,06,12,19,24,25,29,32,,,,,1.4,1.1,0.8*3A
$GNGSA,A,2,02,06,12,19,24,25,29,32,,,,,1.4,1.1,0.8*24
$GNGSA,A,2,,,,,,,,,,,,,1.4,1.1,0.8*20
$GPGSV,3,1,10,02,58,082,23,05,05,135,22,06,22,043,27,12,61,019,25*76
$GPGSV,3,2,10,14,11,291,19,19,07,050,25,24,53,180,18,25,42,320,27*76
$GPGSV,3,3,10,29,34,254,23,32,08,289,11*7C
$GLGSV,2,1,07,74,30,137,23,86,56,247,20,75,81,061,18,87,05,223,20*65
$GLGSV,2,2,07,85,55,014,28,76,31,330,,84,07,033,*58
$GPGGA,155046.0,3205.518245,N,03458.630708,E,1,08,1.1,114.8,M,19.0,M,,*58
$GPVTG,71.6,T,68.6,M,5.3,N,9.7,K,A*23
$GPRMC,155046.0,A,3205.518245,N,03458.630708,E,5.3,71.6,120416,3.0,E,A*38
$GPGSA,A,2,02,06,12,19,24,25,29,32,,,,,1.4,1.1,0.8*3A
$GNGSA,A,2,02,06,12,19,24,25,29,32,,,,,1.4,1.1,0.8*24
$GNGSA,A,2,,,,,,,,,,,,,1.4,1.1,0.8*20
$GPGSV,3,1,10,02,58,082,23,05,05,135,22,06,22,043,28,12,61,019,29*75
$GPGSV,3,2,10,14,11,291,19,19,07,050,24,24,53,180,18,25,42,320,31*70
$GPGSV,3,3,10,29,34,254,24,32,08,289,14*7E
$GLGSV,2,1,07,74,30,137,23,86,56,247,23,75,81,061,17,87,05,223,20*69
$GLGSV,2,2,07,85,55,014,28,76,31,330,,84,07,033,*58
$GPGGA,155047.0,3205.519737,N,03458.632569,E,1,08,1.1,115.8,M,19.0,M,,*5E
$GPVTG,56.4,T,53.5,M,4.8,N,9.0,K,A*22
$GPRMC,155047.0,A,3205.519737,N,03458.632569,E,4.8,56.4,120416,3.0,E,A*32
$GPGSA,A,2,02,06,12,19,24,25,29,32,,,,,1.4,1.1,0.8*3A
$GNGSA,A,2,02,06,12,19,24,25,29,32,,,,,1.4,1.1,0.8*24
$GNGSA,A,2,,,,,,,,,,,,,1.4,1.1,0.8*20
$GPGSV,3,1,10,02,58,082,26,05,05,135,18,06,22,043,29,12,61,019,30*70
$GPGSV,3,2,10,19,07,050,25,24,53,180,17,25,42,320,28,29,34,254,22*7E
$GPGSV,3,3,10,32,08,289,14,14,11,291,*78
$GLGSV,2,1,07,74,30,137,19,86,56,247,17,75,81,061,18,84,07,033,15*6C
$GLGSV,2,2,07,87,05,223,20,85,55,014,28,76,31,330,*58
$GPGGA,155048.0,3205.520359,N,03458.635049,E,1,08,1.1,118.1,M,19.0,M,,*53
$GPVTG,72.7,T,69.7,M,4.7,N,8.8,K,A*2A
$GPRMC,155048.0,A,3205.520359,N,03458.635049,E,4.7,72.7,120416,3.0,E,A*31
$GPGSA,A,2,02,06,12,19,24,25,29,32,,,,,1.4,1.1,0.8*3A
$GNGSA,A,2,02,06,12,19,24,25,29,32,,,,,1.4,1.1,0.8*24
$GNGSA,A,2,,,,,,,,,,,,,1.4,1.1,0.8*20
$GPGSV,3,1,10,02,58,082,22,05,05,135,18,06,22,043,29,12,61,019,29*7C
$GPGSV,3,2,10,19,07,050,23,24,53,180,19,25,42,320,29,29,34,254,22*77
$GPGSV,3,3,10,32,08,289,14,14,11,291,*78
$GLGSV,2,1,07,74,30,137,20,86,56,247,19,75,81,061,17,84,07,033,14*66
$GLGSV,2,2,07,87,05,223,12,85,55,014,29,76,31,330,*58
$GPGGA,155049.0,3205.522057,N,03458.636495,E,1,08,1.1,120.2,M,19.0,M,,*53
$GPVTG,63.7,T,60.8,M,4.9,N,9.1,K,A*2A
$GPRMC,155049.0,A,3205.522057,N,03458.636495,E,4.9,63.7,120416,3.0,E,A*37
$GPGSA,A,2,02,06,12,19,24,25,29,32,,,,,1.4,1.1,0.8*3A
$GNGSA,A,2,02,06,12,19,24,25,29,32,,,,,1.4,1.1,0.8*24
$GNGSA,A,2,,,,,,,,,,,,,1.4,1.1,0.8*20
$GPGSV,3,1,10,02,58,082,23,05,05,135,18,06,22,043,28,12,61,019,28*7D
$GPGSV,3,2,10,19,07,050,22,24,53,180,20,25,42,320,29,29,34,254,20*7E
$GPGSV,3,3,10,32,08,289,14,14,11,291,*78
$GLGSV,2,1,07,74,30,137,19,86,56,247,18,75,81,061,17,84,07,033,14*6D
$GLGSV,2,2,07,87,05,223,12,85,55,014,29,76,31,330,*58
$GPGGA,155050.0,3205.523530,N,03458.638147,E,1,08,1.1,120.0,M,19.0,M,,*58
$GPVTG,60.1,T,57.2,M,6.0,N,11.0,K,A*12
$GPRMC,155050.0,A,3205.523530,N,03458.638147,E,6.0,60.1,120416,3.0,E,A*30
$GPGSA,A,2,02,06,12,19,24,25,29,32,,,,,1.4,1.1,0.8*3A
$GNGSA,A,2,02,06,12,19,24,25,29,32,,,,,1.4,1.1,0.8*24
$GNGSA,A,2,,,,,,,,,,,,,1.4,1.1,0.8*20
$GPGSV,3,1,10,02,58,082,27,05,05,135,18,06,22,043,31,12,61,019,32*7A
$GPGSV,3,2,10,19,07,050,20,24,53,180,22,25,42,320,32,29,34,254,26*72
$GPGSV,3,3,10,32,08,289,14,14,11,291,*78
$GLGSV,2,1,07,74,30,137,23,86,56,247,22,75,81,061,21,84,07,033,14*68
$GLGSV,2,2,07,87,05,223,17,85,55,014,31,76,31,330,*54
$GPGGA,155051.0,3205.525419,N,03458.641089,E,1,08,1.1,120.4,M,19.0,M,,*5C
$GPVTG,65.1,T,62.1,M,6.8,N,12.5,K,A*1C
$GPRMC,155051.0,A,3205.525419,N,03458.641089,E,6.8,65.1,120416,3.0,E,A*3D
$GPGSA,A,2,02,06,12,19,24,25,29,32,,,,,1.4,1.1,0.8*3A
$GNGSA,A,2,02,06,12,19,24,25,29,32,,,,,1.4,1.1,0.8*24
$GNGSA,A,2,,,,,,,,,,,,,1.4,1.1,0.8*20
$GPGSV,3,1,10,02,58,082,26,05,05,135,18,06,22,043,29,12,61,019,29*78
$GPGSV,3,2,10,19,07,050,20,24,53,180,21,25,42,320,28,29,34,254,25*79
$GPGSV,3,3,10,32,08,289,14,14,11,291,*78
$GLGSV,2,1,07,74,30,137,24,86,56,247,18,75,81,061,18,84,07,033,13*6B
$GLGSV,2,2,07,87,05,223,18,85,55,014,27,76,31,330,*5C
$GPGGA,155052.0,3205.527087,N,03458.643338,E,1,08,1.1,120.4,M,19.0,M,,*55
$GPVTG,69.2,T,66.3,M,6.4,N,11.8,K,A*17
$GPRMC,155052.0,A,3205.527087,N,03458.643338,E,6.4,69.2,120416,3.0,E,A*37
$GPGSA,A,2,02,06,12,19,24,25,29,32,,,,,1.4,1.1,0.8*3A
$GNGSA,A,2,02,06,12,19,24,25,29,32,,,,,1.4,1.1,0.8*24
$GNGSA,A,2,,,,,,,,,,,,,1.4,1.1,0.8*20
$GPGSV,3,1,10,02,58,082,23,05,05,135,20,06,22,043,28,12,61,019,27*79
$GPGSV,3,2,10,19,07,050,21,24,53,180,21,25,42,320,29,29,34,254,22*7E
$GPGSV,3,3,10,32,08,289,16,14,11,291,*7A
$GLGSV,2,1,07,74,30,137,20,86,56,247,18,75,81,061,18,84,07,033,13*6F
$GLGSV,2,2,07,87,05,223,17,85,55,014,28,76,31,330,*5C
$GPGGA,155053.0,3205.527959,N,03458.645998,E,1,08,1.1,121.2,M,19.0,M,,*5F
$GPVTG,70.9,T,67.9,M,6.7,N,12.4,K,A*13
$GPRMC,155053.0,A,3205.527959,N,03458.645998,E,6.7,70.9,120416,3.0,E,A*3A
$GPGSA,A,2,02,06,12,19,24,25,29,32,,,,,1.4,1.1,0.8*3A
$GNGSA,A,2,02,06,12,19,24,25,29,32,,,,,1.4,1.1,0.8*24
$GNGSA,A,2,,,,,,,,,,,,,1.4,1.1,0.8*20
$GPGSV,3,1,10,02,58,082,24,05,05,135,20,06,22,043,25,12,61,019,29*7D
$GPGSV,3,2,10,14,11,291,17,19,07,050,20,24,53,180,17,25,42,320,25*70
$GPGSV,3,3,10,29,34,254,23,32,08,289,16*7B
$GLGSV,2,1,07,74,30,137,24,86,56,247,21,75,81,061,18,84,07,033,13*61
$GLGSV,2,2,07,87,05,223,19,85,55,014,28,76,31,330,*52
$GPGGA,155054.0,3205.528528,N,03458.647987,E,1,08,1.1,120.5,M,19.0,M,,*57
$GPVTG,78.0,T,75.1,M,5.7,N,10.5,K,A*19
$GPRMC,155054.0,A,3205.528528,N,03458.647987,E,5.7,78.0,120416,3.0,E,A*36
$GPGSA,A,2,02,06,12,19,24,25,29,32,,,,,1.4,1.1,0.8*3A
$GNGSA,A,2,02,06,12,19,24,25,29,32,,,,,1.4,1.1,0.8*24
$GNGSA,A,2,,,,,,,,,,,,,1.4,1.1,0.8*20
$GPGSV,3,1,10,02,58,082,23,05,05,135,22,06,22,043,25,12,61,019,31*71
$GPGSV,3,2,10,14,11,291,18,19,07,050,23,24,53,180,21,25,42,320,30*7D
$GPGSV,3,3,10,29,34,254,24,32,08,289,17*7D
$GLGSV,2,1,07,74,30,137,24,86,56,247,21,75,81,061,16,84,07,033,13*6F
$GLGSV,2,2,07,87,05,223,18,85,55,014,31,76,31,330,*5B
$GPGGA,155055.0,3205.529063,N,03458.650150,E,1,08,1.1,121.4,M,19.0,M,,*59
$GPVTG,70.8,T,67.9,M,5.1,N,9.4,K,A*2D
$GPRMC,155055.0,A,3205.529063,N,03458.650150,E,5.1,70.8,120416,3.0,E,A*3E
$GPGSA,A,2,02,06,12,19,24,25,29,32,,,,,1.4,1.1,0.8*3A
$GNGSA,A,2,02,06,12,19,24,25,29,32,,,,,1.4,1.1,0.8*24
$GNGSA,A,2,,,,,,,,,,,,,1.4,1.1,0.8*20
$GPGSV,3,1,10,02,58,082,20,05,05,135,24,06,22,043,27,12,61,019,25*73
$GPGSV,3,2,10,14,11,291,18,19,07,050,19,24,53,180,19,25,42,320,31*7E
$GPGSV,3,3,10,29,34,254,23,32,08,289,17*7A
$GLGSV,2,1,07,74,30,137,22,86,56,247,21,75,81,061,17,84,07,033,13*68
$GLGSV,2,2,07,87,05,223,17,85,55,014,25,76,31,330,*51
$GPGGA,155056.0,3205.529833,N,03458.652004,E,1,08,1.1,121.7,M,19.0,M,,*56
$GPVTG,68.0,T,65.0,M,5.4,N,10.1,K,A*1F
$GPRMC,155056.0,A,3205.529833,N,03458.652004,E,5.4,68.0,120416,3.0,E,A*36
$GPGSA,A,2,02,06,12,19,24,25,29,32,,,,,1.4,1.1,0.8*3A
$GNGSA,A,2,02,06,12,19,24,25,29,32,,,,,1.4,1.1,0.8*24
$GNGSA,A,2,,,,,,,,,,,,,1.4,1.1,0.8*20
$GPGSV,3,1,10,02,58,082,25,05,05,135,24,06,22,043,27,12,61,019,27*74
$GPGSV,3,2,10,14,11,291,18,19,07,050,19,24,53,180,17,25,42,320,28*78
$GPGSV,3,3,10,29,34,254,21,32,08,289,17*78
$GLGSV,2,1,07,74,30,137,23,86,56,247,17,75,81,061,16,84,07,033,13*6D
$GLGSV,2,2,07,87,05,223,17,85,55,014,27,76,31,330,*53
$GPGGA,155057.0,3205.530270,N,03458.653624,E,1,08,1.1,122.1,M,19.0,M,,*52
$GPVTG,64.5,T,61.5,M,4.8,N,8.9,K,A*2B
$GPRMC,155057.0,A,3205.530270,N,03458.653624,E,4.8,64.5,120416,3.0,E,A*33
$GPGSA,A,2,02,06,12,19,24,25,29,32,,,,,1.4,1.1,0.8*3A
$GNGSA,A,2,02,06,12,19,24,25,29,32,,,,,1.4,1.1,0.8*24
$GNGSA,A,2,,,,,,,,,,,,,1.4,1.1,0.8*20
$GPGSV,3,1,10,02,58,082,24,05,05,135,21,06,22,043,25,12,61,019,30*74
$GPGSV,3,2,10,14,11,291,17,19,07,050,20,24,53,180,18,25,42,320,30*7B
$GPGSV,3,3,10,29,34,254,21,32,08,289,14*7B
$GLGSV,2,1,07,74,30,137,25,86,56,247,20,75,81,061,17,84,07,033,13*6E
$GLGSV,2,2,07,87,05,223,18,85,55,014,28,76,31,330,*53
$GPGGA,155058.0,3205.531718,N,03458.655287,E,1,08,1.1,121.3,M,19.0,M,,*5D
$GPVTG,65.6,T,62.6,M,5.5,N,10.3,K,A*16
$GPRMC,155058.0,A,3205.531718,N,03458.655287,E,5.5,65.6,120416,3.0,E,A*33
$GPGSA,A,2,02,06,12,19,24,25,29,32,,,,,1.4,1.1,0.8*3A
$GNGSA,A,2,02,06,12,19,24,25,29,32,,,,,1.4,1.1,0.8*24
$GNGSA,A,2,,,,,,,,,,,,,1.4,1.1,0.8*20
$GPGSV,3,1,10,02,58,082,17,05,05,135,21,06,22,043,22,12,61,019,27*75
$GPGSV,3,2,10,14,11,291,17,19,07,050,20,24,53,180,17,25,42,320,29*7C
$GPGSV,3,3,10,29,34,254,21,32,08,289,14*7B
$GLGSV,2,1,07,74,30,137,21,86,56,247,20,75,81,061,17,84,07,033,13*6A
$GLGSV,2,2,07,87,05,223,20,85,55,014,25,76,31,330,*55
$GPGGA,155059.0,3205.533332,N,03458.657302,E,1,08,1.1,121.6,M,19.0,M,,*59
$GPVTG,62.6,T,59.6,M,6.1,N,11.2,K,A*1E
$GPRMC,155059.0,A,3205.533332,N,03458.657302,E,6.1,62.6,120416,3.0,E,A*32
$GPGSA,A,2,02,06,12,19,24,25,29,32,,,,,1.4,1.1,0.8*3A
$GNGSA,A,2,02,06,12,19,24,25,29,32,,,,,1.4,1.1,0.8*24
$GNGSA,A,2,,,,,,,,,,,,,1.4,1.1,0.8*20
$GPGSV,3,1,10,02,58,082,22,05,05,135,23,06,22,043,25,12,61,019,28*79
$GPGSV,3,2,10,14,11,291,17,19,07,050,19,24,53,180,17,25,42,320,29*76
$GPGSV,3,3,10,29,34,254,23,32,08,289,14*79
$GLGSV,2,1,07,74,30,137,25,86,56,247,20,75,81,061,17,84,07,033,13*6E
$GLGSV,2,2,07,87,05,223,19,85,55,014,26,76,31,330,*5C
$GPGGA,155100.0,3205.533469,N,03458.658631,E,1,08,1.1,121.7,M,19.0,M,,*56
$GPVTG,66.4,T,63.5,M,5.5,N,10.3,K,A*15
$GPRMC,155100.0,A,3205.533469,N,03458.658631,E,5.5,66.4,120416,3.0,E,A*3D
$GPGSA,A,2,02,06,12,19,24,25,29,32,,,,,1.4,1.1,0.8*3A
$GNGSA,A,2,02,06,12,19,24,25,29,32,,,,,1.4,1.1,0.8*24
$GNGSA,A,2,,,,,,,,,,,,,1.4,1.1,0.8*20
$GPGSV,3,1,10,02,58,082,28,05,05,135,23,06,22,043,29,12,61,019,29*7E
$GPGSV,3,2,10,14,11,291,17,19,07,050,18,24,53,180,16,25,42,320,30*7E
