$GPVTG,,T,,M,,N,,K,N*2C
$GPRMC,,V,,,,,,,,,,N*53
$GPGSA,A,1,,,,,,,,,,,,,,,*1E
$GNGSA,A,1,,,,,,,,,,,,,,,*00
$GPGSV,3,1,11,02,58,095,20,06,27,047,24,12,59,005,31,14,12,296,21*7C
$GPGSV,3,2,11,15,02,195,22,19,13,047,25,24,61,184,28,25,37,314,28*74
$GPGSV,3,3,11,29,29,248,24,32,08,296,21,05,01,139,*49
$GLGSV,2,1,07,74,37,132,23,86,51,234,28,75,76,019,24,84,14,030,25*62
$GLGSV,2,2,07,85,63,008,27,76,24,329,,87,,,*67
$GPGGA,160737.0,3206.036103,N,03512.184966,E,1,06,1.0,702.6,M,19.0,M,,*55
$GPVTG,,T,357.0,M,1.1,N,2.0,K,A*0E
$GPRMC,160737.0,A,3206.036103,N,03512.184966,E,1.1,,040416,3.0,E,A*2A
$GPGSA,A,2,02,06,12,19,24,25,,,,,,,1.3,1.0,0.9*37
$GNGSA,A,2,02,06,12,19,24,25,,,,,,,1.3,1.0,0.9*29
$GNGSA,A,2,74,75,84,85,86,,,,,,,,1.3,1.0,0.9*29
$GPGSV,3,1,11,02,58,095,20,06,27,047,26,12,59,005,33,14,12,296,21*7C
$GPGSV,3,2,11,15,02,195,20,19,13,047,25,24,61,184,24,25,37,314,28*7A
$GPGSV,3,3,11,29,29,248,25,32,08,296,21,05,01,139,*48
$GLGSV,2,1,07,74,37,132,22,86,51,234,25,75,76,019,18,84,14,030,22*66
$GLGSV,2,2,07,85,63,008,25,76,24,329,,87,,,*65
$GPGGA,160738.0,3206.035475,N,03512.182355,E,1,06,1.0,706.8,M,19.0,M,,*5B
$GPVTG,,T,357.0,M,1.4,N,2.5,K,A*0E
$GPRMC,160738.0,A,3206.035475,N,03512.182355,E,1.4,,040416,3.0,E,A*2B
$GPGSA,A,2,02,06,12,19,24,25,,,,,,,1.3,1.0,0.9*37
$GNGSA,A,2,02,06,12,19,24,25,,,,,,,1.3,1.0,0.9*29
$GNGSA,A,2,74,75,84,85,86,,,,,,,,1.3,1.0,0.9*29
$GPGSV,3,1,11,02,58,095,21,06,27,047,25,12,59,005,31,14,12,296,20*7D
$GPGSV,3,2,11,15,02,195,19,19,13,047,25,24,61,184,20,25,37,314,27*7B
$GPGSV,3,3,11,29,29,248,24,32,08,296,27,05,01,139,*4F
$GLGSV,2,1,07,74,37,132,22,86,51,234,24,75,76,019,23,84,14,030,23*6E
$GLGSV,2,2,07,85,63,008,21,76,24,329,,87,,,*61
$GPGGA,160739.0,3206.035867,N,03512.183887,E,1,06,1.0,709.4,M,19.0,M,,*53
$GPVTG,,T,357.0,M,1.5,N,2.8,K,A*02
$GPRMC,160739.0,A,3206.035867,N,03512.183887,E,1.5,,040416,3.0,E,A*21
$GPGSA,A,2,02,06,12,19,24,25,,,,,,,1.3,1.0,0.9*37
$GNGSA,A,2,02,06,12,19,24,25,,,,,,,1.3,1.0,0.9*29
$GNGSA,A,2,74,75,84,85,86,,,,,,,,1.3,1.0,0.9*29
$GPGSV,3,1,11,02,58,095,26,06,27,047,25,12,59,005,32,14,12,296,23*7A
$GPGSV,3,2,11,15,02,195,18,19,13,047,26,24,61,184,18,25,37,314,28*7D
$GPGSV,3,3,11,29,29,248,22,32,08,296,26,05,01,139,*48
$GLGSV,2,1,07,74,37,132,17,86,51,234,24,75,76,019,21,84,14,030,22*6B
$GLGSV,2,2,07,85,63,008,21,76,24,329,,87,,,*61
$GPGGA,160740.0,3206.035942,N,03512.184431,E,1,06,1.0,706.4,M,19.0,M,,*52
$GPVTG,,T,357.0,M,1.6,N,3.0,K,A*08
$GPRMC,160740.0,A,3206.035942,N,03512.184431,E,1.6,,040416,3.0,E,A*2C
$GPGSA,A,2,02,06,12,19,24,25,,,,,,,1.3,1.0,0.9*37
$GNGSA,A,2,02,06,12,19,24,25,,,,,,,1.3,1.0,0.9*29
$GNGSA,A,2,74,75,84,85,86,,,,,,,,1.3,1.0,0.9*29
$GPGSV,3,1,11,02,58,095,26,06,27,047,20,12,59,005,31,14,12,296,26*79
$GPGSV,3,2,11,15,02,195,17,19,13,047,27,24,61,184,20,25,37,314,28*78
$GPGSV,3,3,11,29,29,248,21,32,08,296,25,05,01,139,*48
$GLGSV,2,1,07,74,37,132,22,86,51,234,26,75,76,019,19,84,14,030,22*64
$GLGSV,2,2,07,85,63,008,23,76,24,329,,87,,,*63
$GPGGA,160741.0,3206.036799,N,03512.185196,E,1,06,1.0,707.9,M,19.0,M,,*5D
$GPVTG,30.1,T,27.1,M,2.1,N,3.8,K,A*2D
$GPRMC,160741.0,A,3206.036799,N,03512.185196,E,2.1,30.1,040416,3.0,E,A*37
$GPGSA,A,2,02,06,12,19,24,25,,,,,,,1.3,1.0,0.9*37
$GNGSA,A,2,02,06,12,19,24,25,,,,,,,1.3,1.0,0.9*29
$GNGSA,A,2,74,75,84,85,86,,,,,,,,1.3,1.0,0.9*29
$GPGSV,3,1,11,02,58,095,25,06,27,047,19,12,59,005,28,14,12,296,23*7D
$GPGSV,3,2,11,15,02,195,16,19,13,047,23,24,61,184,18,25,37,314,24*7A
$GPGSV,3,3,11,29,29,248,25,32,08,296,23,05,01,139,*4A
$GLGSV,2,1,07,74,37,132,19,86,51,234,26,75,76,019,19,84,14,030,15*68
$GLGSV,2,2,07,85,63,008,29,76,24,329,,87,,,*69
$GPGGA,160742.0,3206.037200,N,03512.185961,E,1,06,1.0,704.3,M,19.0,M,,*53
$GPVTG,48.0,T,45.0,M,2.2,N,4.1,K,A*2B
$GPRMC,160742.0,A,3206.037200,N,03512.185961,E,2.2,48.0,040416,3.0,E,A*3D
$GPGSA,A,2,02,06,12,19,24,25,,,,,,,1.3,1.0,0.9*37
$GNGSA,A,2,02,06,12,19,24,25,,,,,,,1.3,1.0,0.9*29
$GNGSA,A,2,74,75,84,85,86,,,,,,,,1.3,1.0,0.9*29
$GPGSV,3,1,11,02,58,095,25,06,27,047,21,12,59,005,29,14,12,296,23*77
$GPGSV,3,2,11,15,02,195,16,19,13,047,21,24,61,184,19,25,37,314,26*7B
$GPGSV,3,3,11,29,29,248,25,32,08,296,17,05,01,139,*4D
$GLGSV,2,1,07,74,37,132,18,86,51,234,23,75,76,019,20,84,14,030,20*60
$GLGSV,2,2,07,85,63,008,31,76,24,329,,87,,,*60
$GPGGA,160743.0,3206.038028,N,03512.186261,E,1,06,1.0,705.1,M,19.0,M,,*5E
$GPVTG,29.8,T,26.8,M,2.2,N,4.1,K,A*29
$GPRMC,160743.0,A,3206.038028,N,03512.186261,E,2.2,29.8,040416,3.0,E,A*3C
$GPGSA,A,2,02,06,12,19,24,25,,,,,,,1.3,1.0,0.9*37
$GNGSA,A,2,02,06,12,19,24,25,,,,,,,1.3,1.0,0.9*29
$GNGSA,A,2,74,75,84,85,86,,,,,,,,1.3,1.0,0.9*29
$GPGSV,3,1,11,02,58,095,26,06,27,047,23,12,59,005,30,14,12,296,23*7E
$GPGSV,3,2,11,15,02,195,16,19,13,047,22,24,61,184,17,25,37,314,25*75
$GPGSV,3,3,11,29,29,248,23,32,08,296,17,05,01,139,*4B
$GLGSV,2,1,07,74,37,132,20,86,51,234,24,75,76,019,23,84,14,030,23*6C
$GLGSV,2,2,07,85,63,008,26,76,24,329,,87,,,*66
$GPGGA,160744.0,3206.037933,N,03512.187483,E,1,06,1.0,707.2,M,19.0,M,,*5F
$GPVTG,31.9,T,29.0,M,2.0,N,3.7,K,A*25
$GPRMC,160744.0,A,3206.037933,N,03512.187483,E,2.0,31.9,040416,3.0,E,A*36
$GPGSA,A,2,02,06,12,19,24,25,,,,,,,1.3,1.0,0.9*37
$GNGSA,A,2,02,06,12,19,24,25,,,,,,,1.3,1.0,0.9*29
$GNGSA,A,2,74,75,84,85,86,,,,,,,,1.3,1.0,0.9*29
$GPGSV,3,1,11,02,58,095,23,06,27,047,24,12,59,005,28,14,12,296,23*75
$GPGSV,3,2,11,15,02,195,16,19,13,047,24,24,61,184,17,25,37,314,20*76
$GPGSV,3,3,11,29,29,248,24,32,08,296,17,05,01,139,*4C
$GLGSV,2,1,07,74,37,132,21,86,51,234,24,75,76,019,23,84,14,030,25*6B
$GLGSV,2,2,07,85,63,008,27,76,24,329,,87,,,*67
$GPGGA,160745.0,3206.039058,N,03512.187439,E,1,06,1.0,709.5,M,19.0,M,,*5C
$GPVTG,31.9,T,29.0,M,2.2,N,4.1,K,A*26
$GPRMC,160745.0,A,3206.039058,N,03512.187439,E,2.2,31.9,040416,3.0,E,A*3E
$GPGSA,A,2,02,06,12,19,24,25,,,,,,,1.3,1.0,0.9*37
$GNGSA,A,2,02,06,12,19,24,25,,,,,,,1.3,1.0,0.9*29
$GNGSA,A,2,74,75,84,85,86,,,,,,,,1.3,1.0,0.9*29
$GPGSV,3,1,11,02,58,095,23,06,27,047,19,12,59,005,23,14,12,296,23*70
$GPGSV,3,2,11,15,02,195,16,19,13,047,24,24,61,184,24,25,37,314,17*72
$GPGSV,3,3,11,29,29,248,22,32,08,296,17,05,01,139,*4A
$GLGSV,2,1,07,74,37,132,25,86,51,234,24,75,76,019,18,84,14,030,25*67
$GLGSV,2,2,07,85,63,008,23,76,24,329,,87,,,*63
$GPGGA,160746.0,3206.038919,N,03512.188711,E,1,06,1.0,708.6,M,19.0,M,,*56
$GPVTG,40.6,T,37.6,M,2.7,N,5.0,K,A*23
$GPRMC,160746.0,A,3206.038919,N,03512.188711,E,2.7,40.6,040416,3.0,E,A*3A
$GPGSA,A,2,02,06,12,19,24,25,,,,,,,1.3,1.0,0.9*37
$GNGSA,A,2,02,06,12,19,24,25,,,,,,,1.3,1.0,0.9*29
$GNGSA,A,2,74,75,84,85,86,,,,,,,,1.3,1.0,0.9*29
$GPGSV,3,1,11,02,58,095,26,06,27,047,24,12,59,005,24,14,12,296,23*7C
$GPGSV,3,2,11,15,02,195,17,19,13,047,19,24,61,184,26,25,37,314,17*7F
$GPGSV,3,3,11,29,29,248,25,32,08,296,17,05,01,139,*4D
$GLGSV,2,1,07,74,37,132,25,86,51,234,23,75,76,019,21,84,14,030,25*6A
$GLGSV,2,2,07,85,63,008,23,76,24,329,,87,,,*63
$GPGGA,160747.0,3206.038723,N,03512.188438,E,1,06,1.0,705.4,M,19.0,M,,*57
$GPVTG,29.8,T,26.8,M,3.4,N,6.3,K,A*2E
$GPRMC,160747.0,A,3206.038723,N,03512.188438,E,3.4,29.8,040416,3.0,E,A*37
$GPGSA,A,2,02,06,12,19,24,25,,,,,,,1.3,1.0,0.9*37
$GNGSA,A,2,02,06,12,19,24,25,,,,,,,1.3,1.0,0.9*29
$GNGSA,A,2,74,75,84,85,86,,,,,,,,1.3,1.0,0.9*29
$GPGSV,3,1,11,02,58,095,25,06,27,047,18,12,59,005,24,14,12,296,23*70
$GPGSV,3,2,11,15,02,195,18,19,13,047,19,24,61,184,26,25,37,314,16*71
$GPGSV,3,3,11,29,29,248,19,32,08,296,17,05,01,139,*42
$GLGSV,2,1,07,74,37,132,26,86,51,234,23,75,76,019,21,84,14,030,14*6B
$GLGSV,2,2,07,85,63,008,23,76,24,329,,87,,,*63
$GPGGA,160748.0,3206.039145,N,03512.188767,E,1,06,1.0,706.2,M,19.0,M,,*53
$GPVTG,32.1,T,29.2,M,2.9,N,5.4,K,A*20
$GPRMC,160748.0,A,3206.039145,N,03512.188767,E,2.9,32.1,040416,3.0,E,A*39
$GPGSA,A,2,02,06,12,19,24,25,,,,,,,1.3,1.0,0.9*37
$GNGSA,A,2,02,06,12,19,24,25,,,,,,,1.3,1.0,0.9*29
$GNGSA,A,2,74,75,84,85,86,,,,,,,,1.3,1.0,0.9*29
$GPGSV,3,1,11,02,58,095,27,06,27,047,24,12,59,005,25,14,12,296,23*7C
$GPGSV,3,2,11,15,02,195,24,19,13,047,25,24,61,184,27,25,37,314,17*71
$GPGSV,3,3,11,29,29,248,25,32,08,296,17,05,01,139,*4D
$GLGSV,2,1,07,74,37,132,27,86,51,234,24,75,76,019,22,84,14,030,14*6E
$GLGSV,2,2,07,85,63,008,23,76,24,329,,87,,,*63
$GPGGA,160749.0,3206.039945,N,03512.189329,E,1,06,1.0,706.8,M,19.0,M,,*5F
$GPVTG,34.1,T,31.2,M,3.8,N,7.0,K,A*29
$GPRMC,160749.0,A,3206.039945,N,03512.189329,E,3.8,34.1,040416,3.0,E,A*39
$GPGSA,A,2,02,06,12,19,24,25,,,,,,,1.3,1.0,0.9*37
$GNGSA,A,2,02,06,12,19,24,25,,,,,,,1.3,1.0,0.9*29
$GNGSA,A,2,74,75,84,85,86,,,,,,,,1.3,1.0,0.9*29
$GPGSV,3,1,11,02,58,095,25,06,27,047,24,12,59,005,25,14,12,296,23*7E
$GPGSV,3,2,11,15,02,195,26,19,13,047,22,24,61,184,24,25,37,314,17*77
$GPGSV,3,3,11,29,29,248,24,32,08,296,17,05,01,139,*4C
$GLGSV,2,1,07,74,37,132,26,86,51,234,23,75,76,019,21,84,14,030,16*69
$GLGSV,2,2,07,85,63,008,25,76,24,329,,87,,,*65
$GPGGA,160750.0,3206.040170,N,03512.188931,E,1,06,1.0,705.6,M,19.0,M,,*58
$GPVTG,50.6,T,47.6,M,3.5,N,6.5,K,A*20
$GPRMC,160750.0,A,3206.040170,N,03512.188931,E,3.5,50.6,040416,3.0,E,A*3B
$GPGSA,A,2,02,06,12,19,24,25,,,,,,,1.3,1.0,0.9*37
$GNGSA,A,2,02,06,12,19,24,25,,,,,,,1.3,1.0,0.9*29
$GNGSA,A,2,74,75,84,85,86,,,,,,,,1.3,1.0,0.9*29
$GPGSV,3,1,11,02,58,095,25,06,27,047,24,12,59,005,25,14,12,296,23*7E
$GPGSV,3,2,11,15,02,195,26,19,13,047,21,24,61,184,23,25,37,314,17*73
$GPGSV,3,3,11,29,29,248,23,32,08,296,17,05,01,139,*4B
$GLGSV,2,1,07,74,37,132,23,86,51,234,26,75,76,019,22,84,14,030,20*6F
$GLGSV,2,2,07,85,63,008,25,76,24,329,,87,,,*65
$GPGGA,160751.0,3206.041389,N,03512.189103,E,1,06,1.0,704.1,M,19.0,M,,*52
$GPVTG,30.8,T,27.8,M,2.8,N,5.2,K,A*28
$GPRMC,160751.0,A,3206.041389,N,03512.189103,E,2.8,30.8,040416,3.0,E,A*33
$GPGSA,A,2,02,06,12,19,24,25,,,,,,,1.3,1.0,0.9*37
$GNGSA,A,2,02,06,12,19,24,25,,,,,,,1.3,1.0,0.9*29
$GNGSA,A,2,74,75,84,85,86,,,,,,,,1.3,1.0,0.9*29
$GPGSV,3,1,11,02,58,095,26,06,27,047,24,12,59,005,24,14,12,296,23*7C
$GPGSV,3,2,11,15,02,195,23,19,13,047,18,24,61,184,22,25,37,314,17*7D
$GPGSV,3,3,11,29,29,248,23,32,08,296,17,05,01,139,*4B
$GLGSV,2,1,07,74,37,132,27,86,51,234,25,75,76,019,21,84,14,030,17*6F
$GLGSV,2,2,07,85,63,008,25,76,24,329,,87,,,*65
$GPGGA,160752.0,3206.042033,N,03512.189521,E,1,06,1.0,704.8,M,19.0,M,,*5D
$GPVTG,17.7,T,14.7,M,2.8,N,5.2,K,A*2D
$GPRMC,160752.0,A,3206.042033,N,03512.189521,E,2.8,17.7,040416,3.0,E,A*3F
$GPGSA,A,2,02,06,12,19,24,25,,,,,,,1.3,1.0,0.9*37
$GNGSA,A,2,02,06,12,19,24,25,,,,,,,1.3,1.0,0.9*29
$GNGSA,A,2,74,75,84,85,86,,,,,,,,1.3,1.0,0.9*29
$GPGSV,3,1,11,02,58,095,25,06,27,047,23,12,59,005,25,14,12,296,23*79
$GPGSV,3,2,11,15,02,195,21,19,13,047,19,24,61,184,25,25,37,314,15*7B
$GPGSV,3,3,11,29,29,248,18,32,08,296,17,05,01,139,*43
$GLGSV,2,1,07,74,37,132,26,86,51,234,23,75,76,019,23,84,14,030,21*6F
$GLGSV,2,2,07,85,63,008,26,76,24,329,,87,,,*66
$GPGGA,160753.0,3206.043297,N,03512.189844,E,1,06,1.0,704.2,M,19.0,M,,*55
$GPVTG,18.7,T,15.7,M,2.7,N,5.0,K,A*2E
$GPRMC,160753.0,A,3206.043297,N,03512.189844,E,2.7,18.7,040416,3.0,E,A*3D
$GPGSA,A,2,02,06,12,19,24,25,,,,,,,1.3,1.0,0.9*37
$GNGSA,A,2,02,06,12,19,24,25,,,,,,,1.3,1.0,0.9*29
$GNGSA,A,2,74,75,84,85,86,,,,,,,,1.3,1.0,0.9*29
$GPGSV,3,1,11,02,58,095,25,06,27,047,23,12,59,005,24,14,12,296,23*78
$GPGSV,3,2,11,15,02,195,22,19,13,047,19,24,61,184,25,25,37,314,15*78
$GPGSV,3,3,11,29,29,248,18,32,08,296,17,05,01,139,*43
$GLGSV,2,1,07,74,37,132,27,86,51,234,22,75,76,019,21,84,14,030,17*68
$GLGSV,2,2,07,85,63,008,24,76,24,329,,87,,,*64
$GPGGA,160754.0,3206.043530,N,03512.190702,E,1,06,1.0,703.8,M,19.0,M,,*50
$GPVTG,36.7,T,33.7,M,3.2,N,5.8,K,A*2A
$GPRMC,160754.0,A,3206.043530,N,03512.190702,E,3.2,36.7,040416,3.0,E,A*3D
$GPGSA,A,2,02,06,12,19,24,25,,,,,,,1.3,1.0,0.9*37
$GNGSA,A,2,02,06,12,19,24,25,,,,,,,1.3,1.0,0.9*29
$GNGSA,A,2,74,75,84,85,86,,,,,,,,1.3,1.0,0.9*29
$GPGSV,3,1,11,02,58,095,26,06,27,047,24,12,59,005,24,14,12,296,23*7C
$GPGSV,3,2,11,15,02,195,23,19,13,047,21,24,61,184,26,25,37,314,15*71
$GPGSV,3,3,11,29,29,248,15,32,08,296,17,05,01,139,*4E
$GLGSV,2,1,07,74,37,132,27,86,51,234,24,75,76,019,22,84,14,030,17*6D
$GLGSV,2,2,07,85,63,008,24,76,24,329,,87,,,*64
$GPGGA,160755.0,3206.044328,N,03512.191488,E,1,06,1.0,704.0,M,19.0,M,,*56
$GPVTG,39.0,T,36.0,M,3.3,N,6.0,K,A*2A
$GPRMC,160755.0,A,3206.044328,N,03512.191488,E,3.3,39.0,040416,3.0,E,A*3D
$GPGSA,A,2,02,06,12,19,24,25,,,,,,,1.3,1.0,0.9*37
$GNGSA,A,2,02,06,12,19,24,25,,,,,,,1.3,1.0,0.9*29
$GNGSA,A,2,74,75,84,85,86,,,,,,,,1.3,1.0,0.9*29
$GPGSV,3,1,11,02,58,095,27,06,27,047,23,12,59,005,22,14,12,296,23*7C
$GPGSV,3,2,11,15,02,195,24,19,13,047,22,24,61,184,26,25,37,314,15*75
$GPGSV,3,3,11,29,29,248,21,32,08,296,17,05,01,139,*49
$GLGSV,2,1,07,74,37,132,26,86,51,234,22,75,76,019,20,84,14,030,18*67
$GLGSV,2,2,07,85,63,008,24,76,24,329,,87,,,*64
$GPGGA,160756.0,3206.044742,N,03512.191171,E,1,06,1.0,703.6,M,19.0,M,,*5F
$GPVTG,43.3,T,40.3,M,2.1,N,3.9,K,A*29
$GPRMC,160756.0,A,3206.044742,N,03512.191171,E,2.1,43.3,040416,3.0,E,A*38
$GPGSA,A,2,02,06,12,19,24,25,,,,,,,1.3,1.0,0.9*37
$GNGSA,A,2,02,06,12,19,24,25,,,,,,,1.3,1.0,0.9*29
$GNGSA,A,2,74,75,84,85,86,,,,,,,,1.3,1.0,0.9*29
$GPGSV,3,1,11,02,58,095,24,06,27,047,20,12,59,005,22,14,12,296,23*7C
$GPGSV,3,2,11,15,02,195,22,19,13,047,20,24,61,184,24,25,37,314,15*73
$GPGSV,3,3,11,29,29,248,19,32,08,296,17,05,01,139,*42
$GLGSV,2,1,07,74,37,132,26,86,51,234,22,75,76,019,21,84,14,030,17*69
$GLGSV,2,2,07,85,63,008,23,76,24,329,,87,,,*63
$GPGGA,160757.0,3206.045474,N,03512.191503,E,1,06,1.0,703.3,M,19.0,M,,*5D
$GPVTG,41.3,T,38.3,M,3.4,N,6.2,K,A*2E
$GPRMC,160757.0,A,3206.045474,N,03512.191503,E,3.4,41.3,040416,3.0,E,A*39
$GPGSA,A,2,02,06,12,19,24,25,,,,,,,1.3,1.0,0.9*37
$GNGSA,A,2,02,06,12,19,24,25,,,,,,,1.3,1.0,0.9*29
$GNGSA,A,2,74,75,84,85,86,,,,,,,,1.3,1.0,0.9*29
$GPGSV,3,1,11,02,58,095,24,06,27,047,23,12,59,005,20,14,12,296,23*7D
$GPGSV,3,2,11,15,02,195,24,19,13,047,20,24,61,184,25,25,37,314,15*74
$GPGSV,3,3,11,29,29,248,18,32,08,296,17,05,01,139,*43
$GLGSV,2,1,07,74,37,132,26,86,51,234,23,75,76,019,20,84,14,030,17*69
$GLGSV,2,2,07,85,63,008,21,76,24,329,,87,,,*61
$GPGGA,160758.0,3206.046042,N,03512.192246,E,1,06,1.0,703.9,M,19.0,M,,*5F
$GPVTG,43.2,T,40.3,M,3.5,N,6.5,K,A*24
$GPRMC,160758.0,A,3206.046042,N,03512.192246,E,3.5,43.2,040416,3.0,E,A*33
$GPGSA,A,2,02,06,12,19,24,25,,,,,,,1.3,1.0,0.9*37
$GNGSA,A,2,02,06,12,19,24,25,,,,,,,1.3,1.0,0.9*29
$GNGSA,A,2,74,75,84,85,86,,,,,,,,1.3,1.0,0.9*29
$GPGSV,3,1,11,02,58,095,24,06,27,047,22,12,59,005,21,14,12,296,23*7D
$GPGSV,3,2,11,15,02,195,19,19,13,047,22,24,61,184,24,25,37,314,15*79
$GPGSV,3,3,11,29,29,248,17,32,08,296,17,05,01,139,*4C
$GLGSV,2,1,07,74,37,132,25,86,51,234,25,75,76,019,22,84,14,030,17*6E
$GLGSV,2,2,07,85,63,008,22,76,24,329,,87,,,*62
$GPGGA,160759.0,3206.046477,N,03512.193102,E,1,06,1.0,704.7,M,19.0,M,,*57
$GPVTG,41.1,T,38.2,M,2.8,N,5.1,K,A*20
$GPRMC,160759.0,A,3206.046477,N,03512.193102,E,2.8,41.1,040416,3.0,E,A*3F
$GPGSA,A,2,02,06,12,19,24,25,,,,,,,1.3,1.0,0.9*37
$GNGSA,A,2,02,06,12,19,24,25,,,,,,,1.3,1.0,0.9*29
$GNGSA,A,2,74,75,84,85,86,,,,,,,,1.3,1.0,0.9*29
$GPGSV,3,1,11,02,58,095,24,06,27,047,21,12,59,005,21,14,12,296,23*7E
$GPGSV,3,2,11,15,02,195,21,19,13,047,20,24,61,184,25,25,37,314,15*71
$GPGSV,3,3,11,29,29,248,19,32,08,296,17,05,01,139,*42
$GLGSV,2,1,07,74,37,132,25,86,51,234,23,75,76,019,20,84,14,030,18*65
$GLGSV,2,2,07,85,63,008,21,76,24,329,,87,,,*61
$GPGGA,160800.0,3206.047962,N,03512.193511,E,1,06,1.0,704.1,M,19.0,M,,*5C
$GPVTG,29.7,T,26.8,M,3.4,N,6.4,K,A*26
$GPRMC,160800.0,A,3206.047962,N,03512.193511,E,3.4,29.7,040416,3.0,E,A*37
$GPGSA,A,2,02,06,12,19,24,25,,,,,,,1.3,1.0,0.9*37
$GNGSA,A,2,02,06,12,19,24,25,,,,,,,1.3,1.0,0.9*29
$GNGSA,A,2,74,75,84,85,86,,,,,,,,1.3,1.0,0.9*29
$GPGSV,3,1,11,02,58,095,24,06,27,047,23,12,59,005,21,14,12,296,23*7C
$GPGSV,3,2,11,15,02,195,19,19,13,047,19,24,61,184,25,25,37,314,15*70
$GPGSV,3,3,11,29,29,248,21,32,08,296,17,05,01,139,*49
$GLGSV,2,1,07,74,37,132,26,86,51,234,22,75,76,019,22,84,14,030,18*65
$GLGSV,2,2,07,85,63,008,25,76,24,329,,87,,,*65
$GPGGA,160801.0,3206.049086,N,03512.193702,E,1,06,1.0,704.7,M,19.0,M,,*56
$GPVTG,27.5,T,24.5,M,2.8,N,5.1,K,A*2E
$GPRMC,160801.0,A,3206.049086,N,03512.193702,E,2.8,27.5,040416,3.0,E,A*3A
$GPGSA,A,2,02,06,12,19,24,25,,,,,,,1.3,1.0,0.9*37
$GNGSA,A,2,02,06,12,19,24,25,,,,,,,1.3,1.0,0.9*29
$GNGSA,A,2,74,75,84,85,86,,,,,,,,1.3,1.0,0.9*29
$GPGSV,3,1,11,02,58,095,26,06,27,047,23,12,59,005,22,14,12,296,23*7D
$GPGSV,3,2,11,15,02,195,22,19,13,047,20,24,61,184,25,25,37,314,15*72
$GPGSV,3,3,11,29,29,248,22,32,08,296,17,05,01,139,*4A
$GLGSV,2,1,07,74,37,132,24,86,51,234,26,75,76,019,21,84,14,030,15*6D
$GLGSV,2,2,07,85,63,008,22,76,24,329,,87,,,*62
$GPGGA,160802.0,3206.050316,N,03512.194789,E,1,05,1.3,706.7,M,19.0,M,,*51
$GPVTG,38.9,T,35.9,M,3.4,N,6.4,K,A*2B
$GPRMC,160802.0,A,3206.050316,N,03512.194789,E,3.4,38.9,040416,3.0,E,A*30
$GPGSA,A,2,02,06,12,19,24,,,,,,,,1.5,1.3,0.9*35
$GNGSA,A,2,02,06,12,19,24,,,,,,,,1.5,1.3,0.9*2B
$GNGSA,A,2,74,75,84,85,86,,,,,,,,1.5,1.3,0.9*2C
$GPGSV,3,1,11,02,58,095,24,06,27,047,22,12,59,005,21,14,12,296,23*7D
$GPGSV,3,2,11,15,02,195,22,19,13,047,20,24,61,184,24,25,37,314,15*73
$GPGSV,3,3,11,29,29,248,19,32,08,296,17,05,01,139,*42
$GLGSV,2,1,07,74,37,132,24,86,51,234,22,75,76,019,20,84,14,030,17*6A
$GLGSV,2,2,07,85,63,008,23,76,24,329,,87,,,*63
$GPGGA,160803.0,3206.051155,N,03512.195608,E,1,05,1.3,707.9,M,19.0,M,,*52
$GPVTG,30.2,T,27.3,M,3.8,N,7.1,K,A*29
$GPRMC,160803.0,A,3206.051155,N,03512.195608,E,3.8,30.2,040416,3.0,E,A*33
$GPGSA,A,2,02,06,12,19,24,,,,,,,,1.5,1.3,0.9*35
$GNGSA,A,2,02,06,12,19,24,,,,,,,,1.5,1.3,0.9*2B
$GNGSA,A,2,74,75,84,85,86,,,,,,,,1.5,1.3,0.9*2C
$GPGSV,3,1,11,02,58,095,21,06,27,047,21,12,59,005,24,14,12,296,11*7F
$GPGSV,3,2,11,15,02,195,22,19,13,047,19,24,61,184,23,25,37,314,15*7E
$GPGSV,3,3,11,29,29,248,19,32,08,296,17,05,01,139,*42
$GLGSV,2,1,07,74,37,132,22,86,51,234,22,75,76,019,20,84,14,030,16*6D
$GLGSV,2,2,07,85,63,008,23,76,24,329,,87,,,*63
$GPGGA,160804.0,3206.051821,N,03512.196492,E,1,05,1.3,707.9,M,19.0,M,,*5D
$GPVTG,35.6,T,32.7,M,3.8,N,7.1,K,A*28
$GPRMC,160804.0,A,3206.051821,N,03512.196492,E,3.8,35.6,040416,3.0,E,A*3D
$GPGSA,A,2,02,06,12,19,24,,,,,,,,1.5,1.3,0.9*35
$GNGSA,A,2,02,06,12,19,24,,,,,,,,1.5,1.3,0.9*2B
$GNGSA,A,2,74,75,84,85,86,,,,,,,,1.5,1.3,0.9*2C
$GPGSV,3,1,11,02,58,095,25,06,27,047,23,12,59,005,21,14,12,296,11*7C
$GPGSV,3,2,11,15,02,195,15,19,13,047,19,24,61,184,25,25,37,314,15*7C
$GPGSV,3,3,11,29,29,248,17,32,08,296,17,05,01,139,*4C
$GLGSV,2,1,07,74,37,132,23,86,51,234,21,75,76,019,18,84,14,030,16*64
$GLGSV,2,2,07,85,63,008,20,76,24,329,,87,,,*60
$GPGGA,160805.0,3206.052511,N,03512.196740,E,1,05,1.3,706.8,M,19.0,M,,*5D
$GPVTG,31.6,T,28.6,M,3.1,N,5.7,K,A*2B
$GPRMC,160805.0,A,3206.052511,N,03512.196740,E,3.1,31.6,040416,3.0,E,A*30
$GPGSA,A,2,02,06,12,19,24,,,,,,,,1.5,1.3,0.9*35
$GNGSA,A,2,02,06,12,19,24,,,,,,,,1.5,1.3,0.9*2B
$GNGSA,A,2,74,75,84,85,86,,,,,,,,1.5,1.3,0.9*2C
$GPGSV,3,1,11,02,58,095,25,06,27,047,20,12,59,005,21,14,12,296,11*7F
$GPGSV,3,2,11,15,02,195,15,19,13,047,18,24,61,184,24,25,37,314,15*7C
$GPGSV,3,3,11,29,29,248,19,32,08,296,17,05,01,139,*42
$GLGSV,2,1,07,74,37,132,25,86,51,234,22,75,76,019,19,84,14,030,15*63
$GLGSV,2,2,07,85,63,008,22,76,24,329,,87,,,*62
$GPGGA,160806.0,3206.053368,N,03512.197623,E,1,05,1.3,706.5,M,19.0,M,,*5F
$GPVTG,49.6,T,46.6,M,3.3,N,6.1,K,A*2B
$GPRMC,160806.0,A,3206.053368,N,03512.197623,E,3.3,49.6,040416,3.0,E,A*32
$GPGSA,A,2,02,06,12,19,24,,,,,,,,1.5,1.3,0.9*35
$GNGSA,A,2,02,06,12,19,24,,,,,,,,1.5,1.3,0.9*2B
$GNGSA,A,2,74,75,84,85,86,,,,,,,,1.5,1.3,0.9*2C
$GPGSV,3,1,11,02,58,095,24,06,27,047,21,12,59,005,23,14,12,296,11*7D
$GPGSV,3,2,11,15,02,195,15,19,13,047,20,24,61,184,24,25,37,314,11*73
$GPGSV,3,3,11,29,29,248,20,32,08,296,17,05,01,139,*48
$GLGSV,2,1,07,74,37,132,22,86,51,234,25,75,76,019,19,84,14,030,15*63
$GLGSV,2,2,07,85,63,008,23,76,24,329,,87,,,*63
$GPGGA,160807.0,3206.054232,N,03512.198538,E,1,06,1.0,706.1,M,19.0,M,,*55
$GPVTG,53.5,T,50.5,M,3.1,N,5.7,K,A*20
$GPRMC,160807.0,A,3206.054232,N,03512.198538,E,3.1,53.5,040416,3.0,E,A*36
$GPGSA,A,2,02,06,12,19,24,25,,,,,,,1.3,1.0,0.9*37
$GNGSA,A,2,02,06,12,19,24,25,,,,,,,1.3,1.0,0.9*29
$GNGSA,A,2,74,75,84,85,86,,,,,,,,1.3,1.0,0.9*29
$GPGSV,3,1,11,02,58,095,24,06,27,047,21,12,59,005,22,14,12,296,11*7C
$GPGSV,3,2,11,15,02,195,15,19,13,047,22,24,61,184,21,25,37,314,11*74
$GPGSV,3,3,11,29,29,248,18,05,01,139,,32,08,296,*45
$GLGSV,2,1,07,74,37,132,20,86,51,234,24,75,76,019,18,84,14,030,14*60
$GLGSV,2,2,07,85,63,008,22,76,24,329,,87,,,*62
$GPGGA,160808.0,3206.054923,N,03512.199357,E,1,06,1.0,706.3,M,19.0,M,,*5D
$GPVTG,52.8,T,49.8,M,2.9,N,5.4,K,A*23
$GPRMC,160808.0,A,3206.054923,N,03512.199357,E,2.9,52.8,040416,3.0,E,A*39
$GPGSA,A,2,02,06,12,19,24,25,,,,,,,1.3,1.0,0.9*37
$GNGSA,A,2,02,06,12,19,24,25,,,,,,,1.3,1.0,0.9*29
$GNGSA,A,2,74,75,84,85,86,,,,,,,,1.3,1.0,0.9*29
$GPGSV,3,1,11,02,58,095,24,06,27,047,19,12,59,005,24,14,12,296,11*71
$GPGSV,3,2,11,15,02,195,15,19,13,047,19,24,61,184,27,25,37,314,11*7A
$GPGSV,3,3,11,29,29,248,18,05,01,139,,32,08,296,*45
$GLGSV,2,1,07,74,37,132,26,86,51,234,21,75,76,019,21,84,14,030,17*6A
$GLGSV,2,2,07,85,63,008,22,76,24,329,,87,,,*62
$GPGGA,160809.0,3206.055816,N,03512.199535,E,1,06,1.0,703.3,M,19.0,M,,*5D
$GPVTG,38.6,T,35.6,M,2.3,N,4.2,K,A*29
$GPRMC,160809.0,A,3206.055816,N,03512.199535,E,2.3,38.6,040416,3.0,E,A*34
$GPGSA,A,2,02,06,12,19,24,25,,,,,,,1.3,1.0,0.9*37
$GNGSA,A,2,02,06,12,19,24,25,,,,,,,1.3,1.0,0.9*29
$GNGSA,A,2,74,75,84,85,86,,,,,,,,1.3,1.0,0.9*29
$GPGSV,3,1,11,02,58,095,24,06,27,047,22,12,59,005,22,14,12,296,11*7F
$GPGSV,3,2,11,15,02,195,14,19,13,047,23,24,61,184,25,25,37,314,11*70
$GPGSV,3,3,11,29,29,248,16,05,01,139,,32,08,296,*4B
$GLGSV,2,1,07,74,37,132,26,86,51,234,24,75,76,019,20,84,14,030,17*6E
$GLGSV,2,2,07,85,63,008,23,76,24,329,,87,,,*63
$GPGGA,160810.0,3206.055970,N,03512.199702,E,1,06,1.0,701.8,M,19.0,M,,*5B
$GPVTG,48.3,T,45.3,M,3.1,N,5.7,K,A*2E
$GPRMC,160810.0,A,3206.055970,N,03512.199702,E,3.1,48.3,040416,3.0,E,A*3A
$GPGSA,A,2,02,06,12,19,24,25,,,,,,,1.3,1.0,0.9*37
$GNGSA,A,2,02,06,12,19,24,25,,,,,,,1.3,1.0,0.9*29
$GNGSA,A,2,74,75,84,85,86,,,,,,,,1.3,1.0,0.9*29
$GPGSV,3,1,11,02,58,095,25,06,27,047,20,12,59,005,23,14,12,296,11*7D
$GPGSV,3,2,11,15,02,195,14,19,13,047,21,24,61,184,25,25,37,314,16*75
$GPGSV,3,3,11,29,29,248,16,05,01,139,,32,08,296,*4B
$GLGSV,2,1,07,74,37,132,25,86,51,234,22,75,76,019,20,84,14,030,17*6B
$GLGSV,2,2,07,85,63,008,23,76,24,329,,87,,,*63
$GPGGA,160811.0,3206.056759,N,03512.199440,E,1,06,1.0,702.4,M,19.0,M,,*56
$GPVTG,23.7,T,20.7,M,2.6,N,4.9,K,A*29
$GPRMC,160811.0,A,3206.056759,N,03512.199440,E,2.6,23.7,040416,3.0,E,A*37
$GPGSA,A,2,02,06,12,19,24,25,,,,,,,1.3,1.0,0.9*37
$GNGSA,A,2,02,06,12,19,24,25,,,,,,,1.3,1.0,0.9*29
$GNGSA,A,2,74,75,84,85,86,,,,,,,,1.3,1.0,0.9*29
$GPGSV,3,1,11,02,58,095,24,06,27,047,22,12,59,005,22,14,12,296,11*7F
$GPGSV,3,2,11,15,02,195,14,19,13,047,17,24,61,184,26,25,37,314,19*7C
$GPGSV,3,3,11,29,29,248,16,32,08,296,17,05,01,139,*4D
$GLGSV,2,1,07,74,37,132,26,86,51,234,22,75,76,019,21,84,14,030,16*68
$GLGSV,2,2,07,85,63,008,23,76,24,329,,87,,,*63
$GPGGA,160812.0,3206.057316,N,03512.200347,E,1,06,1.0,702.9,M,19.0,M,,*55
$GPVTG,27.8,T,24.8,M,3.3,N,6.1,K,A*27
$GPRMC,160812.0,A,3206.057316,N,03512.200347,E,3.3,27.8,040416,3.0,E,A*36
$GPGSA,A,2,02,06,12,19,24,25,,,,,,,1.3,1.0,0.9*37
$GNGSA,A,2,02,06,12,19,24,25,,,,,,,1.3,1.0,0.9*29
$GNGSA,A,2,74,75,84,85,86,,,,,,,,1.3,1.0,0.9*29
$GPGSV,3,1,11,02,58,095,24,06,27,047,18,12,59,005,24,14,12,296,14*75
$GPGSV,3,2,11,15,02,195,14,19,13,047,21,24,61,184,26,25,37,314,18*78
$GPGSV,3,3,11,29,29,248,16,32,08,296,27,05,01,139,*4E
$GLGSV,2,1,07,74,37,132,26,86,51,234,22,75,76,019,21,84,14,030,19*67
$GLGSV,2,2,07,85,63,008,24,76,24,329,,87,,,*64
$GPGGA,160813.0,3206.059128,N,03512.200761,E,1,06,1.0,703.2,M,19.0,M,,*5F
$GPVTG,29.9,T,26.9,M,3.9,N,7.2,K,A*23
$GPRMC,160813.0,A,3206.059128,N,03512.200761,E,3.9,29.9,040416,3.0,E,A*33
$GPGSA,A,2,02,06,12,19,24,25,,,,,,,1.3,1.0,0.9*37
$GNGSA,A,2,02,06,12,19,24,25,,,,,,,1.3,1.0,0.9*29
$GNGSA,A,2,74,75,84,85,86,,,,,,,,1.3,1.0,0.9*29
$GPGSV,3,1,11,02,58,095,24,06,27,047,21,12,59,005,21,14,12,296,19*77
$GPGSV,3,2,11,15,02,195,15,19,13,047,19,24,61,184,26,25,37,314,17*7D
$GPGSV,3,3,11,29,29,248,17,32,08,296,17,05,01,139,*4C
$GLGSV,2,1,07,74,37,132,26,86,51,234,23,75,76,019,19,84,14,030,17*63
$GLGSV,2,2,07,85,63,008,21,76,24,329,,87,,,*61
$GPGGA,160814.0,3206.059467,N,03512.200859,E,1,06,1.0,700.9,M,19.0,M,,*5A
$GPVTG,13.5,T,10.6,M,3.4,N,6.4,K,A*26
$GPRMC,160814.0,A,3206.059467,N,03512.200859,E,3.4,13.5,040416,3.0,E,A*36
$GPGSA,A,2,02,06,12,19,24,25,,,,,,,1.3,1.0,0.9*37
$GNGSA,A,2,02,06,12,19,24,25,,,,,,,1.3,1.0,0.9*29
$GNGSA,A,2,74,75,84,85,86,,,,,,,,1.3,1.0,0.9*29
$GPGSV,3,1,11,02,58,095,24,06,27,047,21,12,59,005,23,14,12,296,17*7B
$GPGSV,3,2,11,15,02,195,15,19,13,047,21,24,61,184,24,25,37,314,18*7B
$GPGSV,3,3,11,29,29,248,17,32,08,296,17,05,01,139,*4C
$GLGSV,2,1,07,74,37,132,24,86,51,234,23,75,76,019,21,84,14,030,17*6A
$GLGSV,2,2,07,85,63,008,23,76,24,329,,87,,,*63
$GPGGA,160815.0,3206.060343,N,03512.200445,E,1,06,1.0,700.4,M,19.0,M,,*5C
$GPVTG,9.0,T,6.1,M,2.7,N,5.0,K,A*2D
$GPRMC,160815.0,A,3206.060343,N,03512.200445,E,2.7,9.0,040416,3.0,E,A*01
$GPGSA,A,2,02,06,12,19,24,25,,,,,,,1.3,1.0,0.9*37
$GNGSA,A,2,02,06,12,19,24,25,,,,,,,1.3,1.0,0.9*29
$GNGSA,A,2,74,75,84,85,86,,,,,,,,1.3,1.0,0.9*29
$GPGSV,3,1,11,02,58,095,25,06,27,047,20,12,59,005,20,14,12,296,17*78
$GPGSV,3,2,11,15,02,195,17,19,13,047,23,24,61,184,25,25,37,314,19*7B
$GPGSV,3,3,11,29,29,248,17,32,08,296,17,05,01,139,*4C
$GLGSV,2,1,07,74,37,132,24,86,51,234,22,75,76,019,18,84,14,030,17*61
$GLGSV,2,2,07,85,63,008,24,76,24,329,,87,,,*64
$GPGGA,160816.0,3206.059990,N,03512.199872,E,1,06,1.0,700.3,M,19.0,M,,*5D
$GPVTG,30.9,T,27.9,M,1.9,N,3.5,K,A*2B
$GPRMC,160816.0,A,3206.059990,N,03512.199872,E,1.9,30.9,040416,3.0,E,A*39
$GPGSA,A,2,02,06,12,19,24,25,,,,,,,1.3,1.0,0.8*36
$GNGSA,A,2,02,06,12,19,24,25,,,,,,,1.3,1.0,0.8*28
$GNGSA,A,2,74,75,84,85,86,,,,,,,,1.3,1.0,0.8*28
$GPGSV,3,1,11,02,58,095,24,06,27,047,22,12,59,005,22,14,12,296,17*79
$GPGSV,3,2,11,15,02,195,19,19,13,047,21,24,61,184,25,25,37,314,20*7D
$GPGSV,3,3,11,29,29,248,15,32,08,296,17,05,01,139,*4E
$GLGSV,2,1,07,74,37,132,26,86,51,234,23,75,76,019,20,84,14,030,17*69
$GLGSV,2,2,07,85,63,008,22,76,24,329,,87,,,*62
$GPGGA,160817.0,3206.060351,N,03512.199307,E,1,06,1.0,700.2,M,19.0,M,,*59
$GPVTG,10.5,T,7.5,M,1.9,N,3.6,K,A*18
$GPRMC,160817.0,A,3206.060351,N,03512.199307,E,1.9,10.5,040416,3.0,E,A*32
$GPGSA,A,2,02,06,12,19,24,25,,,,,,,1.3,1.0,0.8*36
$GNGSA,A,2,02,06,12,19,24,25,,,,,,,1.3,1.0,0.8*28
$GNGSA,A,2,74,75,84,85,86,,,,,,,,1.3,1.0,0.8*28
$GPGSV,3,1,11,02,58,095,26,06,27,047,21,12,59,005,23,14,12,296,15*7B
$GPGSV,3,2,11,15,02,195,19,19,13,047,23,24,61,184,27,25,37,314,21*7C
$GPGSV,3,3,11,29,29,248,19,32,08,296,20,05,01,139,*46
$GLGSV,2,1,07,74,37,132,29,86,51,234,22,75,76,019,20,84,14,030,18*68
$GLGSV,2,2,07,85,63,008,23,76,24,329,,87,,,*63
$GPGGA,160818.0,3206.061236,N,03512.200170,E,1,06,1.0,700.4,M,19.0,M,,*50
$GPVTG,31.3,T,28.3,M,2.6,N,4.9,K,A*22
$GPRMC,160818.0,A,3206.061236,N,03512.200170,E,2.6,31.3,040416,3.0,E,A*34
$GPGSA,A,2,02,06,12,19,24,25,,,,,,,1.3,1.0,0.8*36
$GNGSA,A,2,02,06,12,19,24,25,,,,,,,1.3,1.0,0.8*28
$GNGSA,A,2,74,75,84,85,86,,,,,,,,1.3,1.0,0.8*28
$GPGSV,3,1,11,02,58,095,26,06,27,047,22,12,59,005,22,14,12,296,19*75
$GPGSV,3,2,11,15,02,195,16,19,13,047,22,24,61,184,26,25,37,314,21*73
$GPGSV,3,3,11,29,29,248,20,32,08,296,20,05,01,139,*4C
$GLGSV,2,1,07,74,37,132,26,86,51,234,21,75,76,019,22,84,14,030,19*67
$GLGSV,2,2,07,85,63,008,23,76,24,329,,87,,,*63
$GPGGA,160819.0,3206.061624,N,03512.200719,E,1,06,1.0,700.1,M,19.0,M,,*5A
$GPVTG,34.2,T,31.2,M,2.6,N,4.9,K,A*2F
$GPRMC,160819.0,A,3206.061624,N,03512.200719,E,2.6,34.2,040416,3.0,E,A*3F
$GPGSA,A,2,02,06,12,19,24,25,,,,,,,1.3,1.0,0.8*36
$GNGSA,A,2,02,06,12,19,24,25,,,,,,,1.3,1.0,0.8*28
$GNGSA,A,2,74,75,84,85,86,,,,,,,,1.3,1.0,0.8*28
$GPGSV,3,1,11,02,58,095,25,06,27,047,22,12,59,005,23,14,12,296,19*77
$GPGSV,3,2,11,15,02,195,18,19,13,047,22,24,61,184,25,25,37,314,21*7E
$GPGSV,3,3,11,29,29,248,26,32,08,296,20,05,01,139,*4A
$GLGSV,2,1,07,74,37,132,27,86,51,234,26,75,76,019,21,84,14,030,16*6D
$GLGSV,2,2,07,85,63,008,24,76,24,329,,87,,,*64
$GPGGA,160820.0,3206.062455,N,03512.201839,E,1,06,1.0,699.4,M,19.0,M,,*5F
$GPVTG,39.1,T,36.1,M,2.9,N,5.4,K,A*26
$GPRMC,160820.0,A,3206.062455,N,03512.201839,E,2.9,39.1,040416,3.0,E,A*3F
$GPGSA,A,2,02,06,12,19,24,25,,,,,,,1.3,1.0,0.8*36
$GNGSA,A,2,02,06,12,19,24,25,,,,,,,1.3,1.0,0.8*28
$GNGSA,A,2,74,75,84,85,86,,,,,,,,1.3,1.0,0.8*28
$GPGSV,3,1,11,02,58,095,26,06,27,047,22,12,59,005,24,14,12,296,19*73
$GPGSV,3,2,11,15,02,195,18,19,13,047,21,24,61,184,26,25,37,314,15*79
$GPGSV,3,3,11,29,29,248,26,32,08,296,17,05,01,139,*4E
$GLGSV,2,1,07,74,37,132,27,86,51,234,24,75,76,019,21,84,14,030,20*6A
$GLGSV,2,2,07,85,63,008,23,76,24,329,,87,,,*63
$GPGGA,160821.0,3206.062661,N,03512.202093,E,1,06,1.0,699.5,M,19.0,M,,*51
$GPVTG,34.5,T,31.5,M,1.9,N,3.6,K,A*2B
$GPRMC,160821.0,A,3206.062661,N,03512.202093,E,1.9,34.5,040416,3.0,E,A*3A
$GPGSA,A,2,02,06,12,19,24,25,,,,,,,1.3,1.0,0.8*36
$GNGSA,A,2,02,06,12,19,24,25,,,,,,,1.3,1.0,0.8*28
$GNGSA,A,2,74,75,84,85,86,,,,,,,,1.3,1.0,0.8*28
$GPGSV,3,1,11,02,58,095,24,06,27,047,21,12,59,005,26,14,12,296,19*70
$GPGSV,3,2,11,15,02,195,18,19,13,047,22,24,61,184,23,25,37,314,22*7B
$GPGSV,3,3,11,29,29,248,24,32,08,296,17,05,01,139,*4C
$GLGSV,2,1,07,74,37,132,25,86,51,234,28,75,76,019,19,84,14,030,21*6E
$GLGSV,2,2,07,85,63,008,24,76,24,329,,87,,,*64
$GPGGA,160822.0,3206.063539,N,03512.203041,E,1,06,1.0,699.7,M,19.0,M,,*51
$GPVTG,27.5,T,24.6,M,3.1,N,5.7,K,A*23
$GPRMC,160822.0,A,3206.063539,N,03512.203041,E,3.1,27.5,040416,3.0,E,A*30
$GPGSA,A,2,02,06,12,19,24,25,,,,,,,1.3,1.0,0.8*36
$GNGSA,A,2,02,06,12,19,24,25,,,,,,,1.3,1.0,0.8*28
$GNGSA,A,2,74,75,84,85,86,,,,,,,,1.3,1.0,0.8*28
$GPGSV,3,1,11,02,58,095,24,06,27,047,21,12,59,005,23,14,12,296,19*75
$GPGSV,3,2,11,15,02,195,18,19,13,047,21,24,61,184,25,25,37,314,19*76
$GPGSV,3,3,11,29,29,248,25,32,08,296,17,05,01,139,*4D
$GLGSV,2,1,07,74,37,132,29,86,51,234,24,75,76,019,18,84,14,030,19*64
$GLGSV,2,2,07,85,63,008,21,76,24,329,,87,,,*61
$GPGGA,160823.0,3206.064377,N,03512.204178,E,1,06,1.0,698.1,M,19.0,M,,*50
$GPVTG,37.6,T,34.7,M,3.3,N,6.1,K,A*26
$GPRMC,160823.0,A,3206.064377,N,03512.204178,E,3.3,37.6,040416,3.0,E,A*36
$GPGSA,A,2,02,06,12,19,24,25,,,,,,,1.3,1.0,0.8*36
$GNGSA,A,2,02,06,12,19,24,25,,,,,,,1.3,1.0,0.8*28
$GNGSA,A,2,74,75,84,85,86,,,,,,,,1.3,1.0,0.8*28
$GPGSV,3,1,11,02,58,095,23,06,27,047,20,12,59,005,23,14,12,296,19*73
$GPGSV,3,2,11,15,02,195,18,19,13,047,20,24,61,184,23,25,37,314,19*71
$GPGSV,3,3,11,29,29,248,21,32,08,296,17,05,01,139,*49
$GLGSV,2,1,07,74,37,132,27,86,51,234,23,75,76,019,18,84,14,030,19*6D
$GLGSV,2,2,07,85,63,008,23,76,24,329,,87,,,*63
$GPGGA,160824.0,3206.064681,N,03512.204954,E,1,06,1.0,698.4,M,19.0,M,,*58
$GPVTG,43.9,T,40.9,M,3.0,N,5.5,K,A*23
$GPRMC,160824.0,A,3206.064681,N,03512.204954,E,3.0,43.9,040416,3.0,E,A*34
$GPGSA,A,2,02,06,12,19,24,25,,,,,,,1.3,1.0,0.8*36
$GNGSA,A,2,02,06,12,19,24,25,,,,,,,1.3,1.0,0.8*28
$GNGSA,A,2,74,75,84,85,86,,,,,,,,1.3,1.0,0.8*28
$GPGSV,3,1,11,02,58,095,25,06,27,047,22,12,59,005,23,14,12,296,19*77
$GPGSV,3,2,11,15,02,195,14,19,13,047,20,24,61,184,25,25,37,314,16*74
$GPGSV,3,3,11,29,29,248,25,32,08,296,17,05,01,139,*4D
$GLGSV,2,1,07,74,37,132,28,86,51,234,24,75,76,019,18,84,14,030,16*6A
$GLGSV,2,2,07,85,63,008,23,76,24,329,,87,,,*63
$GPGGA,160825.0,3206.065717,N,03512.205975,E,1,06,1.0,700.0,M,19.0,M,,*50
$GPVTG,38.8,T,35.8,M,3.4,N,6.3,K,A*2C
$GPRMC,160825.0,A,3206.065717,N,03512.205975,E,3.4,38.8,040416,3.0,E,A*31
$GPGSA,A,2,02,06,12,19,24,25,,,,,,,1.3,1.0,0.8*36
$GNGSA,A,2,02,06,12,19,24,25,,,,,,,1.3,1.0,0.8*28
$GNGSA,A,2,74,75,84,85,86,,,,,,,,1.3,1.0,0.8*28
$GPGSV,3,1,11,02,58,095,24,06,27,047,21,12,59,005,21,14,12,296,19*77
$GPGSV,3,2,11,15,02,195,14,19,13,047,20,24,61,184,26,25,37,314,16*77
$GPGSV,3,3,11,29,29,248,23,32,08,296,17,05,01,139,*4B
$GLGSV,2,1,07,74,37,132,25,86,51,234,21,75,76,019,20,84,14,030,16*69
$GLGSV,2,2,07,85,63,008,23,76,24,329,,87,,,*63
$GPGGA,160826.0,3206.066526,N,03512.207187,E,1,06,1.0,700.8,M,19.0,M,,*5F
$GPVTG,38.7,T,35.7,M,3.4,N,6.3,K,A*2C
$GPRMC,160826.0,A,3206.066526,N,03512.207187,E,3.4,38.7,040416,3.0,E,A*39
$GPGSA,A,2,02,06,12,19,24,25,,,,,,,1.3,1.0,0.8*36
$GNGSA,A,2,02,06,12,19,24,25,,,,,,,1.3,1.0,0.8*28
$GNGSA,A,2,74,75,84,85,86,,,,,,,,1.3,1.0,0.8*28
$GPGSV,3,1,11,02,58,095,25,06,27,047,23,12,59,005,23,14,12,296,19*76
$GPGSV,3,2,11,15,02,195,14,19,13,047,23,24,61,184,25,25,37,314,16*77
$GPGSV,3,3,11,29,29,248,23,32,08,296,17,05,01,139,*4B
$GLGSV,2,1,07,74,37,132,26,86,51,234,23,75,76,019,21,84,14,030,18*67
$GLGSV,2,2,07,85,63,008,23,76,24,329,,87,,,*63
$GPGGA,160827.0,3206.067423,N,03512.208649,E,1,06,1.0,702.6,M,19.0,M,,*5D
$GPVTG,44.9,T,41.9,M,3.5,N,6.4,K,A*22
$GPRMC,160827.0,A,3206.067423,N,03512.208649,E,3.5,44.9,040416,3.0,E,A*33
$GPGSA,A,2,02,06,12,19,24,25,,,,,,,1.3,1.0,0.8*36
$GNGSA,A,2,02,06,12,19,24,25,,,,,,,1.3,1.0,0.8*28
$GNGSA,A,2,74,75,84,85,86,,,,,,,,1.3,1.0,0.8*28
$GPGSV,3,1,11,02,58,095,24,06,27,047,21,12,59,005,24,14,12,296,19*72
$GPGSV,3,2,11,15,02,195,14,19,13,047,21,24,61,184,25,25,37,314,16*75
$GPGSV,3,3,11,29,29,248,20,32,08,296,17,05,01,139,*48
$GLGSV,2,1,07,74,37,132,26,86,51,234,21,75,76,019,21,84,14,030,20*6E
$GLGSV,2,2,07,85,63,008,24,76,24,329,,87,,,*64
$GPGGA,160828.0,3206.068378,N,03512.208379,E,1,06,1.0,700.5,M,19.0,M,,*53
$GPVTG,20.9,T,18.0,M,2.4,N,4.4,K,A*27
$GPRMC,160828.0,A,3206.068378,N,03512.208379,E,2.4,20.9,040416,3.0,E,A*3E
$GPGSA,A,2,02,06,12,19,24,25,,,,,,,1.3,1.0,0.8*36
$GNGSA,A,2,02,06,12,19,24,25,,,,,,,1.3,1.0,0.8*28
$GNGSA,A,2,74,75,84,85,86,,,,,,,,1.3,1.0,0.8*28
$GPGSV,3,1,11,02,58,095,24,06,27,047,20,12,59,005,24,14,12,296,19*73
$GPGSV,3,2,11,15,02,195,14,19,13,047,21,24,61,184,25,25,37,314,14*77
$GPGSV,3,3,11,29,29,248,22,32,08,296,17,05,01,139,*4A
$GLGSV,2,1,07,74,37,132,25,86,51,234,25,75,76,019,22,84,14,030,20*6A
$GLGSV,2,2,07,85,63,008,23,76,24,329,,87,,,*63
$GPGGA,160829.0,3206.069225,N,03512.209036,E,1,06,1.0,698.9,M,19.0,M,,*5F
$GPVTG,29.0,T,26.0,M,2.4,N,4.5,K,A*2B
$GPRMC,160829.0,A,3206.069225,N,03512.209036,E,2.4,29.0,040416,3.0,E,A*3E
$GPGSA,A,2,02,06,12,19,24,25,,,,,,,1.3,1.0,0.8*36
$GNGSA,A,2,02,06,12,19,24,25,,,,,,,1.3,1.0,0.8*28
$GNGSA,A,2,74,75,84,85,86,,,,,,,,1.3,1.0,0.8*28
$GPGSV,3,1,11,02,58,095,25,06,27,047,23,12,59,005,24,14,12,296,19*71
$GPGSV,3,2,11,15,02,195,14,19,13,047,21,24,61,184,27,25,37,314,16*77
$GPGSV,3,3,11,29,29,248,24,32,08,296,17,05,01,139,*4C
$GLGSV,2,1,07,74,37,132,27,86,51,234,22,75,76,019,20,84,14,030,16*68
$GLGSV,2,2,07,85,63,008,24,76,24,329,,87,,,*64
$GPGGA,160830.0,3206.070213,N,03512.210627,E,1,06,1.0,699.7,M,19.0,M,,*5B
$GPVTG,52.2,T,49.2,M,3.6,N,6.6,K,A*2C
$GPRMC,160830.0,A,3206.070213,N,03512.210627,E,3.6,52.2,040416,3.0,E,A*38
$GPGSA,A,2,02,06,12,19,24,25,,,,,,,1.3,1.0,0.8*36
$GNGSA,A,2,02,06,12,19,24,25,,,,,,,1.3,1.0,0.8*28
$GNGSA,A,2,74,75,84,85,86,,,,,,,,1.3,1.0,0.8*28
$GPGSV,3,1,11,02,58,095,24,06,27,047,20,12,59,005,23,14,12,296,9*45
$GPGSV,3,2,11,15,02,195,14,19,13,047,23,24,61,184,24,25,37,314,16*76
$GPGSV,3,3,11,29,29,248,25,32,08,296,17,05,01,139,*4D
$GLGSV,2,1,07,74,37,132,26,86,51,234,23,75,76,019,22,84,14,030,17*6B
$GLGSV,2,2,07,85,63,008,22,76,24,329,,87,,,*62
$GPGGA,160831.0,3206.071111,N,03512.211539,E,1,06,1.0,701.1,M,19.0,M,,*51
$GPVTG,47.2,T,44.3,M,3.6,N,6.7,K,A*25
$GPRMC,160831.0,A,3206.071111,N,03512.211539,E,3.6,47.2,040416,3.0,E,A*30
$GPGSA,A,2,02,06,12,19,24,25,,,,,,,1.3,1.0,0.8*36
$GNGSA,A,2,02,06,12,19,24,25,,,,,,,1.3,1.0,0.8*28
$GNGSA,A,2,74,75,84,85,86,,,,,,,,1.3,1.0,0.8*28
$GPGSV,3,1,11,02,58,095,23,06,27,047,19,12,59,005,23,14,12,296,9*48
$GPGSV,3,2,11,15,02,195,14,19,13,047,21,24,61,184,26,25,37,314,16*76
$GPGSV,3,3,11,29,29,248,24,32,08,296,17,05,01,139,*4C
$GLGSV,2,1,07,74,37,132,27,86,51,234,26,75,76,019,22,84,14,030,19*61
$GLGSV,2,2,07,85,63,008,25,76,24,329,,87,,,*65
$GPGGA,160832.0,3206.072019,N,03512.212277,E,1,06,1.0,700.5,M,19.0,M,,*53
$GPVTG,34.3,T,31.3,M,2.8,N,5.3,K,A*2A
$GPRMC,160832.0,A,3206.072019,N,03512.212277,E,2.8,34.3,040416,3.0,E,A*3D
$GPGSA,A,2,02,06,12,19,24,25,,,,,,,1.3,1.0,0.8*36
$GNGSA,A,2,02,06,12,19,24,25,,,,,,,1.3,1.0,0.8*28
$GNGSA,A,2,74,75,84,85,86,,,,,,,,1.3,1.0,0.8*28
$GPGSV,3,1,11,02,58,095,25,06,27,047,20,12,59,005,22,14,12,296,9*45
$GPGSV,3,2,11,15,02,195,14,19,13,047,17,24,61,184,28,25,37,314,16*7D
$GPGSV,3,3,11,29,29,248,22,32,08,296,10,05,01,139,*4D
$GLGSV,2,1,07,74,37,132,25,86,51,234,22,75,76,019,20,84,14,030,19*65
$GLGSV,2,2,07,85,63,008,20,76,24,329,,87,,,*60
$GPGGA,160833.0,3206.072789,N,03512.212667,E,1,06,1.0,700.1,M,19.0,M,,*5D
$GPVTG,33.6,T,30.7,M,2.8,N,5.3,K,A*2D
$GPRMC,160833.0,A,3206.072789,N,03512.212667,E,2.8,33.6,040416,3.0,E,A*35
$GPGSA,A,2,02,06,12,19,24,25,,,,,,,1.3,1.0,0.8*36
$GNGSA,A,2,02,06,12,19,24,25,,,,,,,1.3,1.0,0.8*28
$GNGSA,A,2,74,75,84,85,86,,,,,,,,1.3,1.0,0.8*28
$GPGSV,3,1,11,02,58,095,25,06,27,047,20,12,59,005,22,14,12,296,15*78
$GPGSV,3,2,11,15,02,195,14,19,13,047,22,24,61,184,25,25,37,314,13*73
$GPGSV,3,3,11,29,29,248,22,32,08,296,16,05,01,139,*4B
$GLGSV,2,1,07,74,37,132,27,86,51,234,22,75,76,019,21,84,14,030,16*69
$GLGSV,2,2,07,85,63,008,23,76,24,329,,87,,,*63
$GPGGA,160834.0,3206.072872,N,03512.213351,E,1,06,1.0,698.5,M,19.0,M,,*54
$GPVTG,42.0,T,39.0,M,2.8,N,5.2,K,A*22
$GPRMC,160834.0,A,3206.072872,N,03512.213351,E,2.8,42.0,040416,3.0,E,A*38
$GPGSA,A,2,02,06,12,19,24,25,,,,,,,1.3,1.0,0.8*36
$GNGSA,A,2,02,06,12,19,24,25,,,,,,,1.3,1.0,0.8*28
$GNGSA,A,2,74,75,84,85,86,,,,,,,,1.3,1.0,0.8*28
$GPGSV,3,1,11,02,58,095,26,06,27,047,22,12,59,005,23,14,12,296,18*75
$GPGSV,3,2,11,15,02,195,14,19,13,047,24,24,61,184,26,25,37,314,16*73
$GPGSV,3,3,11,29,29,248,26,32,08,296,16,05,01,139,*4F
$GLGSV,2,1,07,74,37,132,25,86,51,234,23,75,76,019,21,84,14,030,17*6B
$GLGSV,2,2,07,85,63,008,24,76,24,329,,87,,,*64
$GPGGA,160835.0,3206.074410,N,03512.213998,E,1,06,1.0,696.1,M,19.0,M,,*5E
$GPVTG,38.3,T,35.3,M,3.4,N,6.3,K,A*2C
$GPRMC,160835.0,A,3206.074410,N,03512.213998,E,3.4,38.3,040416,3.0,E,A*3B
$GPGSA,A,2,02,06,12,19,24,25,,,,,,,1.3,1.0,0.8*36
$GNGSA,A,2,02,06,12,19,24,25,,,,,,,1.3,1.0,0.8*28
$GNGSA,A,2,74,75,84,85,86,,,,,,,,1.3,1.0,0.8*28
$GPGSV,3,1,11,02,58,095,24,06,27,047,20,12,59,005,22,14,12,296,18*74
$GPGSV,3,2,11,15,02,195,14,19,13,047,19,24,61,184,25,25,37,314,16*7E
$GPGSV,3,3,11,29,29,248,23,32,08,296,16,05,01,139,*4A
$GLGSV,2,1,07,74,37,132,25,86,51,234,20,75,76,019,21,84,14,030,17*68
$GLGSV,2,2,07,85,63,008,21,76,24,329,,87,,,*61
$GPGGA,160836.0,3206.075044,N,03512.214375,E,1,06,1.0,695.7,M,19.0,M,,*52
$GPVTG,31.8,T,28.9,M,2.7,N,5.0,K,A*2A
$GPRMC,160836.0,A,3206.075044,N,03512.214375,E,2.7,31.8,040416,3.0,E,A*32
$GPGSA,A,2,02,06,12,19,24,25,,,,,,,1.3,1.0,0.8*36
$GNGSA,A,2,02,06,12,19,24,25,,,,,,,1.3,1.0,0.8*28
$GNGSA,A,2,74,75,84,85,86,,,,,,,,1.3,1.0,0.8*28
$GPGSV,3,1,11,02,58,095,25,06,27,047,19,12,59,005,21,14,12,296,17*73
$GPGSV,3,2,11,15,02,195,14,19,13,047,21,24,61,184,24,25,37,314,16*74
$GPGSV,3,3,11,29,29,248,26,32,08,296,16,05,01,139,*4F
$GLGSV,2,1,07,74,37,132,26,86,51,234,22,75,76,019,19,84,14,030,15*60
$GLGSV,2,2,07,85,63,008,21,76,24,329,,87,,,*61
$GPGGA,160837.0,3206.075437,N,03512.214765,E,1,06,1.0,695.8,M,19.0,M,,*59
$GPVTG,33.2,T,30.3,M,3.0,N,5.5,K,A*22
$GPRMC,160837.0,A,3206.075437,N,03512.214765,E,3.0,33.2,040416,3.0,E,A*38
$GPGSA,A,2,02,06,12,19,24,25,,,,,,,1.3,1.0,0.8*36
$GNGSA,A,2,02,06,12,19,24,25,,,,,,,1.3,1.0,0.8*28
$GNGSA,A,2,74,75,84,85,86,,,,,,,,1.3,1.0,0.8*28
$GPGSV,3,1,11,02,58,095,24,06,27,047,20,12,59,005,21,14,12,296,17*78
$GPGSV,3,2,11,15,02,195,14,19,13,047,22,24,61,184,25,25,37,314,16*76
$GPGSV,3,3,11,29,29,248,24,32,08,296,14,05,01,139,*4F
$GLGSV,2,1,07,74,37,132,26,86,51,234,23,75,76,019,20,84,14,030,16*68
$GLGSV,2,2,07,85,63,008,22,76,24,329,,87,,,*62
$GPGGA,160838.0,3206.076426,N,03512.215589,E,1,06,1.0,696.0,M,19.0,M,,*5F
$GPVTG,33.9,T,30.9,M,2.3,N,4.3,K,A*26
$GPRMC,160838.0,A,3206.076426,N,03512.215589,E,2.3,33.9,040416,3.0,E,A*3C
$GPGSA,A,2,02,06,12,19,24,25,,,,,,,1.3,1.0,0.8*36
$GNGSA,A,2,02,06,12,19,24,25,,,,,,,1.3,1.0,0.8*28
$GNGSA,A,2,74,75,84,85,86,,,,,,,,1.3,1.0,0.8*28
$GPGSV,3,1,11,02,58,095,24,06,27,047,22,12,59,005,20,14,12,296,15*79
$GPGSV,3,2,11,15,02,195,14,19,13,047,19,24,61,184,26,25,37,314,16*7D
$GPGSV,3,3,11,29,29,248,22,32,08,296,14,05,01,139,*49
$GLGSV,2,1,07,74,37,132,23,86,51,234,17,75,76,019,17,84,14,030,17*6F
$GLGSV,2,2,07,85,63,008,19,76,24,329,,87,,,*6A
$GPGGA,160839.0,3206.077784,N,03512.216664,E,1,06,1.0,696.1,M,19.0,M,,*56
$GPVTG,42.5,T,39.5,M,3.4,N,6.3,K,A*2D
$GPRMC,160839.0,A,3206.077784,N,03512.216664,E,3.4,42.5,040416,3.0,E,A*38
$GPGSA,A,2,02,06,12,19,24,25,,,,,,,1.3,1.0,0.8*36
$GNGSA,A,2,02,06,12,19,24,25,,,,,,,1.3,1.0,0.8*28
$GNGSA,A,2,74,75,84,85,86,,,,,,,,1.3,1.0,0.8*28
$GPGSV,3,1,11,02,58,095,24,06,27,047,22,12,59,005,22,14,12,296,20*7D
$GPGSV,3,2,11,15,02,195,14,19,13,047,18,24,61,184,26,25,37,314,16*7C
$GPGSV,3,3,11,29,29,248,22,32,08,296,14,05,01,139,*49
$GLGSV,2,1,07,74,37,132,24,86,51,234,21,75,76,019,20,84,14,030,17*69
$GLGSV,2,2,07,85,63,008,20,76,24,329,,87,,,*60
$GPGGA,160840.0,3206.078603,N,03512.217072,E,1,06,1.0,696.4,M,19.0,M,,*5C
$GPVTG,38.1,T,35.1,M,3.9,N,7.3,K,A*20
$GPRMC,160840.0,A,3206.078603,N,03512.217072,E,3.9,38.1,040416,3.0,E,A*33
$GPGSA,A,2,02,06,12,19,24,25,,,,,,,1.3,1.0,0.8*36
$GNGSA,A,2,02,06,12,19,24,25,,,,,,,1.3,1.0,0.8*28
$GNGSA,A,2,74,75,84,85,86,,,,,,,,1.3,1.0,0.8*28
$GPGSV,3,1,11,02,58,095,25,06,27,047,21,12,59,005,22,14,12,296,20*7F
$GPGSV,3,2,11,15,02,195,14,19,13,047,17,24,61,184,26,25,37,314,12*77
$GPGSV,3,3,11,29,29,248,22,32,08,296,14,05,01,139,*49
$GLGSV,2,1,07,74,37,132,21,86,51,234,20,75,76,019,21,84,14,030,17*6C
$GLGSV,2,2,07,85,63,008,22,76,24,329,,87,,,*62
$GPGGA,160841.0,3206.079425,N,03512.217500,E,1,06,1.0,695.6,M,19.0,M,,*5B
$GPVTG,38.0,T,35.0,M,3.3,N,6.1,K,A*29
$GPRMC,160841.0,A,3206.079425,N,03512.217500,E,3.3,38.0,040416,3.0,E,A*3E
$GPGSA,A,2,02,06,12,19,24,25,,,,,,,1.3,1.0,0.8*36
$GNGSA,A,2,02,06,12,19,24,25,,,,,,,1.3,1.0,0.8*28
$GNGSA,A,2,74,75,84,85,86,,,,,,,,1.3,1.0,0.8*28
$GPGSV,3,1,11,02,58,095,23,06,27,047,21,12,59,005,18,14,12,296,20*70
$GPGSV,3,2,11,15,02,195,14,19,13,047,19,24,61,184,27,25,37,314,12*78
$GPGSV,3,3,11,29,29,248,24,32,08,296,14,05,01,139,*4F
$GLGSV,2,1,07,74,37,132,22,86,51,234,20,75,76,019,20,84,14,030,17*6E
$GLGSV,2,2,07,85,63,008,20,76,24,329,,87,,,*60
$GPGGA,160842.0,3206.080040,N,03512.218131,E,1,06,1.0,695.2,M,19.0,M,,*54
$GPVTG,38.5,T,35.5,M,3.5,N,6.5,K,A*2B
$GPRMC,160842.0,A,3206.080040,N,03512.218131,E,3.5,38.5,040416,3.0,E,A*36
$GPGSA,A,2,02,06,12,19,24,25,,,,,,,1.3,1.0,0.8*36
$GNGSA,A,2,02,06,12,19,24,25,,,,,,,1.3,1.0,0.8*28
$GNGSA,A,2,74,75,84,85,86,,,,,,,,1.3,1.0,0.8*28
$GPGSV,3,1,11,02,58,095,24,06,27,047,21,12,59,005,22,14,12,296,20*7E
$GPGSV,3,2,11,15,02,195,14,19,13,047,17,24,61,184,27,25,37,314,16*72
$GPGSV,3,3,11,29,29,248,25,32,08,296,14,05,01,139,*4E
$GLGSV,2,1,07,74,37,132,22,86,51,234,18,75,76,019,20,84,14,030,14*66
$GLGSV,2,2,07,85,63,008,22,76,24,329,,87,,,*62
$GPGGA,160843.0,3206.081333,N,03512.218733,E,1,06,1.0,694.9,M,19.0,M,,*5D
$GPVTG,35.0,T,32.0,M,4.6,N,8.4,K,A*2A
$GPRMC,160843.0,A,3206.081333,N,03512.218733,E,4.6,35.0,040416,3.0,E,A*39
$GPGSA,A,2,02,06,12,19,24,25,,,,,,,1.3,1.0,0.8*36
$GNGSA,A,2,02,06,12,19,24,25,,,,,,,1.3,1.0,0.8*28
$GNGSA,A,2,74,75,84,85,86,,,,,,,,1.3,1.0,0.8*28
$GPGSV,3,1,11,02,58,095,23,06,27,047,21,12,59,005,21,14,12,296,14*7D
$GPGSV,3,2,11,15,02,195,14,19,13,047,21,24,61,184,24,25,37,314,20*71
$GPGSV,3,3,11,29,29,248,18,32,08,296,14,05,01,139,*40
$GLGSV,2,1,07,74,37,132,21,86,51,234,20,75,76,019,19,84,14,030,14*64
$GLGSV,2,2,07,85,63,008,19,76,24,329,,87,,,*6A
$GPGGA,160844.0,3206.082269,N,03512.219541,E,1,06,1.0,694.0,M,19.0,M,,*58
$GPVTG,20.0,T,17.0,M,4.1,N,7.7,K,A*22
$GPRMC,160844.0,A,3206.082269,N,03512.219541,E,4.1,20.0,040416,3.0,E,A*36
$GPGSA,A,2,02,06,12,19,24,25,,,,,,,1.3,1.0,0.8*36
$GNGSA,A,2,02,06,12,19,24,25,,,,,,,1.3,1.0,0.8*28
$GNGSA,A,2,74,75,84,85,86,,,,,,,,1.3,1.0,0.8*28
$GPGSV,3,1,11,02,58,095,23,06,27,047,20,12,59,005,22,14,12,296,21*79
$GPGSV,3,2,11,15,02,195,14,19,13,047,21,24,61,184,23,25,37,314,20*76
$GPGSV,3,3,11,29,29,248,18,32,08,296,14,05,01,139,*40
$GLGSV,2,1,07,74,37,132,26,86,51,234,21,75,76,019,21,84,14,030,17*6A
$GLGSV,2,2,07,85,63,008,21,76,24,329,,87,,,*61
$GPGGA,160845.0,3206.083306,N,03512.219134,E,1,06,1.0,690.2,M,19.0,M,,*50
$GPVTG,20.9,T,17.9,M,3.0,N,5.5,K,A*24
$GPRMC,160845.0,A,3206.083306,N,03512.219134,E,3.0,20.9,040416,3.0,E,A*37
$GPGSA,A,2,02,06,12,19,24,25,,,,,,,1.3,1.0,0.8*36
$GNGSA,A,2,02,06,12,19,24,25,,,,,,,1.3,1.0,0.8*28
$GNGSA,A,2,74,75,84,85,86,,,,,,,,1.3,1.0,0.8*28
$GPGSV,3,1,11,02,58,095,23,06,27,047,21,12,59,005,22,14,12,296,22*7B
$GPGSV,3,2,11,15,02,195,14,19,13,047,21,24,61,184,23,25,37,314,20*76
$GPGSV,3,3,11,29,29,248,19,32,08,296,18,05,01,139,*4D
$GLGSV,2,1,07,74,37,132,24,86,51,234,19,75,76,019,18,84,14,030,17*69
$GLGSV,2,2,07,85,63,008,20,76,24,329,,87,,,*60
$GPGGA,160846.0,3206.083666,N,03512.220148,E,1,06,1.0,690.9,M,19.0,M,,*5A
$GPVTG,40.5,T,37.5,M,2.8,N,5.2,K,A*2E
$GPRMC,160846.0,A,3206.083666,N,03512.220148,E,2.8,40.5,040416,3.0,E,A*35
$GPGSA,A,2,02,06,12,19,24,25,,,,,,,1.3,1.0,0.8*36
$GNGSA,A,2,02,06,12,19,24,25,,,,,,,1.3,1.0,0.8*28
$GNGSA,A,2,74,75,84,85,86,,,,,,,,1.3,1.0,0.8*28
$GPGSV,3,1,11,02,58,095,24,06,27,047,18,12,59,005,22,14,12,296,22*76
$GPGSV,3,2,11,15,02,195,14,19,13,047,22,24,61,184,23,25,37,314,19*7F
$GPGSV,3,3,11,29,29,248,19,32,08,296,22,05,01,139,*44
$GLGSV,2,1,07,74,37,132,24,86,51,234,21,75,76,019,19,84,14,030,17*63
$GLGSV,2,2,07,85,63,008,21,76,24,329,,87,,,*61
$GPGGA,160847.0,3206.084385,N,03512.221528,E,1,06,1.0,691.3,M,19.0,M,,*5C
$GPVTG,47.5,T,44.5,M,3.4,N,6.3,K,A*22
$GPRMC,160847.0,A,3206.084385,N,03512.221528,E,3.4,47.5,040416,3.0,E,A*32
$GPGSA,A,2,02,06,12,19,24,25,,,,,,,1.3,1.0,0.8*36
$GNGSA,A,2,02,06,12,19,24,25,,,,,,,1.3,1.0,0.8*28
$GNGSA,A,2,74,75,84,85,86,,,,,,,,1.3,1.0,0.8*28
$GPGSV,3,1,11,02,58,095,25,06,27,047,21,12,59,005,22,14,12,296,21*7E
$GPGSV,3,2,11,19,13,047,20,24,61,184,24,25,37,314,23,29,29,248,24*75
$GPGSV,3,3,11,32,08,296,20,05,01,139,,15,02,195,*4B
$GLGSV,2,1,07,74,37,132,21,86,51,234,23,75,76,019,19,84,14,030,17*64
$GLGSV,2,2,07,85,63,008,21,76,24,329,,87,,,*61
$GPGGA,160848.0,3206.085502,N,03512.222675,E,1,06,1.0,695.2,M,19.0,M,,*56
$GPVTG,49.1,T,46.1,M,3.5,N,6.4,K,A*28
$GPRMC,160848.0,A,3206.085502,N,03512.222675,E,3.5,49.1,040416,3.0,E,A*36
$GPGSA,A,2,02,06,12,19,24,25,,,,,,,1.3,1.0,0.8*36
$GNGSA,A,2,02,06,12,19,24,25,,,,,,,1.3,1.0,0.8*28
$GNGSA,A,2,74,75,84,85,86,,,,,,,,1.3,1.0,0.8*28
$GPGSV,3,1,11,02,58,095,25,06,27,047,20,12,59,005,23,14,12,296,21*7E
$GPGSV,3,2,11,19,13,047,23,24,61,184,25,25,37,314,21,29,29,248,25*74
$GPGSV,3,3,11,32,08,296,23,05,01,139,,15,02,195,*48
$GLGSV,2,1,07,74,37,132,20,86,51,234,22,75,76,019,20,84,14,030,15*6C
$GLGSV,2,2,07,85,63,008,23,76,24,329,,87,,,*63
$GPGGA,160849.0,3206.085655,N,03512.222951,E,1,06,1.0,695.2,M,19.0,M,,*5F
$GPVTG,61.4,T,58.4,M,3.0,N,5.6,K,A*29
$GPRMC,160849.0,A,3206.085655,N,03512.222951,E,3.0,61.4,040416,3.0,E,A*35
$GPGSA,A,2,02,06,12,19,24,25,,,,,,,1.3,1.0,0.8*36
$GNGSA,A,2,02,06,12,19,24,25,,,,,,,1.3,1.0,0.8*28
$GNGSA,A,2,74,75,84,85,86,,,,,,,,1.3,1.0,0.8*28
$GPGSV,3,1,11,02,58,095,24,06,27,047,18,12,59,005,22,14,12,296,22*76
$GPGSV,3,2,11,19,13,047,22,24,61,184,24,25,37,314,24,29,29,248,24*70
$GPGSV,3,3,11,32,08,296,24,05,01,139,,15,02,195,*4F
$GLGSV,2,1,07,74,37,132,21,86,51,234,25,75,76,019,19,84,14,030,15*60
$GLGSV,2,2,07,85,63,008,20,76,24,329,,87,,,*60
$GPGGA,160850.0,3206.086609,N,03512.224529,E,1,06,1.0,694.4,M,19.0,M,,*5F
$GPVTG,51.6,T,48.6,M,3.8,N,7.0,K,A*27
$GPRMC,160850.0,A,3206.086609,N,03512.224529,E,3.8,51.6,040416,3.0,E,A*3B
$GPGSA,A,2,02,06,12,19,24,25,,,,,,,1.3,1.0,0.8*36
$GNGSA,A,2,02,06,12,19,24,25,,,,,,,1.3,1.0,0.8*28
$GNGSA,A,2,74,75,84,85,86,,,,,,,,1.3,1.0,0.8*28
$GPGSV,3,1,11,02,58,095,23,06,27,047,20,12,59,005,20,14,12,296,23*79
$GPGSV,3,2,11,19,13,047,20,24,61,184,24,25,37,314,22,29,29,248,22*72
$GPGSV,3,3,11,32,08,296,24,05,01,139,,15,02,195,*4F
$GLGSV,2,1,07,74,37,132,22,86,51,234,23,75,76,019,19,84,14,030,15*65
$GLGSV,2,2,07,85,63,008,21,76,24,329,,87,,,*61
$GPGGA,160851.0,3206.087380,N,03512.225202,E,1,06,1.0,693.8,M,19.0,M,,*5F
$GPVTG,34.4,T,31.4,M,3.6,N,6.6,K,A*23
$GPRMC,160851.0,A,3206.087380,N,03512.225202,E,3.6,34.4,040416,3.0,E,A*3F
$GPGSA,A,2,02,06,12,19,24,25,,,,,,,1.3,1.0,0.8*36
$GNGSA,A,2,02,06,12,19,24,25,,,,,,,1.3,1.0,0.8*28
$GNGSA,A,2,74,75,84,85,86,,,,,,,,1.3,1.0,0.8*28
$GPGSV,3,1,11,02,58,095,23,06,27,047,19,12,59,005,22,14,12,296,21*73
$GPGSV,3,2,11,19,13,047,20,24,61,184,23,25,37,314,21,29,29,248,22*76
$GPGSV,3,3,11,32,08,296,24,05,01,139,,15,02,195,*4F
$GLGSV,2,1,07,74,37,132,24,86,51,234,22,75,76,019,19,84,14,030,13*64
$GLGSV,2,2,07,85,63,008,22,76,24,329,,87,,,*62
$GPGGA,160852.0,3206.088529,N,03512.225353,E,1,06,1.0,694.4,M,19.0,M,,*58
$GPVTG,44.5,T,41.5,M,3.2,N,5.9,K,A*2B
$GPRMC,160852.0,A,3206.088529,N,03512.225353,E,3.2,44.5,040416,3.0,E,A*31
$GPGSA,A,2,02,06,12,19,24,25,,,,,,,1.3,1.0,0.8*36
$GNGSA,A,2,02,06,12,19,24,25,,,,,,,1.3,1.0,0.8*28
$GNGSA,A,2,74,75,84,85,86,,,,,,,,1.3,1.0,0.8*28
$GPGSV,3,1,11,02,58,095,23,06,27,047,19,12,59,005,23,14,12,296,21*72
$GPGSV,3,2,11,19,13,047,21,24,61,184,24,25,37,314,20,29,29,248,19*79
$GPGSV,3,3,11,32,08,296,24,05,01,139,,15,02,195,*4F
$GLGSV,2,1,07,74,37,132,24,86,51,234,23,75,76,019,20,84,14,030,17*6B
$GLGSV,2,2,07,85,63,008,22,76,24,329,,87,,,*62
$GPGGA,160853.0,3206.089296,N,03512.226377,E,1,06,1.0,693.3,M,19.0,M,,*5E
$GPVTG,43.5,T,40.6,M,3.8,N,7.0,K,A*2F
$GPRMC,160853.0,A,3206.089296,N,03512.226377,E,3.8,43.5,040416,3.0,E,A*3A
$GPGSA,A,2,02,06,12,19,24,25,,,,,,,1.3,1.0,0.8*36
$GNGSA,A,2,02,06,12,19,24,25,,,,,,,1.3,1.0,0.8*28
$GNGSA,A,2,74,75,84,85,86,,,,,,,,1.3,1.0,0.8*28
$GPGSV,3,1,11,02,58,095,24,06,27,047,21,12,59,005,23,14,12,296,20*7F
$GPGSV,3,2,11,19,13,047,20,24,61,184,24,25,37,314,20,29,29,248,22*70
$GPGSV,3,3,11,32,08,296,20,05,01,139,,15,02,195,*4B
$GLGSV,2,1,07,74,37,132,23,86,51,234,22,75,76,019,19,84,14,030,17*67
$GLGSV,2,2,07,85,63,008,24,76,24,329,,87,,,*64
$GPGGA,160854.0,3206.090044,N,03512.227629,E,1,06,1.0,694.4,M,19.0,M,,*53
$GPVTG,52.5,T,49.5,M,3.9,N,7.2,K,A*26
$GPRMC,160854.0,A,3206.090044,N,03512.227629,E,3.9,52.5,040416,3.0,E,A*36
$GPGSA,A,2,02,06,12,19,24,25,,,,,,,1.3,1.0,0.8*36
$GNGSA,A,2,02,06,12,19,24,25,,,,,,,1.3,1.0,0.8*28
$GNGSA,A,2,74,75,84,85,86,,,,,,,,1.3,1.0,0.8*28
$GPGSV,3,1,11,02,58,095,24,06,27,047,21,12,59,005,21,14,12,296,22*7F
$GPGSV,3,2,11,19,13,047,20,24,61,184,27,25,37,314,18,29,29,248,21*7B
$GPGSV,3,3,11,32,08,296,24,05,01,139,,15,02,195,*4F
$GLGSV,2,1,07,74,37,132,23,86,51,234,22,75,76,019,19,84,14,030,17*67
$GLGSV,2,2,07,85,63,008,18,76,24,329,,87,,,*6B
$GPGGA,160855.0,3206.091022,N,03512.228905,E,1,06,1.0,695.2,M,19.0,M,,*5A
$GPVTG,51.8,T,48.9,M,4.0,N,7.4,K,A*2D
$GPRMC,160855.0,A,3206.091022,N,03512.228905,E,4.0,51.8,040416,3.0,E,A*38
$GPGSA,A,2,02,06,12,19,24,25,,,,,,,1.3,1.0,0.8*36
$GNGSA,A,2,02,06,12,19,24,25,,,,,,,1.3,1.0,0.8*28
$GNGSA,A,2,74,75,84,85,86,,,,,,,,1.3,1.0,0.8*28
$GPGSV,3,1,11,02,58,095,22,06,27,047,21,12,59,005,23,14,12,296,22*7B
$GPGSV,3,2,11,19,13,047,21,24,61,184,26,25,37,314,20,29,29,248,23*72
$GPGSV,3,3,11,32,08,296,24,05,01,139,,15,02,195,*4F
$GLGSV,2,1,07,74,37,132,24,86,51,234,22,75,76,019,21,84,14,030,14*68
$GLGSV,2,2,07,85,63,008,24,76,24,329,,87,,,*64
$GPGGA,160856.0,3206.091894,N,03512.229469,E,1,06,1.0,693.2,M,19.0,M,,*5C
$GPVTG,55.6,T,52.6,M,4.0,N,7.4,K,A*23
$GPRMC,160856.0,A,3206.091894,N,03512.229469,E,4.0,55.6,040416,3.0,E,A*32
$GPGSA,A,2,02,06,12,19,24,25,,,,,,,1.3,1.0,0.8*36
$GNGSA,A,2,02,06,12,19,24,25,,,,,,,1.3,1.0,0.8*28
$GNGSA,A,2,74,75,84,85,86,,,,,,,,1.3,1.0,0.8*28
$GPGSV,3,1,11,02,58,095,22,06,27,047,21,12,59,005,24,14,12,296,23*7D
$GPGSV,3,2,11,19,13,047,22,24,61,184,24,25,37,314,21,29,29,248,25*74
$GPGSV,3,3,11,32,08,296,25,05,01,139,,15,02,195,*4E
$GLGSV,2,1,07,74,37,132,24,86,51,234,22,75,76,019,21,84,14,030,14*68
$GLGSV,2,2,07,85,63,008,22,76,24,329,,87,,,*62
$GPGGA,160857.0,3206.092118,N,03512.230789,E,1,06,1.0,694.0,M,19.0,M,,*53
$GPVTG,53.0,T,50.1,M,3.3,N,6.1,K,A*26
$GPRMC,160857.0,A,3206.092118,N,03512.230789,E,3.3,53.0,040416,3.0,E,A*3C
$GPGSA,A,2,02,06,12,19,24,25,,,,,,,1.3,1.0,0.8*36
$GNGSA,A,2,02,06,12,19,24,25,,,,,,,1.3,1.0,0.8*28
$GNGSA,A,2,74,75,84,85,86,,,,,,,,1.3,1.0,0.8*28
$GPGSV,3,1,11,02,58,095,24,06,27,047,20,12,59,005,22,14,12,296,23*7C
$GPGSV,3,2,11,19,13,047,21,24,61,184,25,25,37,314,23,29,29,248,22*73
$GPGSV,3,3,11,32,08,296,25,05,01,139,,15,02,195,*4E
$GLGSV,2,1,07,74,37,132,25,86,51,234,23,75,76,019,21,84,14,030,14*68
$GLGSV,2,2,07,85,63,008,22,76,24,329,,87,,,*62
$GPGGA,160858.0,3206.092566,N,03512.231562,E,1,06,1.0,694.3,M,19.0,M,,*54
$GPVTG,55.1,T,52.1,M,2.9,N,5.4,K,A*2E
$GPRMC,160858.0,A,3206.092566,N,03512.231562,E,2.9,55.1,040416,3.0,E,A*34
$GPGSA,A,2,02,06,12,19,24,25,,,,,,,1.3,1.0,0.8*36
$GNGSA,A,2,02,06,12,19,24,25,,,,,,,1.3,1.0,0.8*28
$GNGSA,A,2,74,75,84,85,86,,,,,,,,1.3,1.0,0.8*28
$GPGSV,3,1,11,02,58,095,24,06,27,047,23,12,59,005,22,14,12,296,25*79
$GPGSV,3,2,11,19,13,047,20,24,61,184,26,25,37,314,21,29,29,248,19*7B
$GPGSV,3,3,11,32,08,296,25,05,01,139,,15,02,195,*4E
$GLGSV,2,1,07,74,37,132,25,86,51,234,26,75,76,019,21,84,14,030,17*6E
$GLGSV,2,2,07,85,63,008,22,76,24,329,,87,,,*62
$GPGGA,160859.0,3206.092940,N,03512.232910,E,1,06,1.0,694.5,M,19.0,M,,*51
$GPVTG,57.5,T,54.5,M,2.9,N,5.4,K,A*2A
$GPRMC,160859.0,A,3206.092940,N,03512.232910,E,2.9,57.5,040416,3.0,E,A*31
$GPGSA,A,2,02,06,12,19,24,25,,,,,,,1.3,1.0,0.8*36
$GNGSA,A,2,02,06,12,19,24,25,,,,,,,1.3,1.0,0.8*28
$GNGSA,A,2,74,75,84,85,86,,,,,,,,1.3,1.0,0.8*28
$GPGSV,3,1,11,02,58,095,23,06,27,047,18,12,59,005,21,14,12,296,22*72
$GPGSV,3,2,11,19,13,047,20,24,61,184,25,25,37,314,21,29,29,248,22*70
$GPGSV,3,3,11,32,08,296,21,05,01,139,,15,02,195,*4A
$GLGSV,2,1,07,74,37,132,26,86,51,234,23,75,76,019,21,84,14,030,17*68
$GLGSV,2,2,07,85,63,008,22,76,24,329,,87,,,*62
$GPGGA,160900.0,3206.092860,N,03512.234170,E,1,06,1.0,694.7,M,19.0,M,,*55
$GPVTG,57.1,T,54.2,M,3.0,N,5.5,K,A*20
$GPRMC,160900.0,A,3206.092860,N,03512.234170,E,3.0,57.1,040416,3.0,E,A*3B
$GPGSA,A,2,02,06,12,19,24,25,,,,,,,1.3,1.0,0.8*36
$GNGSA,A,2,02,06,12,19,24,25,,,,,,,1.3,1.0,0.8*28
$GNGSA,A,2,74,75,84,85,86,,,,,,,,1.3,1.0,0.8*28
$GPGSV,3,1,11,02,58,095,25,06,27,047,20,12,59,005,23,14,12,296,23*7C
$GPGSV,3,2,11,19,13,047,23,24,61,184,25,25,37,314,22,29,29,248,26*74
$GPGSV,3,3,11,32,08,296,21,05,01,139,,15,02,195,*4A
$GLGSV,2,1,07,74,37,132,27,86,51,234,23,75,76,019,20,84,14,030,14*6B
$GLGSV,2,2,07,85,63,008,23,76,24,329,,87,,,*63
$GPGGA,160901.0,3206.092898,N,03512.233969,E,1,06,1.0,694.3,M,19.0,M,,*50
$GPVTG,68.1,T,65.1,M,2.2,N,4.1,K,A*2B
$GPRMC,160901.0,A,3206.092898,N,03512.233969,E,2.2,68.1,040416,3.0,E,A*35
$GPGSA,A,2,02,06,12,19,24,25,,,,,,,1.3,1.0,0.8*36
$GNGSA,A,2,02,06,12,19,24,25,,,,,,,1.3,1.0,0.8*28
$GNGSA,A,2,74,75,84,85,86,,,,,,,,1.3,1.0,0.8*28
$GPGSV,3,1,11,02,58,095,24,06,27,047,19,12,59,005,23,14,12,296,23*77
$GPGSV,3,2,11,19,13,047,22,24,61,184,27,25,37,314,22,29,29,248,23*72
$GPGSV,3,3,11,32,08,296,23,05,01,139,,15,02,195,*48
$GLGSV,2,1,07,74,37,132,26,86,51,234,22,75,76,019,19,84,14,030,14*61
$GLGSV,2,2,07,85,63,008,22,76,24,329,,87,,,*62
$GPGGA,160902.0,3206.092497,N,03512.234961,E,1,06,1.0,694.5,M,19.0,M,,*59
$GPVTG,77.2,T,74.2,M,2.1,N,3.9,K,A*29
$GPRMC,160902.0,A,3206.092497,N,03512.234961,E,2.1,77.2,040416,3.0,E,A*34
$GPGSA,A,2,02,06,12,19,24,25,,,,,,,1.3,1.0,0.8*36
$GNGSA,A,2,02,06,12,19,24,25,,,,,,,1.3,1.0,0.8*28
$GNGSA,A,2,74,75,84,85,86,,,,,,,,1.3,1.0,0.8*28
$GPGSV,3,1,11,02,58,095,24,06,27,047,19,12,59,005,21,14,12,296,24*72
$GPGSV,3,2,11,19,13,047,19,24,61,184,27,25,37,314,23,29,29,248,24*7C
$GPGSV,3,3,11,32,08,296,25,05,01,139,,15,02,195,*4E
$GLGSV,2,1,07,74,37,132,28,86,51,234,21,75,76,019,20,84,14,030,14*66
$GLGSV,2,2,07,85,63,008,22,76,24,329,,87,,,*62
$GPGGA,160903.0,3206.093073,N,03512.236623,E,1,06,1.0,695.2,M,19.0,M,,*5A
$GPVTG,69.2,T,66.3,M,3.3,N,6.2,K,A*29
$GPRMC,160903.0,A,3206.093073,N,03512.236623,E,3.3,69.2,040416,3.0,E,A*3D
$GPGSA,A,2,02,06,12,19,24,25,,,,,,,1.3,1.0,0.8*36
$GNGSA,A,2,02,06,12,19,24,25,,,,,,,1.3,1.0,0.8*28
$GNGSA,A,2,74,75,84,85,86,,,,,,,,1.3,1.0,0.8*28
$GPGSV,3,1,11,02,58,095,24,06,27,047,21,12,59,005,20,14,12,296,25*79
$GPGSV,3,2,11,19,13,047,19,24,61,184,24,25,37,314,23,29,29,248,20*7B
$GPGSV,3,3,11,32,08,296,28,05,01,139,,15,02,195,*43
$GLGSV,2,1,07,74,37,132,25,86,51,234,23,75,76,019,19,84,14,030,16*61
$GLGSV,2,2,07,85,63,008,21,76,24,329,,87,,,*61
$GPGGA,160904.0,3206.094826,N,03512.237095,E,1,06,1.0,694.3,M,19.0,M,,*58
$GPVTG,60.3,T,57.3,M,2.6,N,4.8,K,A*2F
$GPRMC,160904.0,A,3206.094826,N,03512.237095,E,2.6,60.3,040416,3.0,E,A*33
$GPGSA,A,2,02,06,12,19,24,25,,,,,,,1.3,1.0,0.8*36
$GNGSA,A,2,02,06,12,19,24,25,,,,,,,1.3,1.0,0.8*28
$GNGSA,A,2,74,75,84,85,86,,,,,,,,1.3,1.0,0.8*28
$GPGSV,3,1,11,02,58,095,24,06,27,047,19,12,59,005,19,14,12,296,19*77
$GPGSV,3,2,11,19,13,047,19,24,61,184,26,25,37,314,20,29,29,248,23*79
$GPGSV,3,3,11,32,08,296,26,05,01,139,,15,02,195,*4D
$GLGSV,2,1,07,74,37,132,24,86,51,234,20,75,76,019,20,84,14,030,16*69
$GLGSV,2,2,07,85,63,008,18,76,24,329,,87,,,*6B
$GPGGA,160905.0,3206.095526,N,03512.238429,E,1,06,1.0,695.0,M,19.0,M,,*5B
$GPVTG,68.4,T,65.4,M,3.0,N,5.6,K,A*2E
$GPRMC,160905.0,A,3206.095526,N,03512.238429,E,3.0,68.4,040416,3.0,E,A*3A
$GPGSA,A,2,02,06,12,19,24,25,,,,,,,1.3,1.0,0.8*36
$GNGSA,A,2,02,06,12,19,24,25,,,,,,,1.3,1.0,0.8*28
$GNGSA,A,2,74,75,84,85,86,,,,,,,,1.3,1.0,0.8*28
$GPGSV,3,1,11,02,58,095,25,06,27,047,20,12,59,005,21,14,12,296,21*7C
$GPGSV,3,2,11,19,13,047,18,24,61,184,26,25,37,314,19,29,29,248,22*73
$GPGSV,3,3,11,32,08,296,25,05,01,139,,15,02,195,*4E
$GLGSV,2,1,07,74,37,132,25,86,51,234,22,75,76,019,21,84,14,030,14*69
$GLGSV,2,2,07,85,63,008,20,76,24,329,,87,,,*60
$GPGGA,160906.0,3206.096487,N,03512.239624,E,1,06,1.0,694.3,M,19.0,M,,*5D
$GPVTG,50.5,T,47.5,M,4.1,N,7.6,K,A*21
$GPRMC,160906.0,A,3206.096487,N,03512.239624,E,4.1,50.5,040416,3.0,E,A*32
$GPGSA,A,2,02,06,12,19,24,25,,,,,,,1.3,1.0,0.8*36
$GNGSA,A,2,02,06,12,19,24,25,,,,,,,1.3,1.0,0.8*28
$GNGSA,A,2,74,75,84,85,86,,,,,,,,1.3,1.0,0.8*28
$GPGSV,3,1,11,02,58,095,24,06,27,047,21,12,59,005,21,14,12,296,26*7B
$GPGSV,3,2,11,19,13,047,21,24,61,184,26,25,37,314,22,29,29,248,24*77
$GPGSV,3,3,11,32,08,296,22,05,01,139,,15,02,195,*49
$GLGSV,2,1,07,74,37,132,26,86,51,234,22,75,76,019,20,84,14,030,14*6B
$GLGSV,2,2,07,85,63,008,24,76,24,329,,87,,,*64
$GPGGA,160907.0,3206.096706,N,03512.240509,E,1,06,1.0,693.2,M,19.0,M,,*52
$GPVTG,49.4,T,46.4,M,3.3,N,6.2,K,A*28
$GPRMC,160907.0,A,3206.096706,N,03512.240509,E,3.3,49.4,040416,3.0,E,A*37
$GPGSA,A,2,02,06,12,19,24,25,,,,,,,1.3,1.0,0.8*36
$GNGSA,A,2,02,06,12,19,24,25,,,,,,,1.3,1.0,0.8*28
$GNGSA,A,2,74,75,84,85,86,,,,,,,,1.3,1.0,0.8*28
$GPGSV,3,1,11,02,58,095,22,06,27,047,21,12,59,005,22,14,12,296,18*73
$GPGSV,3,2,11,19,13,047,19,24,61,184,27,25,37,314,22,29,29,248,19*73
$GPGSV,3,3,11,32,08,296,20,05,01,139,,15,02,195,*4B
$GLGSV,2,1,07,74,37,132,26,86,51,234,22,75,76,019,20,84,14,030,17*68
$GLGSV,2,2,07,85,63,008,18,76,24,329,,87,,,*6B
$GPGGA,160908.0,3206.096866,N,03512.241367,E,1,06,1.0,693.0,M,19.0,M,,*59
$GPVTG,48.3,T,45.4,M,3.6,N,6.8,K,A*22
$GPRMC,160908.0,A,3206.096866,N,03512.241367,E,3.6,48.3,040416,3.0,E,A*3D
$GPGSA,A,2,02,06,12,19,24,25,,,,,,,1.3,1.0,0.8*36
