$GPGGA,163418.0,3205.252545,N,03453.339208,E,1,04,1.4,43.5,M,19.0,M,,*69
$GPVTG,298.4,T,298.4,M,0.0,N,0.0,K,A*23
$GPRMC,163418.0,A,3205.252545,N,03453.339208,E,0.0,298.4,040416,0.0,E,A*0B
$GPGSA,A,2,02,06,12,24,,,,,,,,,1.7,1.4,0.9*38
$GNGSA,A,2,02,06,12,24,,,,,,,,,1.7,1.4,0.9*26
$GNGSA,A,2,74,75,85,86,,,,,,,,,1.7,1.4,0.9*25
$GPGSV,3,1,11,02,56,071,17,06,18,042,19,12,62,033,24,24,47,180,28*7C
$GPGSV,3,2,11,29,37,260,15,05,08,130,,14,11,284,,19,04,053,*79
$GPGSV,3,3,11,25,46,326,,31,,,,32,07,285,*70
$GLGSV,2,1,07,74,25,143,21,86,61,260,26,75,80,112,15,85,49,016,22*62
$GLGSV,2,2,07,76,37,330,,84,03,036,,87,09,227,*5C
$GPGGA,163419.0,3205.253516,N,03453.340663,E,1,04,1.4,49.8,M,19.0,M,,*6F
$GPVTG,298.4,T,298.4,M,0.0,N,0.0,K,A*23
$GPRMC,163419.0,A,3205.253516,N,03453.340663,E,0.0,298.4,040416,0.0,E,A*0A
$GPGSA,A,2,02,06,12,24,,,,,,,,,1.7,1.4,0.9*38
$GNGSA,A,2,02,06,12,24,,,,,,,,,1.7,1.4,0.9*26
$GNGSA,A,2,74,75,85,86,,,,,,,,,1.7,1.4,0.9*25
$GPGSV,3,1,11,02,56,071,20,06,18,042,19,12,62,033,27,24,47,180,30*72
$GPGSV,3,2,11,29,37,260,15,05,08,130,,14,11,284,,19,04,053,*79
$GPGSV,3,3,11,25,46,326,,31,,,,32,07,285,*70
$GLGSV,2,1,07,74,25,143,22,86,61,260,24,75,80,112,15,85,49,016,29*68
$GLGSV,2,2,07,76,37,330,,84,03,036,,87,09,227,*5C
$GPGGA,163420.0,3205.253238,N,03453.340292,E,1,05,1.1,42.8,M,19.0,M,,*6B
$GPVTG,298.4,T,298.4,M,0.0,N,0.0,K,A*23
$GPRMC,163420.0,A,3205.253238,N,03453.340292,E,0.0,298.4,040416,0.0,E,A*01
$GPGSA,A,2,02,06,12,24,29,,,,,,,,1.4,1.1,0.9*35
$GNGSA,A,2,02,06,12,24,29,,,,,,,,1.4,1.1,0.9*2B
$GNGSA,A,2,74,75,85,86,,,,,,,,,1.4,1.1,0.9*23
$GPGSV,3,1,11,02,56,071,24,06,18,042,19,12,62,033,26,24,47,180,21*77
$GPGSV,3,2,11,29,37,260,19,05,08,130,,14,11,284,,19,04,053,*75
$GPGSV,3,3,11,25,46,326,,31,,,,32,07,285,*70
$GLGSV,2,1,07,74,25,143,21,86,61,260,22,75,80,112,15,85,49,016,30*65
$GLGSV,2,2,07,76,37,330,,84,03,036,,87,09,227,*5C
$GPGGA,163421.0,3205.253277,N,03453.341070,E,1,05,1.1,36.5,M,19.0,M,,*60
$GPVTG,298.4,T,298.4,M,0.0,N,0.0,K,A*23
$GPRMC,163421.0,A,3205.253277,N,03453.341070,E,0.0,298.4,040416,0.0,E,A*04
$GPGSA,A,2,02,06,12,24,29,,,,,,,,1.4,1.1,0.9*35
$GNGSA,A,2,02,06,12,24,29,,,,,,,,1.4,1.1,0.9*2B
$GNGSA,A,2,74,75,85,86,,,,,,,,,1.4,1.1,0.9*23
$GPGSV,3,1,11,02,56,071,19,06,18,042,19,12,62,033,21,24,47,180,23*7C
$GPGSV,3,2,11,29,37,260,20,05,08,130,,14,11,284,,19,04,053,*7F
$GPGSV,3,3,11,25,46,326,,31,,,,32,07,285,*70
$GLGSV,2,1,07,74,25,143,22,86,61,260,19,75,80,112,16,85,49,016,20*6C
$GLGSV,2,2,07,76,37,330,,84,03,036,,87,09,227,*5C
$GPGGA,163422.0,3205.251703,N,03453.343190,E,1,05,1.1,42.2,M,19.0,M,,*6E
$GPVTG,298.4,T,298.4,M,0.0,N,0.0,K,A*23
$GPRMC,163422.0,A,3205.251703,N,03453.343190,E,0.0,298.4,040416,0.0,E,A*0E
$GPGSA,A,2,02,06,12,24,29,,,,,,,,1.4,1.1,0.9*35
$GNGSA,A,2,02,06,12,24,29,,,,,,,,1.4,1.1,0.9*2B
$GNGSA,A,2,74,75,85,86,,,,,,,,,1.4,1.1,0.9*23
$GPGSV,3,1,11,02,56,071,19,06,18,042,19,12,62,033,19,24,47,180,23*77
$GPGSV,3,2,11,29,37,260,19,05,08,130,,14,11,284,,19,04,053,*75
$GPGSV,3,3,11,25,46,326,,31,,,,32,07,285,*70
$GLGSV,2,1,07,74,25,143,17,86,61,260,20,75,80,112,16,85,49,016,20*60
$GLGSV,2,2,07,76,37,330,,84,03,036,,87,09,227,*5C
$GPGGA,163423.0,3205.251184,N,03453.343353,E,1,04,1.2,31.0,M,19.0,M,,*6F
$GPVTG,298.4,T,298.4,M,0.0,N,0.0,K,A*23
$GPRMC,163423.0,A,3205.251184,N,03453.343353,E,0.0,298.4,040416,0.0,E,A*0B
$GPGSA,A,2,02,12,24,29,,,,,,,,,1.5,1.2,0.9*31
$GNGSA,A,2,02,12,24,29,,,,,,,,,1.5,1.2,0.9*2F
$GNGSA,A,2,74,75,85,86,,,,,,,,,1.5,1.2,0.9*21
$GPGSV,3,1,11,02,56,071,20,06,18,042,19,12,62,033,19,24,47,180,24*7A
$GPGSV,3,2,11,29,37,260,17,05,08,130,,14,11,284,,19,04,053,*7B
$GPGSV,3,3,11,25,46,326,,31,,,,32,07,285,*70
$GLGSV,2,1,07,74,25,143,23,86,61,260,22,75,80,112,16,85,49,016,21*64
$GLGSV,2,2,07,76,37,330,,84,03,036,,87,09,227,*5C
$GPGGA,163424.0,3205.250705,N,03453.343829,E,1,04,1.2,30.9,M,19.0,M,,*68
$GPVTG,298.4,T,298.4,M,0.0,N,0.0,K,A*23
$GPRMC,163424.0,A,3205.250705,N,03453.343829,E,0.0,298.4,040416,0.0,E,A*04
$GPGSA,A,2,02,12,24,29,,,,,,,,,1.5,1.2,0.9*31
$GNGSA,A,2,02,12,24,29,,,,,,,,,1.5,1.2,0.9*2F
$GNGSA,A,2,74,75,85,86,,,,,,,,,1.5,1.2,0.9*21
$GPGSV,3,1,11,02,56,071,23,06,18,042,19,12,62,033,16,24,47,180,30*73
$GPGSV,3,2,11,29,37,260,17,05,08,130,,14,11,284,,19,04,053,*7B
$GPGSV,3,3,11,25,46,326,,31,,,,32,07,285,*70
$GLGSV,2,1,07,74,25,143,24,86,61,260,22,75,80,112,20,85,49,016,23*64
$GLGSV,2,2,07,76,37,330,,84,03,036,,87,09,227,*5C
$GPGGA,163425.0,3205.249984,N,03453.344163,E,1,04,1.2,31.2,M,19.0,M,,*6C
$GPVTG,298.4,T,298.4,M,0.0,N,0.0,K,A*23
$GPRMC,163425.0,A,3205.249984,N,03453.344163,E,0.0,298.4,040416,0.0,E,A*0A
$GPGSA,A,2,02,12,24,29,,,,,,,,,1.5,1.2,0.9*31
$GNGSA,A,2,02,12,24,29,,,,,,,,,1.5,1.2,0.9*2F
$GNGSA,A,2,74,75,85,86,,,,,,,,,1.5,1.2,0.9*21
$GPGSV,3,1,11,02,56,071,23,06,18,042,19,12,62,033,17,24,47,180,28*7B
$GPGSV,3,2,11,29,37,260,17,05,08,130,,14,11,284,,19,04,053,*7B
$GPGSV,3,3,11,25,46,326,,31,,,,32,07,285,*70
$GLGSV,2,1,07,74,25,143,27,86,61,260,22,75,80,112,22,85,49,016,25*63
$GLGSV,2,2,07,76,37,330,,84,03,036,,87,09,227,*5C
$GPGGA,163426.0,3205.249529,N,03453.344704,E,1,04,1.2,36.3,M,19.0,M,,*65
$GPVTG,298.4,T,298.4,M,0.0,N,0.0,K,A*23
$GPRMC,163426.0,A,3205.249529,N,03453.344704,E,0.0,298.4,040416,0.0,E,A*05
$GPGSA,A,2,02,12,24,29,,,,,,,,,1.5,1.2,0.9*31
$GNGSA,A,2,02,12,24,29,,,,,,,,,1.5,1.2,0.9*2F
$GNGSA,A,2,74,75,85,86,,,,,,,,,1.5,1.2,0.9*21
$GPGSV,3,1,11,02,56,071,22,06,18,042,19,12,62,033,17,24,47,180,29*7B
$GPGSV,3,2,11,29,37,260,17,05,08,130,,14,11,284,,19,04,053,*7B
$GPGSV,3,3,11,25,46,326,,31,,,,32,07,285,*70
$GLGSV,2,1,07,74,25,143,24,86,61,260,22,75,80,112,21,85,49,016,23*65
$GLGSV,2,2,07,76,37,330,,84,03,036,,87,09,227,*5C
$GPGGA,163427.0,3205.249263,N,03453.344677,E,1,04,1.2,37.6,M,19.0,M,,*6C
$GPVTG,298.4,T,298.4,M,0.0,N,0.0,K,A*23
$GPRMC,163427.0,A,3205.249263,N,03453.344677,E,0.0,298.4,040416,0.0,E,A*08
$GPGSA,A,2,02,12,24,29,,,,,,,,,1.5,1.2,0.9*31
$GNGSA,A,2,02,12,24,29,,,,,,,,,1.5,1.2,0.9*2F
$GNGSA,A,2,74,75,85,86,,,,,,,,,1.5,1.2,0.9*21
$GPGSV,3,1,11,02,56,071,23,06,18,042,11,12,62,033,17,24,47,180,29*72
$GPGSV,3,2,11,29,37,260,17,05,08,130,,14,11,284,,19,04,053,*7B
$GPGSV,3,3,11,25,46,326,,31,,,,32,07,285,*70
$GLGSV,2,1,07,74,25,143,19,86,61,260,14,75,80,112,22,85,49,016,23*6D
$GLGSV,2,2,07,76,37,330,,84,03,036,,87,09,227,*5C
$GPGGA,163428.0,3205.249099,N,03453.344870,E,1,05,1.1,39.3,M,19.0,M,,*64
$GPVTG,298.4,T,298.4,M,0.0,N,0.0,K,A*23
$GPRMC,163428.0,A,3205.249099,N,03453.344870,E,0.0,298.4,040416,0.0,E,A*09
$GPGSA,A,2,02,06,12,24,29,,,,,,,,1.4,1.1,0.9*35
$GNGSA,A,2,02,06,12,24,29,,,,,,,,1.4,1.1,0.9*2B
$GNGSA,A,2,74,75,85,86,,,,,,,,,1.4,1.1,0.9*23
$GPGSV,3,1,11,02,56,071,24,06,18,042,11,12,62,033,16,24,47,180,29*74
$GPGSV,3,2,11,29,37,260,15,05,08,130,,14,11,284,,19,04,053,*79
$GPGSV,3,3,11,25,46,326,,31,,,,32,07,285,*70
$GLGSV,2,1,07,74,25,143,22,86,61,260,20,75,80,112,20,85,49,016,25*66
$GLGSV,2,2,07,76,37,330,,84,03,036,,87,09,227,*5C
$GPGGA,163429.0,3205.247502,N,03453.345345,E,1,05,1.1,39.2,M,19.0,M,,*61
$GPVTG,165.8,T,165.8,M,9.7,N,18.0,K,A*14
$GPRMC,163429.0,A,3205.247502,N,03453.345345,E,9.7,165.8,040416,0.0,E,A*0E
$GPGSA,A,2,02,06,12,24,29,,,,,,,,1.4,1.1,0.9*35
$GNGSA,A,2,02,06,12,24,29,,,,,,,,1.4,1.1,0.9*2B
$GNGSA,A,2,74,75,85,86,,,,,,,,,1.4,1.1,0.9*23
$GPGSV,3,1,11,02,56,071,24,06,18,042,11,12,62,033,19,24,47,180,30*73
$GPGSV,3,2,11,25,46,326,15,29,37,260,15,05,08,130,,14,11,284,*75
$GPGSV,3,3,11,19,04,053,,31,,,,32,07,285,*78
$GLGSV,2,1,07,74,25,143,24,86,61,260,20,75,80,112,19,85,49,016,25*6A
$GLGSV,2,2,07,76,37,330,,84,03,036,,87,09,227,*5C
$GPGGA,163430.0,3205.242281,N,03453.347111,E,1,05,1.1,40.7,M,19.0,M,,*6A
$GPVTG,169.7,T,169.7,M,11.9,N,22.0,K,A*2A
$GPRMC,163430.0,A,3205.242281,N,03453.347111,E,11.9,169.7,040416,0.0,E,A*3A
$GPGSA,A,2,02,06,12,24,29,,,,,,,,1.4,1.1,0.9*35
$GNGSA,A,2,02,06,12,24,29,,,,,,,,1.4,1.1,0.9*2B
$GNGSA,A,2,74,75,85,86,,,,,,,,,1.4,1.1,0.9*23
$GPGSV,3,1,11,02,56,071,24,06,18,042,15,12,62,033,22,24,47,180,30*7F
$GPGSV,3,2,11,25,46,326,16,29,37,260,15,05,08,130,,14,11,284,*76
$GPGSV,3,3,11,19,04,053,,31,,,,32,07,285,*78
$GLGSV,2,1,07,74,25,143,24,86,61,260,20,75,80,112,20,85,49,016,23*66
$GLGSV,2,2,07,76,37,330,,84,03,036,,87,09,227,*5C
$GPGGA,163431.0,3205.233055,N,03453.341818,E,1,06,1.0,52.0,M,19.0,M,,*66
$GPVTG,188.9,T,188.9,M,13.0,N,24.0,K,A*27
$GPRMC,163431.0,A,3205.233055,N,03453.341818,E,13.0,188.9,040416,0.0,E,A*3A
$GPGSA,A,2,02,06,12,24,25,29,,,,,,,1.3,1.0,0.9*34
$GNGSA,A,2,02,06,12,24,25,29,,,,,,,1.3,1.0,0.9*2A
$GNGSA,A,2,74,75,85,86,,,,,,,,,1.3,1.0,0.9*25
$GPGSV,3,1,11,02,56,071,24,06,18,042,17,12,62,033,17,24,47,180,30*7B
$GPGSV,3,2,11,25,46,326,16,29,37,260,15,05,08,130,,14,11,284,*76
$GPGSV,3,3,11,19,04,053,,31,,,,32,07,285,*78
$GLGSV,2,1,07,74,25,143,24,86,61,260,20,75,80,112,18,85,49,016,27*69
$GLGSV,2,2,07,76,37,330,,84,03,036,,87,09,227,*5C
$GPGGA,163432.0,3205.226730,N,03453.339871,E,1,06,1.0,60.9,M,19.0,M,,*6D
$GPVTG,193.0,T,193.0,M,12.9,N,23.9,K,A*21
$GPRMC,163432.0,A,3205.226730,N,03453.339871,E,12.9,193.0,040416,0.0,E,A*32
$GPGSA,A,2,02,06,12,24,25,29,,,,,,,1.3,1.0,0.9*34
$GNGSA,A,2,02,06,12,24,25,29,,,,,,,1.3,1.0,0.9*2A
$GNGSA,A,2,74,75,85,86,,,,,,,,,1.3,1.0,0.9*25
$GPGSV,3,1,11,02,56,071,23,06,18,042,19,12,62,033,17,24,47,180,27*74
$GPGSV,3,2,11,25,46,326,16,29,37,260,15,05,08,130,,14,11,284,*76
$GPGSV,3,3,11,19,04,053,,31,,,,32,07,285,*78
$GLGSV,2,1,07,74,25,143,24,86,61,260,20,75,80,112,19,85,49,016,25*6A
$GLGSV,2,2,07,76,37,330,,84,03,036,,87,09,227,*5C
$GPGGA,163433.0,3205.223928,N,03453.340319,E,1,06,1.0,81.8,M,19.0,M,,*6B
$GPVTG,188.9,T,188.9,M,8.8,N,16.3,K,A*17
$GPRMC,163433.0,A,3205.223928,N,03453.340319,E,8.8,188.9,040416,0.0,E,A*03
$GPGSA,A,2,02,06,12,24,25,29,,,,,,,1.3,1.0,0.9*34
$GNGSA,A,2,02,06,12,24,25,29,,,,,,,1.3,1.0,0.9*2A
$GNGSA,A,2,74,75,85,86,,,,,,,,,1.3,1.0,0.9*25
$GPGSV,3,1,11,02,56,071,20,06,18,042,18,12,62,033,15,24,47,180,27*74
$GPGSV,3,2,11,25,46,326,16,29,37,260,15,05,08,130,,14,11,284,*76
$GPGSV,3,3,11,19,04,053,,31,,,,32,07,285,*78
$GLGSV,2,1,07,74,25,143,24,86,61,260,20,75,80,112,25,85,49,016,26*66
$GLGSV,2,2,07,76,37,330,,84,03,036,,87,09,227,*5C
$GPGGA,163434.0,3205.221312,N,03453.341556,E,1,06,1.0,89.4,M,19.0,M,,*65
$GPVTG,173.7,T,173.7,M,7.0,N,13.0,K,A*16
$GPRMC,163434.0,A,3205.221312,N,03453.341556,E,7.0,173.7,040416,0.0,E,A*04
$GPGSA,A,2,02,06,12,24,25,29,,,,,,,1.3,1.0,0.9*34
$GNGSA,A,2,02,06,12,24,25,29,,,,,,,1.3,1.0,0.9*2A
$GNGSA,A,2,74,75,85,86,,,,,,,,,1.3,1.0,0.9*25
$GPGSV,3,1,11,02,56,071,25,06,18,042,18,12,62,033,23,24,47,180,23*70
$GPGSV,3,2,11,25,46,326,16,29,38,261,13,05,08,130,,14,11,284,*7E
$GPGSV,3,3,11,19,04,053,,31,,,,32,07,285,*78
$GLGSV,2,1,07,74,25,143,24,86,61,260,14,75,80,112,24,85,49,016,29*6F
$GLGSV,2,2,07,76,37,330,,84,02,036,,87,09,227,*5D
$GPGGA,163435.0,3205.218365,N,03453.344255,E,1,06,1.0,66.5,M,19.0,M,,*6F
$GPVTG,154.8,T,154.8,M,5.9,N,11.0,K,A*1F
$GPRMC,163435.0,A,3205.218365,N,03453.344255,E,5.9,154.8,040416,0.0,E,A*0F
$GPGSA,A,2,02,06,12,24,25,29,,,,,,,1.3,1.0,0.9*34
$GNGSA,A,2,02,06,12,24,25,29,,,,,,,1.3,1.0,0.9*2A
$GNGSA,A,2,74,75,85,86,,,,,,,,,1.3,1.0,0.9*25
$GPGSV,3,1,11,02,56,071,19,06,18,042,18,12,62,033,18,24,47,180,22*76
$GPGSV,3,2,11,25,46,326,16,29,38,261,19,05,08,130,,14,11,284,*74
$GPGSV,3,3,11,19,04,053,,31,,,,32,07,285,*78
$GLGSV,2,1,07,74,25,143,24,86,61,260,14,75,80,112,24,85,49,016,27*61
$GLGSV,2,2,07,76,37,330,,84,02,036,,87,09,227,*5D
$GPGGA,163436.0,3205.216366,N,03453.348035,E,1,06,1.0,73.5,M,19.0,M,,*6D
$GPVTG,158.1,T,158.1,M,4.6,N,8.6,K,A*2F
$GPRMC,163436.0,A,3205.216366,N,03453.348035,E,4.6,158.1,040416,0.0,E,A*02
$GPGSA,A,2,02,06,12,24,25,29,,,,,,,1.3,1.0,0.9*34
$GNGSA,A,2,02,06,12,24,25,29,,,,,,,1.3,1.0,0.9*2A
$GNGSA,A,2,74,75,85,86,,,,,,,,,1.3,1.0,0.9*25
$GPGSV,3,1,11,02,56,071,17,06,18,042,18,12,62,033,17,24,47,180,21*74
$GPGSV,3,2,11,25,46,326,16,29,38,261,19,05,08,130,,14,11,284,*74
$GPGSV,3,3,11,19,04,053,,31,,,,32,07,285,*78
$GLGSV,2,1,07,74,25,143,24,86,61,260,16,75,80,112,21,85,49,016,24*65
$GLGSV,2,2,07,76,37,330,,84,02,036,,87,09,227,*5D
$GPGGA,163437.0,3205.215463,N,03453.349385,E,1,06,1.2,75.0,M,19.0,M,,*65
$GPVTG,146.4,T,146.4,M,3.1,N,5.8,K,A*2C
$GPRMC,163437.0,A,3205.215463,N,03453.349385,E,3.1,146.4,040416,0.0,E,A*01
$GPGSA,A,2,02,06,12,24,25,29,,,,,,,1.5,1.2,0.9*30
$GNGSA,A,2,02,06,12,24,25,29,,,,,,,1.5,1.2,0.9*2E
$GNGSA,A,2,75,85,86,,,,,,,,,,1.5,1.2,0.9*22
$GPGSV,3,1,11,02,56,071,17,06,18,042,18,12,62,033,17,24,47,180,25*70
$GPGSV,3,2,11,25,46,326,16,29,38,261,16,05,08,130,,14,11,284,*7B
$GPGSV,3,3,11,19,04,053,,31,,,,32,07,285,*78
$GLGSV,2,1,07,74,25,143,24,86,61,260,23,75,80,112,22,85,49,016,21*65
$GLGSV,2,2,07,76,37,330,,84,02,036,,87,09,227,*5D
$GPGGA,163438.0,3205.213812,N,03453.351160,E,1,06,1.2,76.0,M,19.0,M,,*65
$GPVTG,140.7,T,140.7,M,1.5,N,2.9,K,A*2C
$GPRMC,163438.0,A,3205.213812,N,03453.351160,E,1.5,140.7,040416,0.0,E,A*01
$GPGSA,A,2,02,06,12,24,25,29,,,,,,,1.5,1.2,0.9*30
$GNGSA,A,2,02,06,12,24,25,29,,,,,,,1.5,1.2,0.9*2E
$GNGSA,A,2,75,85,86,,,,,,,,,,1.5,1.2,0.9*22
$GPGSV,3,1,11,02,56,071,17,06,18,042,14,12,62,033,17,24,47,180,23*7A
$GPGSV,3,2,11,25,46,326,15,29,38,261,22,05,08,130,,14,11,284,*7F
$GPGSV,3,3,11,19,04,053,,31,,,,32,07,285,*78
$GLGSV,2,1,07,74,25,143,10,86,61,260,24,75,80,112,25,85,49,016,20*63
$GLGSV,2,2,07,76,37,330,,84,02,036,,87,09,227,*5D
$GPGGA,163439.0,3205.213033,N,03453.353828,E,1,06,1.0,82.3,M,19.0,M,,*62
$GPVTG,140.7,T,140.7,M,1.3,N,2.4,K,A*27
$GPRMC,163439.0,A,3205.213033,N,03453.353828,E,1.3,140.7,040416,0.0,E,A*0A
$GPGSA,A,2,02,06,12,24,25,29,,,,,,,1.3,1.0,0.9*34
$GNGSA,A,2,02,06,12,24,25,29,,,,,,,1.3,1.0,0.9*2A
$GNGSA,A,2,74,75,85,86,,,,,,,,,1.3,1.0,0.9*25
$GPGSV,3,1,11,02,56,071,17,06,18,042,19,12,62,033,17,24,47,180,23*77
$GPGSV,3,2,11,25,46,326,15,29,38,261,22,05,08,130,,14,11,284,*7F
$GPGSV,3,3,11,19,04,053,,31,,,,32,07,285,*78
$GLGSV,2,1,07,74,25,143,10,86,61,260,23,75,80,112,24,85,49,016,22*67
$GLGSV,2,2,07,76,37,330,,84,02,036,,87,09,227,*5D
$GPGGA,163440.0,3205.212544,N,03453.353222,E,1,06,1.0,86.1,M,19.0,M,,*6E
$GPVTG,140.7,T,140.7,M,0.4,N,0.8,K,A*2F
$GPRMC,163440.0,A,3205.212544,N,03453.353222,E,0.4,140.7,040416,0.0,E,A*06
$GPGSA,A,2,02,06,12,24,25,29,,,,,,,1.3,1.0,0.9*34
$GNGSA,A,2,02,06,12,24,25,29,,,,,,,1.3,1.0,0.9*2A
$GNGSA,A,2,74,75,85,86,,,,,,,,,1.3,1.0,0.9*25
$GPGSV,3,1,11,02,56,071,17,06,18,042,20,12,62,033,17,24,47,180,25*7B
$GPGSV,3,2,11,25,46,326,19,29,38,261,19,05,08,130,,14,11,284,*7B
$GPGSV,3,3,11,19,04,053,,31,,,,32,07,285,*78
$GLGSV,2,1,07,74,25,143,10,86,61,260,24,75,80,112,24,85,49,016,24*66
$GLGSV,2,2,07,76,37,330,,84,02,036,,87,09,227,*5D
$GPGGA,163441.0,3205.212339,N,03453.354268,E,1,06,1.0,88.4,M,19.0,M,,*61
$GPVTG,140.7,T,140.7,M,0.4,N,0.7,K,A*20
$GPRMC,163441.0,A,3205.212339,N,03453.354268,E,0.4,140.7,040416,0.0,E,A*02
$GPGSA,A,2,02,06,12,24,25,29,,,,,,,1.3,1.0,0.9*34
$GNGSA,A,2,02,06,12,24,25,29,,,,,,,1.3,1.0,0.9*2A
$GNGSA,A,2,74,75,85,86,,,,,,,,,1.3,1.0,0.9*25
$GPGSV,3,1,11,02,56,071,17,06,18,042,19,12,62,033,17,24,47,180,25*71
$GPGSV,3,2,11,25,46,326,20,29,38,261,20,05,08,130,,14,11,284,*7B
$GPGSV,3,3,11,19,04,053,,31,,,,32,07,285,*78
$GLGSV,2,1,07,74,25,143,10,86,61,260,24,75,80,112,24,85,49,016,24*66
$GLGSV,2,2,07,76,37,330,,84,02,036,,87,09,227,*5D
$GPGGA,163442.0,3205.211366,N,03453.355360,E,1,06,1.0,88.6,M,19.0,M,,*61
$GPVTG,140.7,T,140.7,M,0.4,N,0.7,K,A*20
$GPRMC,163442.0,A,3205.211366,N,03453.355360,E,0.4,140.7,040416,0.0,E,A*00
$GPGSA,A,2,02,06,12,24,25,29,,,,,,,1.3,1.0,0.9*34
$GNGSA,A,2,02,06,12,24,25,29,,,,,,,1.3,1.0,0.9*2A
$GNGSA,A,2,74,75,85,86,,,,,,,,,1.3,1.0,0.9*25
$GPGSV,3,1,11,02,56,071,17,06,18,042,19,12,62,033,17,24,47,180,24*70
$GPGSV,3,2,11,25,46,326,19,29,38,261,21,05,08,130,,14,11,284,*70
$GPGSV,3,3,11,19,04,053,,31,,,,32,07,285,*78
$GLGSV,2,1,07,74,25,143,14,86,61,260,25,75,80,112,24,85,49,016,23*64
$GLGSV,2,2,07,76,37,330,,84,02,036,,87,09,227,*5D
$GPGGA,163443.0,3205.211038,N,03453.355189,E,1,06,1.0,89.4,M,19.0,M,,*6E
$GPVTG,140.7,T,140.7,M,0.5,N,0.9,K,A*2F
$GPRMC,163443.0,A,3205.211038,N,03453.355189,E,0.5,140.7,040416,0.0,E,A*0D
$GPGSA,A,2,02,06,12,24,25,29,,,,,,,1.3,1.0,0.9*34
$GNGSA,A,2,02,06,12,24,25,29,,,,,,,1.3,1.0,0.9*2A
$GNGSA,A,2,74,75,85,86,,,,,,,,,1.3,1.0,0.9*25
$GPGSV,3,1,11,02,56,071,17,06,18,042,19,12,62,033,17,24,47,180,24*70
$GPGSV,3,2,11,25,46,326,19,29,38,261,20,05,08,130,,14,11,284,*71
$GPGSV,3,3,11,19,04,053,,31,,,,32,07,285,*78
$GLGSV,2,1,07,74,25,143,14,86,61,260,25,75,80,112,22,85,49,016,24*65
$GLGSV,2,2,07,76,37,330,,84,02,036,,87,09,227,*5D
$GPGGA,163444.0,3205.211254,N,03453.355524,E,1,04,1.1,88.7,M,19.0,M,,*63
$GPVTG,140.7,T,140.7,M,0.7,N,1.4,K,A*21
$GPRMC,163444.0,A,3205.211254,N,03453.355524,E,0.7,140.7,040416,0.0,E,A*03
$GPGSA,A,2,06,24,25,29,,,,,,,,,1.4,1.1,0.9*33
$GNGSA,A,2,06,24,25,29,,,,,,,,,1.4,1.1,0.9*2D
$GNGSA,A,2,74,75,85,86,,,,,,,,,1.4,1.1,0.9*23
$GPGSV,3,1,11,02,56,071,17,06,18,042,14,12,62,033,17,24,47,180,26*7F
$GPGSV,3,2,11,25,46,326,19,29,38,261,20,05,08,130,,14,11,284,*71
$GPGSV,3,3,11,19,04,053,,31,,,,32,07,285,*78
$GLGSV,2,1,07,74,25,143,14,86,61,260,26,75,80,112,22,85,49,016,25*67
$GLGSV,2,2,07,76,37,330,,84,02,036,,87,09,227,*5D
$GPGGA,163445.0,3205.210878,N,03453.356375,E,1,04,1.1,89.0,M,19.0,M,,*60
$GPVTG,140.7,T,140.7,M,0.0,N,0.0,K,A*23
$GPRMC,163445.0,A,3205.210878,N,03453.356375,E,0.0,140.7,040416,0.0,E,A*01
$GPGSA,A,2,06,24,25,29,,,,,,,,,1.4,1.1,0.9*33
$GNGSA,A,2,06,24,25,29,,,,,,,,,1.4,1.1,0.9*2D
$GNGSA,A,2,74,75,85,86,,,,,,,,,1.4,1.1,0.9*23
$GPGSV,3,1,11,02,56,071,17,06,18,042,14,12,62,033,12,24,47,180,24*78
$GPGSV,3,2,11,25,46,326,19,29,38,261,19,05,08,130,,14,11,284,*7B
$GPGSV,3,3,11,19,04,053,,31,,,,32,07,285,*78
$GLGSV,2,1,07,74,25,143,14,86,61,260,25,75,80,112,23,85,49,016,25*65
$GLGSV,2,2,07,76,37,330,,84,02,036,,87,09,227,*5D
$GPGGA,163446.0,3205.210549,N,03453.357252,E,1,05,1.0,89.9,M,19.0,M,,*60
$GPVTG,140.7,T,140.7,M,0.0,N,0.0,K,A*23
$GPRMC,163446.0,A,3205.210549,N,03453.357252,E,0.0,140.7,040416,0.0,E,A*08
$GPGSA,A,2,06,12,24,25,29,,,,,,,,1.4,1.0,0.9*31
$GNGSA,A,2,06,12,24,25,29,,,,,,,,1.4,1.0,0.9*2F
$GNGSA,A,2,74,75,85,86,,,,,,,,,1.4,1.0,0.9*22
$GPGSV,3,1,11,02,56,071,17,06,18,042,14,12,62,033,20,24,47,180,24*79
$GPGSV,3,2,11,25,46,326,19,29,38,261,21,05,08,130,,14,11,284,*70
$GPGSV,3,3,11,19,04,053,,31,,,,32,07,285,*78
$GLGSV,2,1,07,74,25,143,14,86,61,260,25,75,80,112,23,85,49,016,30*61
$GLGSV,2,2,07,76,37,330,,84,02,036,,87,09,227,*5D
$GPGGA,163447.0,3205.210181,N,03453.358070,E,1,05,1.0,92.2,M,19.0,M,,*6D
$GPVTG,140.7,T,140.7,M,0.0,N,0.0,K,A*23
$GPRMC,163447.0,A,3205.210181,N,03453.358070,E,0.0,140.7,040416,0.0,E,A*04
$GPGSA,A,2,06,12,24,25,29,,,,,,,,1.4,1.0,0.9*31
$GNGSA,A,2,06,12,24,25,29,,,,,,,,1.4,1.0,0.9*2F
$GNGSA,A,2,74,75,85,86,,,,,,,,,1.4,1.0,0.9*22
$GPGSV,3,1,11,02,56,071,12,06,18,042,14,12,62,033,20,24,47,180,15*7E
$GPGSV,3,2,11,25,46,326,19,29,38,261,26,05,08,130,,14,11,284,*77
$GPGSV,3,3,11,19,04,053,,31,,,,32,07,285,*78
$GLGSV,2,1,07,74,25,143,14,86,61,260,17,75,80,112,23,85,49,016,32*62
$GLGSV,2,2,07,76,37,330,,84,02,036,,87,09,227,*5D
$GPGGA,163448.0,3205.209946,N,03453.358916,E,1,06,1.0,93.6,M,19.0,M,,*66
$GPVTG,140.7,T,140.7,M,0.0,N,0.0,K,A*23
$GPRMC,163448.0,A,3205.209946,N,03453.358916,E,0.0,140.7,040416,0.0,E,A*09
$GPGSA,A,2,02,06,12,24,25,29,,,,,,,1.3,1.0,0.9*34
$GNGSA,A,2,02,06,12,24,25,29,,,,,,,1.3,1.0,0.9*2A
$GNGSA,A,2,74,75,85,86,,,,,,,,,1.3,1.0,0.9*25
$GPGSV,3,1,11,02,56,071,12,06,18,042,14,12,62,033,20,24,47,180,15*7E
$GPGSV,3,2,11,25,46,326,19,29,38,261,27,05,08,130,,14,11,284,*76
$GPGSV,3,3,11,19,04,053,,31,,,,32,07,285,*78
$GLGSV,2,1,07,74,25,143,12,86,61,260,17,75,80,112,24,85,49,016,26*66
$GLGSV,2,2,07,76,37,330,,84,02,036,,87,09,227,*5D
$GPGGA,163449.0,3205.209721,N,03453.359563,E,1,06,1.0,96.1,M,19.0,M,,*65
$GPVTG,140.7,T,140.7,M,0.0,N,0.0,K,A*23
$GPRMC,163449.0,A,3205.209721,N,03453.359563,E,0.0,140.7,040416,0.0,E,A*08
$GPGSA,A,2,02,06,12,24,25,29,,,,,,,1.3,1.0,0.9*34
$GNGSA,A,2,02,06,12,24,25,29,,,,,,,1.3,1.0,0.9*2A
$GNGSA,A,2,74,75,85,86,,,,,,,,,1.3,1.0,0.9*25
$GPGSV,3,1,11,02,56,071,22,06,18,042,14,12,62,033,20,24,47,180,15*7D
$GPGSV,3,2,11,25,46,326,15,29,38,261,22,05,08,130,,14,11,284,*7F
$GPGSV,3,3,11,19,04,053,,31,,,,32,07,285,*78
$GLGSV,2,1,07,74,25,143,12,86,61,260,21,75,80,112,24,85,49,016,19*6F
$GLGSV,2,2,07,76,37,330,,84,02,036,,87,09,227,*5D
$GPGGA,163450.0,3205.209569,N,03453.360127,E,1,06,1.0,97.7,M,19.0,M,,*6A
$GPVTG,140.7,T,140.7,M,0.0,N,0.0,K,A*23
$GPRMC,163450.0,A,3205.209569,N,03453.360127,E,0.0,140.7,040416,0.0,E,A*00
$GPGSA,A,2,02,06,12,24,25,29,,,,,,,1.3,1.0,0.9*34
$GNGSA,A,2,02,06,12,24,25,29,,,,,,,1.3,1.0,0.9*2A
$GNGSA,A,2,74,75,85,86,,,,,,,,,1.3,1.0,0.9*25
$GPGSV,3,1,11,02,56,071,27,06,18,042,13,12,62,033,15,24,47,180,15*79
$GPGSV,3,2,11,25,46,326,21,29,38,261,22,05,08,130,,14,11,284,*78
$GPGSV,3,3,11,19,04,053,,31,,,,32,07,285,*78
$GLGSV,2,1,07,74,25,143,12,86,61,260,21,75,80,112,19,85,49,016,20*6B
$GLGSV,2,2,07,76,37,330,,84,02,036,,87,09,227,*5D
$GPGGA,163451.0,3205.209355,N,03453.360974,E,1,06,1.0,98.9,M,19.0,M,,*6D
$GPVTG,140.7,T,140.7,M,0.0,N,0.0,K,A*23
$GPRMC,163451.0,A,3205.209355,N,03453.360974,E,0.0,140.7,040416,0.0,E,A*06
$GPGSA,A,2,02,06,12,24,25,29,,,,,,,1.3,1.0,0.9*34
$GNGSA,A,2,02,06,12,24,25,29,,,,,,,1.3,1.0,0.9*2A
$GNGSA,A,2,74,75,85,86,,,,,,,,,1.3,1.0,0.9*25
$GPGSV,3,1,11,02,56,071,24,06,18,042,13,12,62,033,25,24,47,180,15*79
$GPGSV,3,2,11,25,46,326,23,29,38,261,22,05,08,130,,14,11,284,*7A
$GPGSV,3,3,11,19,04,053,,31,,,,32,07,285,*78
$GLGSV,2,1,07,74,25,143,12,86,61,260,19,75,80,112,23,85,49,016,20*69
$GLGSV,2,2,07,76,37,330,,84,02,036,,87,09,227,*5D
$GPGGA,163452.0,3205.209084,N,03453.361749,E,1,06,1.0,100.0,M,19.0,M,,*59
$GPVTG,140.7,T,140.7,M,0.0,N,0.0,K,A*23
$GPRMC,163452.0,A,3205.209084,N,03453.361749,E,0.0,140.7,040416,0.0,E,A*0B
$GPGSA,A,2,02,06,12,24,25,29,,,,,,,1.3,1.0,0.9*34
$GNGSA,A,2,02,06,12,24,25,29,,,,,,,1.3,1.0,0.9*2A
$GNGSA,A,2,74,75,85,86,,,,,,,,,1.3,1.0,0.9*25
$GPGSV,3,1,11,02,56,071,23,06,18,042,15,12,62,033,19,24,47,180,15*77
$GPGSV,3,2,11,25,46,326,22,29,38,261,15,05,08,130,,14,11,284,*7F
$GPGSV,3,3,11,19,04,053,,31,,,,32,07,285,*78
$GLGSV,2,1,07,74,25,143,19,86,61,260,22,75,80,112,23,85,49,016,20*6A
$GLGSV,2,2,07,76,37,330,,84,02,036,,87,09,227,*5D
$GPGGA,163453.0,3205.208789,N,03453.362488,E,1,06,1.0,101.0,M,19.0,M,,*5F
$GPVTG,140.7,T,140.7,M,0.0,N,0.0,K,A*23
$GPRMC,163453.0,A,3205.208789,N,03453.362488,E,0.0,140.7,040416,0.0,E,A*0C
$GPGSA,A,2,02,06,12,24,25,29,,,,,,,1.3,1.0,0.9*34
$GNGSA,A,2,02,06,12,24,25,29,,,,,,,1.3,1.0,0.9*2A
$GNGSA,A,2,74,75,85,86,,,,,,,,,1.3,1.0,0.9*25
$GPGSV,3,1,11,02,56,071,18,06,18,042,15,12,62,033,19,24,47,180,12*78
$GPGSV,3,2,11,25,46,326,22,29,38,261,15,05,08,130,,14,11,284,*7F
$GPGSV,3,3,11,19,04,053,,31,,,,32,07,285,*78
$GLGSV,2,1,07,74,25,143,19,86,61,260,19,75,80,112,23,85,49,016,20*62
$GLGSV,2,2,07,76,37,330,,84,02,036,,87,09,227,*5D
$GPGGA,163454.0,3205.209098,N,03453.364761,E,1,06,1.0,101.2,M,19.0,M,,*5E
$GPVTG,76.7,T,76.7,M,6.7,N,12.3,K,A*12
$GPRMC,163454.0,A,3205.209098,N,03453.364761,E,6.7,76.7,040416,0.0,E,A*3A
$GPGSA,A,2,02,06,12,24,25,29,,,,,,,1.3,1.0,0.9*34
$GNGSA,A,2,02,06,12,24,25,29,,,,,,,1.3,1.0,0.9*2A
$GNGSA,A,2,74,75,85,86,,,,,,,,,1.3,1.0,0.9*25
$GPGSV,3,1,11,02,56,071,20,06,18,042,15,12,62,033,21,24,47,180,21*78
$GPGSV,3,2,11,25,46,326,22,29,38,261,16,05,08,130,,14,11,284,*7C
$GPGSV,3,3,11,19,04,053,,31,,,,32,07,285,*78
$GLGSV,2,1,07,74,25,143,19,86,61,260,21,75,80,112,23,85,49,016,21*68
$GLGSV,2,2,07,76,37,330,,84,02,036,,87,09,227,*5D
$GPGGA,163455.0,3205.210182,N,03453.370593,E,1,06,1.0,101.3,M,19.0,M,,*56
$GPVTG,74.3,T,74.3,M,13.5,N,25.0,K,A*23
$GPRMC,163455.0,A,3205.210182,N,03453.370593,E,13.5,74.3,040416,0.0,E,A*03
$GPGSA,A,2,02,06,12,24,25,29,,,,,,,1.3,1.0,0.9*34
$GNGSA,A,2,02,06,12,24,25,29,,,,,,,1.3,1.0,0.9*2A
$GNGSA,A,2,74,75,85,86,,,,,,,,,1.3,1.0,0.9*25
$GPGSV,3,1,11,02,56,071,20,06,18,042,15,12,62,033,21,24,47,180,20*79
$GPGSV,3,2,11,25,46,326,16,29,38,261,16,05,08,130,,14,11,284,*7B
$GPGSV,3,3,11,19,04,053,,31,,,,32,07,285,*78
$GLGSV,2,1,07,74,25,143,13,86,61,260,21,75,80,112,23,85,49,016,23*60
$GLGSV,2,2,07,76,37,330,,84,02,036,,87,09,227,*5D
$GPGGA,163456.0,3205.211996,N,03453.374500,E,1,06,1.0,98.9,M,19.0,M,,*6C
$GPVTG,70.2,T,70.2,M,12.7,N,23.5,K,A*23
$GPRMC,163456.0,A,3205.211996,N,03453.374500,E,12.7,70.2,040416,0.0,E,A*04
$GPGSA,A,2,02,06,12,24,25,29,,,,,,,1.3,1.0,0.9*34
$GNGSA,A,2,02,06,12,24,25,29,,,,,,,1.3,1.0,0.9*2A
$GNGSA,A,2,74,75,85,86,,,,,,,,,1.3,1.0,0.9*25
$GPGSV,3,1,11,02,56,071,19,06,18,042,14,12,62,033,21,24,47,180,22*70
$GPGSV,3,2,11,25,46,326,16,29,38,261,16,05,08,130,,14,11,284,*7B
$GPGSV,3,3,11,19,04,053,,31,,,,32,07,285,*78
$GLGSV,2,1,07,74,25,143,24,86,61,260,20,75,80,112,23,85,49,016,29*6F
$GLGSV,2,2,07,76,37,330,,84,02,036,,87,09,227,*5D
$GPGGA,163457.0,3205.213566,N,03453.379400,E,1,06,1.0,98.0,M,19.0,M,,*69
$GPVTG,74.2,T,74.2,M,12.6,N,23.3,K,A*24
$GPRMC,163457.0,A,3205.213566,N,03453.379400,E,12.6,74.2,040416,0.0,E,A*0D
$GPGSA,A,2,02,06,12,24,25,29,,,,,,,1.3,1.0,0.9*34
$GNGSA,A,2,02,06,12,24,25,29,,,,,,,1.3,1.0,0.9*2A
$GNGSA,A,2,74,75,85,86,,,,,,,,,1.3,1.0,0.9*25
$GPGSV,3,1,11,02,56,071,20,06,18,042,14,12,62,033,22,24,47,180,23*78
$GPGSV,3,2,11,25,46,326,24,29,38,261,15,05,08,130,,14,11,284,*79
$GPGSV,3,3,11,19,04,053,,31,,,,32,07,285,*78
$GLGSV,2,1,07,74,25,143,26,86,61,260,20,75,80,112,23,85,49,016,26*62
$GLGSV,2,2,07,76,37,330,,84,02,036,,87,09,227,*5D
$GPGGA,163458.0,3205.212841,N,03453.383186,E,1,06,1.0,97.2,M,19.0,M,,*6C
$GPVTG,72.2,T,72.2,M,10.8,N,19.9,K,A*2B
$GPRMC,163458.0,A,3205.212841,N,03453.383186,E,10.8,72.2,040416,0.0,E,A*0F
$GPGSA,A,2,02,06,12,24,25,29,,,,,,,1.3,1.0,0.9*34
$GNGSA,A,2,02,06,12,24,25,29,,,,,,,1.3,1.0,0.9*2A
$GNGSA,A,2,74,75,85,86,,,,,,,,,1.3,1.0,0.9*25
$GPGSV,3,1,11,02,56,071,20,06,18,042,15,12,62,033,23,24,47,180,23*78
$GPGSV,3,2,11,25,46,326,22,29,38,261,15,05,08,130,,14,11,284,*7F
$GPGSV,3,3,11,19,04,053,,31,,,,32,07,285,*78
$GLGSV,2,1,07,74,25,143,24,86,61,260,18,75,80,112,24,85,49,016,30*6B
$GLGSV,2,2,07,76,37,330,,84,02,036,,87,09,227,*5D
$GPGGA,163459.0,3205.214038,N,03453.386185,E,1,06,1.0,95.2,M,19.0,M,,*69
$GPVTG,72.3,T,72.3,M,7.1,N,13.1,K,A*16
$GPRMC,163459.0,A,3205.214038,N,03453.386185,E,7.1,72.3,040416,0.0,E,A*36
$GPGSA,A,2,02,06,12,24,25,29,,,,,,,1.3,1.0,0.9*34
$GNGSA,A,2,02,06,12,24,25,29,,,,,,,1.3,1.0,0.9*2A
$GNGSA,A,2,74,75,85,86,,,,,,,,,1.3,1.0,0.9*25
$GPGSV,3,1,11,02,56,071,20,06,18,042,15,12,62,033,23,24,47,180,24*7F
$GPGSV,3,2,11,25,46,326,20,29,38,261,15,05,08,130,,14,11,284,*7D
$GPGSV,3,3,11,19,04,053,,31,,,,32,07,285,*78
$GLGSV,2,1,07,74,25,143,22,86,61,260,22,75,80,112,22,85,49,016,30*62
$GLGSV,2,2,07,76,37,330,,84,02,036,,87,09,227,*5D
$GPGGA,163500.0,3205.215044,N,03453.388299,E,1,06,1.0,93.5,M,19.0,M,,*6F
$GPVTG,73.9,T,73.9,M,6.0,N,11.1,K,A*14
$GPRMC,163500.0,A,3205.215044,N,03453.388299,E,6.0,73.9,040416,0.0,E,A*3A
$GPGSA,A,2,02,06,12,24,25,29,,,,,,,1.3,1.0,0.9*34
$GNGSA,A,2,02,06,12,24,25,29,,,,,,,1.3,1.0,0.9*2A
$GNGSA,A,2,74,75,85,86,,,,,,,,,1.3,1.0,0.9*25
$GPGSV,3,1,11,02,56,071,20,06,18,042,15,12,62,033,23,24,47,180,21*7A
$GPGSV,3,2,11,25,46,326,23,29,38,261,15,05,08,130,,14,11,284,*7E
$GPGSV,3,3,11,19,04,053,,31,,,,32,07,285,*78
$GLGSV,2,1,07,74,25,143,22,86,61,260,20,75,80,112,21,85,49,016,30*63
$GLGSV,2,2,07,76,37,330,,84,02,036,,87,09,227,*5D
$GPGGA,163501.0,3205.215117,N,03453.389856,E,1,06,1.0,92.5,M,19.0,M,,*60
$GPVTG,84.5,T,84.5,M,3.8,N,7.1,K,A*2E
$GPRMC,163501.0,A,3205.215117,N,03453.389856,E,3.8,84.5,040416,0.0,E,A*3D
$GPGSA,A,2,02,06,12,24,25,29,,,,,,,1.3,1.0,0.9*34
$GNGSA,A,2,02,06,12,24,25,29,,,,,,,1.3,1.0,0.9*2A
$GNGSA,A,2,74,75,85,86,,,,,,,,,1.3,1.0,0.9*25
$GPGSV,3,1,11,02,56,071,21,06,18,042,15,12,62,033,24,24,47,180,24*79
$GPGSV,3,2,11,25,46,326,27,29,38,261,18,05,08,130,,14,11,284,*77
$GPGSV,3,3,11,19,04,053,,31,,,,32,07,285,*78
$GLGSV,2,1,07,74,25,143,22,86,61,260,19,75,80,112,21,85,49,016,31*68
$GLGSV,2,2,07,76,37,330,,84,02,036,,87,09,227,*5D
$GPGGA,163502.0,3205.214874,N,03453.392212,E,1,06,1.0,94.8,M,19.0,M,,*65
$GPVTG,80.4,T,80.4,M,2.9,N,5.3,K,A*2E
$GPRMC,163502.0,A,3205.214874,N,03453.392212,E,2.9,80.4,040416,0.0,E,A*36
$GPGSA,A,2,02,06,12,24,25,29,,,,,,,1.3,1.0,0.9*34
$GNGSA,A,2,02,06,12,24,25,29,,,,,,,1.3,1.0,0.9*2A
$GNGSA,A,2,74,75,85,86,,,,,,,,,1.3,1.0,0.9*25
$GPGSV,3,1,11,02,56,071,20,06,18,042,18,12,62,033,24,24,47,180,24*75
$GPGSV,3,2,11,25,46,326,27,29,38,261,17,05,08,130,,14,11,284,*78
$GPGSV,3,3,11,19,04,053,,31,,,,32,07,285,*78
$GLGSV,2,1,07,74,25,143,22,86,61,260,18,75,80,112,23,85,49,016,31*6B
$GLGSV,2,2,07,76,37,330,,84,02,036,,87,09,227,*5D
$GPGGA,163503.0,3205.214492,N,03453.393003,E,1,06,1.0,89.7,M,19.0,M,,*60
$GPVTG,80.4,T,80.4,M,1.1,N,2.0,K,A*21
$GPRMC,163503.0,A,3205.214492,N,03453.393003,E,1.1,80.4,040416,0.0,E,A*3B
$GPGSA,A,2,02,06,12,24,25,29,,,,,,,1.3,1.0,0.9*34
$GNGSA,A,2,02,06,12,24,25,29,,,,,,,1.3,1.0,0.9*2A
$GNGSA,A,2,74,75,85,86,,,,,,,,,1.3,1.0,0.9*25
$GPGSV,3,1,11,02,56,071,20,06,18,042,20,12,62,033,23,24,47,180,23*7E
$GPGSV,3,2,11,25,46,326,28,29,38,261,17,05,08,130,,14,11,284,*77
$GPGSV,3,3,11,19,04,053,,31,,,,32,07,285,*78
$GLGSV,2,1,07,74,25,143,24,86,61,260,19,75,80,112,21,85,49,016,31*6E
$GLGSV,2,2,07,76,37,330,,84,02,036,,87,09,227,*5D
$GPGGA,163504.0,3205.214166,N,03453.394146,E,1,06,1.0,87.5,M,19.0,M,,*62
$GPVTG,80.4,T,80.4,M,0.8,N,1.5,K,A*2F
$GPRMC,163504.0,A,3205.214166,N,03453.394146,E,0.8,80.4,040416,0.0,E,A*3D
$GPGSA,A,2,02,06,12,24,25,29,,,,,,,1.3,1.0,0.9*34
$GNGSA,A,2,02,06,12,24,25,29,,,,,,,1.3,1.0,0.9*2A
$GNGSA,A,2,74,75,85,86,,,,,,,,,1.3,1.0,0.9*25
$GPGSV,3,1,11,02,56,071,21,06,18,042,18,12,62,033,23,24,47,180,23*74
$GPGSV,3,2,11,25,46,326,29,29,38,261,16,05,08,130,,14,11,284,*77
$GPGSV,3,3,11,19,04,053,,31,,,,32,07,285,*78
$GLGSV,2,1,07,74,25,143,23,86,61,260,17,75,80,112,20,85,49,016,31*66
$GLGSV,2,2,07,76,37,330,,84,02,036,,87,09,227,*5D
$GPGGA,163505.0,3205.213411,N,03453.394321,E,1,06,1.0,87.6,M,19.0,M,,*61
$GPVTG,80.4,T,80.4,M,0.5,N,0.9,K,A*2F
$GPRMC,163505.0,A,3205.213411,N,03453.394321,E,0.5,80.4,040416,0.0,E,A*30
$GPGSA,A,2,02,06,12,24,25,29,,,,,,,1.3,1.0,0.9*34
$GNGSA,A,2,02,06,12,24,25,29,,,,,,,1.3,1.0,0.9*2A
$GNGSA,A,2,74,75,85,86,,,,,,,,,1.3,1.0,0.9*25
$GPGSV,3,1,11,02,56,071,21,06,18,042,18,12,62,033,26,24,47,180,23*71
$GPGSV,3,2,11,25,46,326,28,29,38,261,16,05,08,130,,14,11,284,*76
$GPGSV,3,3,11,19,04,053,,31,,,,32,07,285,*78
$GLGSV,2,1,07,74,25,143,27,86,61,260,19,75,80,112,24,85,49,016,31*68
$GLGSV,2,2,07,76,37,330,,84,02,036,,87,09,227,*5D
$GPGGA,163506.0,3205.213544,N,03453.394950,E,1,06,1.0,85.5,M,19.0,M,,*6E
$GPVTG,80.4,T,80.4,M,0.0,N,0.0,K,A*23
$GPRMC,163506.0,A,3205.213544,N,03453.394950,E,0.0,80.4,040416,0.0,E,A*3B
$GPGSA,A,2,02,06,12,24,25,29,,,,,,,1.3,1.0,0.9*34
$GNGSA,A,2,02,06,12,24,25,29,,,,,,,1.3,1.0,0.9*2A
$GNGSA,A,2,74,75,85,86,,,,,,,,,1.3,1.0,0.9*25
$GPGSV,3,1,11,02,56,071,18,06,18,042,18,12,62,033,26,24,47,180,22*7A
$GPGSV,3,2,11,25,46,326,27,29,38,261,16,05,08,130,,14,11,284,*79
$GPGSV,3,3,11,19,04,053,,31,,,,32,07,285,*78
$GLGSV,2,1,07,74,25,143,28,86,61,260,19,75,80,112,23,85,49,016,30*61
$GLGSV,2,2,07,76,37,330,,84,02,036,,87,09,227,*5D
$GPGGA,163507.0,3205.213953,N,03453.396039,E,1,06,1.0,85.1,M,19.0,M,,*65
$GPVTG,80.4,T,80.4,M,0.4,N,0.7,K,A*20
$GPRMC,163507.0,A,3205.213953,N,03453.396039,E,0.4,80.4,040416,0.0,E,A*30
$GPGSA,A,2,02,06,12,24,25,29,,,,,,,1.3,1.0,0.9*34
$GNGSA,A,2,02,06,12,24,25,29,,,,,,,1.3,1.0,0.9*2A
$GNGSA,A,2,74,75,85,86,,,,,,,,,1.3,1.0,0.9*25
$GPGSV,3,1,11,02,56,071,19,06,18,042,18,12,62,033,26,24,47,180,23*7A
$GPGSV,3,2,11,25,46,326,28,29,38,261,16,05,08,130,,14,11,284,*76
$GPGSV,3,3,11,19,04,053,,31,,,,32,07,285,*78
$GLGSV,2,1,07,74,25,143,28,86,61,260,19,75,80,112,24,85,49,016,29*6E
$GLGSV,2,2,07,76,37,330,,84,02,036,,87,09,227,*5D
$GPGGA,163508.0,3205.212848,N,03453.396713,E,1,06,1.0,85.7,M,19.0,M,,*69
$GPVTG,80.4,T,80.4,M,0.0,N,0.0,K,A*23
$GPRMC,163508.0,A,3205.212848,N,03453.396713,E,0.0,80.4,040416,0.0,E,A*3E
$GPGSA,A,2,02,06,12,24,25,29,,,,,,,1.3,1.0,0.9*34
$GNGSA,A,2,02,06,12,24,25,29,,,,,,,1.3,1.0,0.9*2A
$GNGSA,A,2,74,75,85,86,,,,,,,,,1.3,1.0,0.9*25
$GPGSV,3,1,11,02,56,071,18,06,18,042,14,12,62,033,26,24,47,180,22*76
$GPGSV,3,2,11,25,46,326,28,29,38,261,14,05,08,130,,14,11,284,*74
$GPGSV,3,3,11,19,04,053,,31,,,,32,07,285,*78
$GLGSV,2,1,07,74,25,143,28,86,61,260,18,75,80,112,24,85,48,016,29*6E
$GLGSV,2,2,07,76,37,330,,84,02,036,,87,09,227,*5D
$GPGGA,163509.0,3205.212284,N,03453.396571,E,1,06,1.0,86.1,M,19.0,M,,*61
$GPVTG,80.4,T,80.4,M,0.0,N,0.0,K,A*23
$GPRMC,163509.0,A,3205.212284,N,03453.396571,E,0.0,80.4,040416,0.0,E,A*33
$GPGSA,A,2,02,06,12,24,25,29,,,,,,,1.3,1.0,0.9*34
$GNGSA,A,2,02,06,12,24,25,29,,,,,,,1.3,1.0,0.9*2A
$GNGSA,A,2,74,75,85,86,,,,,,,,,1.3,1.0,0.9*25
$GPGSV,3,1,11,02,56,071,18,06,18,042,14,12,62,033,24,24,47,180,22*74
$GPGSV,3,2,11,25,46,326,28,29,38,261,14,05,08,130,,14,11,284,*74
$GPGSV,3,3,11,19,04,053,,31,,,,32,07,285,*78
$GLGSV,2,1,07,74,25,143,28,86,61,260,21,75,80,112,24,85,48,016,29*64
$GLGSV,2,2,07,76,37,330,,84,02,036,,87,09,227,*5D
$GPGGA,163510.0,3205.212535,N,03453.396831,E,1,06,1.0,86.6,M,19.0,M,,*6A
$GPVTG,80.4,T,80.4,M,0.0,N,0.0,K,A*23
$GPRMC,163510.0,A,3205.212535,N,03453.396831,E,0.0,80.4,040416,0.0,E,A*3F
$GPGSA,A,2,02,06,12,24,25,29,,,,,,,1.3,1.0,0.9*34
$GNGSA,A,2,02,06,12,24,25,29,,,,,,,1.3,1.0,0.9*2A
$GNGSA,A,2,74,75,85,86,,,,,,,,,1.3,1.0,0.9*25
$GPGSV,3,1,11,02,56,071,16,06,18,042,16,12,62,033,26,24,47,180,23*7B
$GPGSV,3,2,11,25,46,326,27,29,38,261,17,05,08,130,,14,11,284,*78
$GPGSV,3,3,11,19,04,053,,31,,,,32,07,285,*78
$GLGSV,2,1,07,74,25,143,28,86,61,260,20,75,80,112,24,85,48,016,29*65
$GLGSV,2,2,07,76,37,330,,84,02,036,,87,09,227,*5D
$GPGGA,163511.0,3205.212580,N,03453.396592,E,1,06,1.0,85.7,M,19.0,M,,*63
$GPVTG,80.4,T,80.4,M,0.0,N,0.0,K,A*23
$GPRMC,163511.0,A,3205.212580,N,03453.396592,E,0.0,80.4,040416,0.0,E,A*34
$GPGSA,A,2,02,06,12,24,25,29,,,,,,,1.3,1.0,0.9*34
$GNGSA,A,2,02,06,12,24,25,29,,,,,,,1.3,1.0,0.9*2A
$GNGSA,A,2,74,75,85,86,,,,,,,,,1.3,1.0,0.9*25
$GPGSV,3,1,11,02,56,071,17,06,18,042,16,12,62,033,26,24,47,180,22*7B
$GPGSV,3,2,11,25,46,326,28,29,38,261,19,05,08,130,,14,11,284,*79
$GPGSV,3,3,11,19,04,053,,31,,,,32,07,285,*78
$GLGSV,2,1,07,74,25,143,28,86,61,260,20,75,80,112,24,85,48,016,30*6D
$GLGSV,2,2,07,76,37,330,,84,02,036,,87,09,227,*5D
$GPGGA,163512.0,3205.212476,N,03453.396812,E,1,06,1.0,87.1,M,19.0,M,,*69
$GPVTG,80.4,T,80.4,M,0.0,N,0.0,K,A*23
$GPRMC,163512.0,A,3205.212476,N,03453.396812,E,0.0,80.4,040416,0.0,E,A*3A
$GPGSA,A,2,02,06,12,24,25,29,,,,,,,1.3,1.0,0.9*34
$GNGSA,A,2,02,06,12,24,25,29,,,,,,,1.3,1.0,0.9*2A
$GNGSA,A,2,74,75,85,86,,,,,,,,,1.3,1.0,0.9*25
$GPGSV,3,1,11,02,56,071,17,06,18,042,16,12,62,033,27,24,47,180,23*7B
$GPGSV,3,2,11,25,46,326,28,29,38,261,18,05,08,130,,14,11,284,*78
$GPGSV,3,3,11,19,04,053,,31,,,,32,07,285,*78
$GLGSV,2,1,07,74,25,143,28,86,61,260,21,75,80,112,25,85,48,016,30*6D
$GLGSV,2,2,07,76,37,330,,84,02,036,,87,09,227,*5D
$GPGGA,163513.0,3205.212400,N,03453.397066,E,1,06,1.0,89.1,M,19.0,M,,*6D
$GPVTG,80.4,T,80.4,M,0.0,N,0.0,K,A*23
$GPRMC,163513.0,A,3205.212400,N,03453.397066,E,0.0,80.4,040416,0.0,E,A*30
$GPGSA,A,2,02,06,12,24,25,29,,,,,,,1.3,1.0,0.9*34
$GNGSA,A,2,02,06,12,24,25,29,,,,,,,1.3,1.0,0.9*2A
$GNGSA,A,2,74,75,85,86,,,,,,,,,1.3,1.0,0.9*25
$GPGSV,3,1,11,02,56,071,19,06,18,042,15,12,62,033,26,24,47,180,24*70
$GPGSV,3,2,11,25,46,326,27,29,38,261,20,05,08,130,,14,11,284,*7C
$GPGSV,3,3,11,19,04,053,,31,,,,32,07,285,*78
$GLGSV,2,1,07,74,25,143,27,86,61,260,20,75,80,112,24,85,48,016,29*6A
$GLGSV,2,2,07,76,37,330,,84,02,036,,87,09,227,*5D
$GPGGA,163514.0,3205.212490,N,03453.397602,E,1,06,1.0,90.1,M,19.0,M,,*6F
$GPVTG,80.4,T,80.4,M,0.0,N,0.0,K,A*23
$GPRMC,163514.0,A,3205.212490,N,03453.397602,E,0.0,80.4,040416,0.0,E,A*3A
$GPGSA,A,2,02,06,12,24,25,29,,,,,,,1.3,1.0,0.9*34
$GNGSA,A,2,02,06,12,24,25,29,,,,,,,1.3,1.0,0.9*2A
$GNGSA,A,2,74,75,85,86,,,,,,,,,1.3,1.0,0.9*25
$GPGSV,3,1,11,02,56,071,20,06,18,042,19,12,62,033,24,24,47,180,24*74
$GPGSV,3,2,11,25,46,326,19,29,38,261,20,05,08,130,,14,11,284,*71
$GPGSV,3,3,11,19,04,053,,31,,,,32,07,285,*78
$GLGSV,2,1,07,74,25,143,25,86,61,260,24,75,80,112,25,85,48,016,25*61
$GLGSV,2,2,07,76,37,330,,84,02,036,,87,09,227,*5D
$GPGGA,163515.0,3205.212401,N,03453.397544,E,1,06,1.0,90.0,M,19.0,M,,*66
$GPVTG,80.4,T,80.4,M,0.0,N,0.0,K,A*23
$GPRMC,163515.0,A,3205.212401,N,03453.397544,E,0.0,80.4,040416,0.0,E,A*32
$GPGSA,A,2,02,06,12,24,25,29,,,,,,,1.3,1.0,0.9*34
$GNGSA,A,2,02,06,12,24,25,29,,,,,,,1.3,1.0,0.9*2A
$GNGSA,A,2,74,75,85,86,,,,,,,,,1.3,1.0,0.9*25
$GPGSV,3,1,11,02,56,071,24,06,18,042,19,12,62,033,23,24,47,180,24*77
$GPGSV,3,2,11,25,46,326,20,29,38,261,17,05,08,130,,14,11,284,*7F
$GPGSV,3,3,11,19,04,053,,31,,,,32,07,285,*78
$GLGSV,2,1,07,74,25,143,24,86,61,260,21,75,80,112,23,85,48,016,26*60
$GLGSV,2,2,07,76,37,330,,84,02,036,,87,09,227,*5D
$GPGGA,163516.0,3205.212097,N,03453.397495,E,1,06,1.0,89.2,M,19.0,M,,*69
$GPVTG,80.4,T,80.4,M,0.0,N,0.0,K,A*23
$GPRMC,163516.0,A,3205.212097,N,03453.397495,E,0.0,80.4,040416,0.0,E,A*37
$GPGSA,A,2,02,06,12,24,25,29,,,,,,,1.3,1.0,0.9*34
$GNGSA,A,2,02,06,12,24,25,29,,,,,,,1.3,1.0,0.9*2A
$GNGSA,A,2,74,75,85,86,,,,,,,,,1.3,1.0,0.9*25
$GPGSV,3,1,11,02,56,071,21,06,18,042,15,12,62,033,18,24,47,180,24*76
$GPGSV,3,2,11,25,46,326,23,29,38,261,19,05,08,130,,14,11,284,*72
$GPGSV,3,3,11,19,04,053,,31,,,,32,07,285,*78
$GLGSV,2,1,07,74,25,143,19,86,61,260,16,75,80,112,23,85,48,016,26*6A
$GLGSV,2,2,07,76,37,330,,84,02,036,,87,09,227,*5D
$GPGGA,163517.0,3205.212074,N,03453.398169,E,1,06,1.0,88.8,M,19.0,M,,*67
$GPVTG,80.4,T,80.4,M,0.0,N,0.0,K,A*23
$GPRMC,163517.0,A,3205.212074,N,03453.398169,E,0.0,80.4,040416,0.0,E,A*32
$GPGSA,A,2,02,06,12,24,25,29,,,,,,,1.3,1.0,0.9*34
$GNGSA,A,2,02,06,12,24,25,29,,,,,,,1.3,1.0,0.9*2A
$GNGSA,A,2,74,75,85,86,,,,,,,,,1.3,1.0,0.9*25
$GPGSV,3,1,11,02,56,071,21,06,18,042,15,12,62,033,19,24,47,180,25*76
$GPGSV,3,2,11,25,46,326,23,29,38,261,21,05,08,130,,14,11,284,*79
$GPGSV,3,3,11,19,04,053,,31,,,,32,07,285,*78
$GLGSV,2,1,07,74,25,143,21,86,61,260,16,75,80,112,21,85,48,016,26*63
$GLGSV,2,2,07,76,37,330,,84,02,036,,87,09,227,*5D
$GPGGA,163518.0,3205.212020,N,03453.398036,E,1,06,1.0,88.6,M,19.0,M,,*6C
$GPVTG,80.4,T,80.4,M,0.0,N,0.0,K,A*23
$GPRMC,163518.0,A,3205.212020,N,03453.398036,E,0.0,80.4,040416,0.0,E,A*37
$GPGSA,A,2,02,06,12,24,25,29,,,,,,,1.3,1.0,0.9*34
$GNGSA,A,2,02,06,12,24,25,29,,,,,,,1.3,1.0,0.9*2A
$GNGSA,A,2,74,75,85,86,,,,,,,,,1.3,1.0,0.9*25
$GPGSV,3,1,11,02,56,071,22,06,18,042,15,12,62,033,18,24,47,180,25*74
$GPGSV,3,2,11,25,46,326,23,29,38,261,19,05,08,130,,14,11,284,*72
$GPGSV,3,3,11,19,04,053,,31,,,,32,07,285,*78
$GLGSV,2,1,07,74,25,143,20,86,61,260,15,75,80,112,22,85,48,016,26*62
$GLGSV,2,2,07,76,37,330,,84,02,036,,87,09,227,*5D
$GPGGA,163519.0,3205.211977,N,03453.397871,E,1,06,1.0,88.6,M,19.0,M,,*61
$GPVTG,80.4,T,80.4,M,0.0,N,0.0,K,A*23
$GPRMC,163519.0,A,3205.211977,N,03453.397871,E,0.0,80.4,040416,0.0,E,A*3A
$GPGSA,A,2,02,06,12,24,25,29,,,,,,,1.3,1.0,0.9*34
$GNGSA,A,2,02,06,12,24,25,29,,,,,,,1.3,1.0,0.9*2A
$GNGSA,A,2,74,75,85,86,,,,,,,,,1.3,1.0,0.9*25
$GPGSV,3,1,11,02,56,071,22,06,18,042,15,12,62,033,19,24,47,180,25*75
$GPGSV,3,2,11,25,46,326,22,29,38,261,20,05,08,130,,14,11,284,*79
$GPGSV,3,3,11,19,04,053,,31,,,,32,07,285,*78
$GLGSV,2,1,07,74,25,143,20,86,61,260,19,75,80,112,22,85,48,016,25*6D
$GLGSV,2,2,07,76,37,330,,84,02,036,,87,09,227,*5D
$GPGGA,163520.0,3205.211955,N,03453.397871,E,1,06,1.0,88.5,M,19.0,M,,*68
$GPVTG,80.4,T,80.4,M,0.0,N,0.0,K,A*23
$GPRMC,163520.0,A,3205.211955,N,03453.397871,E,0.0,80.4,040416,0.0,E,A*30
$GPGSA,A,2,02,06,12,24,25,29,,,,,,,1.3,1.0,0.9*34
$GNGSA,A,2,02,06,12,24,25,29,,,,,,,1.3,1.0,0.9*2A
$GNGSA,A,2,74,75,85,86,,,,,,,,,1.3,1.0,0.9*25
$GPGSV,3,1,11,02,56,071,21,06,18,042,15,12,62,033,20,24,47,180,25*7C
$GPGSV,3,2,11,25,46,326,21,29,38,261,20,05,08,130,,14,11,284,*7A
$GPGSV,3,3,11,19,04,053,,31,,,,32,07,285,*78
$GLGSV,2,1,07,74,25,143,19,86,61,260,18,75,80,112,23,85,48,016,25*67
$GLGSV,2,2,07,76,37,330,,84,02,036,,87,09,227,*5D
$GPGGA,163521.0,3205.211966,N,03453.397934,E,1,06,1.0,88.7,M,19.0,M,,*6B
$GPVTG,80.4,T,80.4,M,0.0,N,0.0,K,A*23
$GPRMC,163521.0,A,3205.211966,N,03453.397934,E,0.0,80.4,040416,0.0,E,A*31
$GPGSA,A,2,02,06,12,24,25,29,,,,,,,1.3,1.0,0.9*34
$GNGSA,A,2,02,06,12,24,25,29,,,,,,,1.3,1.0,0.9*2A
$GNGSA,A,2,74,75,85,86,,,,,,,,,1.3,1.0,0.9*25
$GPGSV,3,1,11,02,56,071,22,06,18,042,15,12,62,033,20,24,47,180,25*7F
$GPGSV,3,2,11,25,46,326,22,29,38,261,17,05,08,130,,14,11,284,*7D
$GPGSV,3,3,11,19,04,053,,31,,,,32,07,285,*78
$GLGSV,2,1,07,74,25,143,17,86,61,260,16,75,80,112,22,85,48,016,27*64
$GLGSV,2,2,07,76,37,330,,84,02,036,,87,09,227,*5D
$GPGGA,163522.0,3205.211972,N,03453.397945,E,1,06,1.0,88.7,M,19.0,M,,*6B
$GPVTG,80.4,T,80.4,M,0.0,N,0.0,K,A*23
$GPRMC,163522.0,A,3205.211972,N,03453.397945,E,0.0,80.4,040416,0.0,E,A*31
$GPGSA,A,2,02,06,12,24,25,29,,,,,,,1.3,1.0,0.9*34
$GNGSA,A,2,02,06,12,24,25,29,,,,,,,1.3,1.0,0.9*2A
$GNGSA,A,2,74,75,85,86,,,,,,,,,1.3,1.0,0.9*25
$GPGSV,3,1,11,02,56,071,22,06,18,042,15,12,62,033,20,24,47,180,24*7E
$GPGSV,3,2,11,25,46,326,22,29,38,261,19,05,08,130,,14,11,284,*73
$GPGSV,3,3,11,19,04,053,,31,,,,32,07,285,*78
$GLGSV,2,1,07,74,25,143,18,86,61,260,18,75,80,112,23,85,48,016,26*65
$GLGSV,2,2,07,76,37,330,,84,02,036,,87,09,227,*5D
$GPGGA,163523.0,3205.211966,N,03453.397941,E,1,06,1.0,88.6,M,19.0,M,,*6A
$GPVTG,80.4,T,80.4,M,0.0,N,0.0,K,A*23
$GPRMC,163523.0,A,3205.211966,N,03453.397941,E,0.0,80.4,040416,0.0,E,A*31
$GPGSA,A,2,02,06,12,24,25,29,,,,,,,1.3,1.0,0.9*34
$GNGSA,A,2,02,06,12,24,25,29,,,,,,,1.3,1.0,0.9*2A
$GNGSA,A,2,74,75,85,86,,,,,,,,,1.3,1.0,0.9*25
$GPGSV,3,1,11,02,56,071,22,06,18,042,12,12,62,033,21,24,47,180,25*79
$GPGSV,3,2,11,25,46,326,23,29,38,261,20,05,08,130,,14,11,284,*78
$GPGSV,3,3,11,19,04,053,,31,,,,32,07,285,*78
$GLGSV,2,1,07,74,25,143,19,86,61,260,18,75,80,112,23,85,48,016,27*65
$GLGSV,2,2,07,76,37,330,,84,02,036,,87,09,227,*5D
$GPGGA,163524.0,3205.211975,N,03453.397966,E,1,06,1.0,88.6,M,19.0,M,,*6A
$GPVTG,80.4,T,80.4,M,0.0,N,0.0,K,A*23
$GPRMC,163524.0,A,3205.211975,N,03453.397966,E,0.0,80.4,040416,0.0,E,A*31
$GPGSA,A,2,02,06,12,24,25,29,,,,,,,1.3,1.0,0.9*34
$GNGSA,A,2,02,06,12,24,25,29,,,,,,,1.3,1.0,0.9*2A
$GNGSA,A,2,74,75,85,86,,,,,,,,,1.3,1.0,0.9*25
$GPGSV,3,1,11,02,56,071,21,06,18,042,17,12,62,033,23,24,47,180,26*7E
$GPGSV,3,2,11,25,46,326,28,29,38,261,18,05,08,130,,14,11,284,*78
$GPGSV,3,3,11,19,04,053,,31,,,,32,07,285,*78
$GLGSV,2,1,07,74,25,143,25,86,61,260,18,75,80,112,23,85,48,016,27*6A
$GLGSV,2,2,07,76,37,330,,84,02,036,,87,09,227,*5D
$GPGGA,163525.0,3205.211964,N,03453.397958,E,1,06,1.0,88.6,M,19.0,M,,*66
$GPVTG,80.4,T,80.4,M,0.0,N,0.0,K,A*23
$GPRMC,163525.0,A,3205.211964,N,03453.397958,E,0.0,80.4,040416,0.0,E,A*3D
$GPGSA,A,2,02,06,12,24,25,29,,,,,,,1.3,1.0,0.9*34
$GNGSA,A,2,02,06,12,24,25,29,,,,,,,1.3,1.0,0.9*2A
$GNGSA,A,2,74,75,85,86,,,,,,,,,1.3,1.0,0.9*25
$GPGSV,3,1,11,02,56,071,21,06,18,042,17,12,62,033,21,24,47,180,21*7B
$GPGSV,3,2,11,25,46,326,30,29,38,261,18,05,08,130,,14,11,284,*71
$GPGSV,3,3,11,19,04,053,,31,,,,32,07,285,*78
$GLGSV,2,1,07,74,25,143,24,86,61,260,18,75,80,112,23,85,48,016,28*64
$GLGSV,2,2,07,76,37,330,,84,02,036,,87,09,227,*5D
$GPGGA,163526.0,3205.211959,N,03453.397962,E,1,06,1.0,88.6,M,19.0,M,,*62
$GPVTG,80.4,T,80.4,M,0.0,N,0.0,K,A*23
$GPRMC,163526.0,A,3205.211959,N,03453.397962,E,0.0,80.4,040416,0.0,E,A*39
$GPGSA,A,2,02,06,12,24,25,29,,,,,,,1.3,1.0,0.9*34
$GNGSA,A,2,02,06,12,24,25,29,,,,,,,1.3,1.0,0.9*2A
$GNGSA,A,2,74,75,85,86,,,,,,,,,1.3,1.0,0.9*25
$GPGSV,3,1,11,02,56,071,22,06,18,042,17,12,62,033,22,24,47,180,24*7E
$GPGSV,3,2,11,25,46,326,30,29,38,261,17,05,08,130,,14,11,284,*7E
$GPGSV,3,3,11,19,04,053,,31,,,,32,07,285,*78
$GLGSV,2,1,07,74,25,143,27,86,61,260,18,75,80,112,23,85,48,016,29*66
$GLGSV,2,2,07,76,37,330,,84,02,036,,87,09,227,*5D
$GPGGA,163527.0,3205.211926,N,03453.397892,E,1,06,1.0,88.8,M,19.0,M,,*6B
$GPVTG,80.4,T,80.4,M,0.0,N,0.0,K,A*23
$GPRMC,163527.0,A,3205.211926,N,03453.397892,E,0.0,80.4,040416,0.0,E,A*3E
$GPGSA,A,2,02,06,12,24,25,29,,,,,,,1.3,1.0,0.9*34
$GNGSA,A,2,02,06,12,24,25,29,,,,,,,1.3,1.0,0.9*2A
$GNGSA,A,2,74,75,85,86,,,,,,,,,1.3,1.0,0.9*25
$GPGSV,3,1,11,02,56,071,24,06,18,042,17,12,62,033,26,24,47,180,23*7B
$GPGSV,3,2,11,25,46,326,24,29,38,261,20,05,08,130,,14,11,284,*7F
$GPGSV,3,3,11,19,04,053,,31,,,,32,07,285,*78
$GLGSV,2,1,07,74,25,143,21,86,61,260,14,75,80,112,21,85,48,016,28*6F
$GLGSV,2,2,07,76,37,330,,84,02,036,,87,09,227,*5D
$GPGGA,163528.0,3205.211886,N,03453.397799,E,1,06,1.0,89.2,M,19.0,M,,*60
$GPVTG,80.4,T,80.4,M,0.0,N,0.0,K,A*23
$GPRMC,163528.0,A,3205.211886,N,03453.397799,E,0.0,80.4,040416,0.0,E,A*3E
$GPGSA,A,2,02,06,12,24,25,29,,,,,,,1.3,1.0,0.9*34
$GNGSA,A,2,02,06,12,24,25,29,,,,,,,1.3,1.0,0.9*2A
$GNGSA,A,2,74,75,85,86,,,,,,,,,1.3,1.0,0.9*25
$GPGSV,3,1,11,02,56,071,24,06,18,042,17,12,62,033,25,24,47,180,23*78
$GPGSV,3,2,11,25,46,326,20,29,38,261,18,05,08,130,,14,11,284,*70
$GPGSV,3,3,11,19,04,053,,31,,,,32,07,285,*78
$GLGSV,2,1,07,74,25,143,21,86,61,260,19,75,80,112,22,85,48,016,28*61
$GLGSV,2,2,07,76,37,330,,84,02,036,,87,09,227,*5D
$GPGGA,163529.0,3205.211878,N,03453.397791,E,1,06,1.0,89.2,M,19.0,M,,*68
$GPVTG,80.4,T,80.4,M,0.0,N,0.0,K,A*23
$GPRMC,163529.0,A,3205.211878,N,03453.397791,E,0.0,80.4,040416,0.0,E,A*36
$GPGSA,A,2,02,06,12,24,25,29,,,,,,,1.3,1.0,0.9*34
$GNGSA,A,2,02,06,12,24,25,29,,,,,,,1.3,1.0,0.9*2A
$GNGSA,A,2,74,75,85,86,,,,,,,,,1.3,1.0,0.9*25
$GPGSV,3,1,11,02,56,071,23,06,18,042,17,12,62,033,24,24,47,180,21*7C
$GPGSV,3,2,11,25,46,326,22,29,38,261,18,05,08,130,,14,11,284,*72
$GPGSV,3,3,11,19,04,053,,31,,,,32,07,285,*78
$GLGSV,2,1,07,74,25,143,22,86,61,260,18,75,80,112,22,85,48,016,28*63
$GLGSV,2,2,07,76,37,330,,84,02,036,,87,09,227,*5D
$GPGGA,163530.0,3205.211872,N,03453.397780,E,1,06,1.0,89.3,M,19.0,M,,*6B
$GPVTG,80.4,T,80.4,M,0.0,N,0.0,K,A*23
$GPRMC,163530.0,A,3205.211872,N,03453.397780,E,0.0,80.4,040416,0.0,E,A*34
$GPGSA,A,2,02,06,12,24,25,29,,,,,,,1.3,1.0,0.9*34
$GNGSA,A,2,02,06,12,24,25,29,,,,,,,1.3,1.0,0.9*2A
$GNGSA,A,2,74,75,85,86,,,,,,,,,1.3,1.0,0.9*25
$GPGSV,3,1,11,02,56,071,23,06,18,042,17,12,62,033,24,24,47,180,22*7F
$GPGSV,3,2,11,25,46,326,23,29,38,261,18,05,08,130,,14,11,284,*73
$GPGSV,3,3,11,19,04,053,,31,,,,32,07,285,*78
$GLGSV,2,1,07,74,25,143,21,86,61,260,19,75,80,112,22,85,48,016,28*61
$GLGSV,2,2,07,76,37,330,,84,02,036,,87,09,227,*5D
$GPGGA,163531.0,3205.211865,N,03453.397770,E,1,06,1.0,89.4,M,19.0,M,,*64
$GPVTG,80.4,T,80.4,M,0.0,N,0.0,K,A*23
$GPRMC,163531.0,A,3205.211865,N,03453.397770,E,0.0,80.4,040416,0.0,E,A*3C
$GPGSA,A,2,02,06,12,24,25,29,,,,,,,1.3,1.0,0.9*34
$GNGSA,A,2,02,06,12,24,25,29,,,,,,,1.3,1.0,0.9*2A
$GNGSA,A,2,74,75,85,86,,,,,,,,,1.3,1.0,0.9*25
$GPGSV,3,1,11,02,56,071,20,06,18,042,17,12,62,033,19,24,47,180,19*7A
$GPGSV,3,2,11,25,46,326,25,29,38,261,14,05,08,130,,14,11,284,*79
$GPGSV,3,3,11,19,04,053,,31,,,,32,07,285,*78
$GLGSV,2,1,07,74,25,143,21,86,61,260,17,75,80,112,22,85,48,016,27*60
$GLGSV,2,2,07,76,37,330,,84,02,036,,87,09,227,*5D
$GPGGA,163532.0,3205.211861,N,03453.397767,E,1,06,1.0,89.5,M,19.0,M,,*64
$GPVTG,80.4,T,80.4,M,0.0,N,0.0,K,A*23
$GPRMC,163532.0,A,3205.211861,N,03453.397767,E,0.0,80.4,040416,0.0,E,A*3D
$GPGSA,A,2,02,06,12,24,25,29,,,,,,,1.3,1.0,0.9*34
$GNGSA,A,2,02,06,12,24,25,29,,,,,,,1.3,1.0,0.9*2A
$GNGSA,A,2,74,75,85,86,,,,,,,,,1.3,1.0,0.9*25
$GPGSV,3,1,11,02,56,071,21,06,18,042,17,12,62,033,21,24,47,180,19*70
$GPGSV,3,2,11,25,46,326,26,29,38,261,19,05,08,130,,14,11,284,*77
$GPGSV,3,3,11,19,04,053,,31,,,,32,07,285,*78
$GLGSV,2,1,07,74,25,143,16,86,61,260,17,75,80,112,23,85,48,016,27*65
$GLGSV,2,2,07,76,37,330,,84,02,036,,87,09,227,*5D
$GPGGA,163533.0,3205.211862,N,03453.397769,E,1,06,1.0,89.5,M,19.0,M,,*68
$GPVTG,80.4,T,80.4,M,0.0,N,0.0,K,A*23
$GPRMC,163533.0,A,3205.211862,N,03453.397769,E,0.0,80.4,040416,0.0,E,A*31
$GPGSA,A,2,02,06,12,24,25,29,,,,,,,1.3,1.0,0.9*34
$GNGSA,A,2,02,06,12,24,25,29,,,,,,,1.3,1.0,0.9*2A
$GNGSA,A,2,74,75,85,86,,,,,,,,,1.3,1.0,0.9*25
$GPGSV,3,1,11,02,56,071,22,06,18,042,17,12,62,033,21,24,47,180,17*7D
$GPGSV,3,2,11,25,46,326,23,29,38,261,17,05,08,130,,14,11,284,*7C
$GPGSV,3,3,11,19,04,053,,31,,,,32,07,285,*78
$GLGSV,2,1,07,74,25,143,19,86,61,260,17,75,80,112,20,85,48,016,25*6B
$GLGSV,2,2,07,76,37,330,,84,02,036,,87,09,227,*5D
$GPGGA,163534.0,3205.211862,N,03453.397773,E,1,06,1.0,89.4,M,19.0,M,,*65
$GPVTG,80.4,T,80.4,M,0.0,N,0.0,K,A*23
$GPRMC,163534.0,A,3205.211862,N,03453.397773,E,0.0,80.4,040416,0.0,E,A*3D
$GPGSA,A,2,02,06,12,24,25,29,,,,,,,1.3,1.0,0.9*34
$GNGSA,A,2,02,06,12,24,25,29,,,,,,,1.3,1.0,0.9*2A
$GNGSA,A,2,74,75,85,86,,,,,,,,,1.3,1.0,0.9*25
$GPGSV,3,1,11,02,56,071,23,06,18,042,13,12,62,033,22,24,47,180,18*74
$GPGSV,3,2,11,25,46,326,22,29,38,261,17,05,08,130,,14,11,284,*7D
$GPGSV,3,3,11,19,04,053,,31,,,,32,07,285,*78
$GLGSV,2,1,07,74,25,143,19,86,61,260,17,75,80,112,20,85,48,016,25*6B
$GLGSV,2,2,07,76,37,330,,84,02,036,,87,09,227,*5D
$GPGGA,163535.0,3205.211868,N,03453.397794,E,1,06,1.0,89.4,M,19.0,M,,*67
$GPVTG,80.4,T,80.4,M,0.0,N,0.0,K,A*23
$GPRMC,163535.0,A,3205.211868,N,03453.397794,E,0.0,80.4,040416,0.0,E,A*3F
$GPGSA,A,2,02,06,12,24,25,29,,,,,,,1.3,1.0,0.9*34
$GNGSA,A,2,02,06,12,24,25,29,,,,,,,1.3,1.0,0.9*2A
$GNGSA,A,2,74,75,85,86,,,,,,,,,1.3,1.0,0.9*25
$GPGSV,3,1,11,02,56,071,22,06,18,042,13,12,62,033,23,24,47,180,19*75
$GPGSV,3,2,11,25,46,326,25,29,38,261,17,05,08,130,,14,11,284,*7A
$GPGSV,3,3,11,19,04,053,,31,,,,32,07,285,*78
$GLGSV,2,1,07,74,25,143,19,86,61,260,17,75,80,112,22,85,48,016,25*69
$GLGSV,2,2,07,76,37,330,,84,02,036,,87,09,227,*5D
$GPGGA,163536.0,3205.211869,N,03453.397797,E,1,06,1.0,89.4,M,19.0,M,,*66
$GPVTG,80.4,T,80.4,M,0.0,N,0.0,K,A*23
$GPRMC,163536.0,A,3205.211869,N,03453.397797,E,0.0,80.4,040416,0.0,E,A*3E
$GPGSA,A,2,02,06,12,24,25,29,,,,,,,1.3,1.0,0.9*34
$GNGSA,A,2,02,06,12,24,25,29,,,,,,,1.3,1.0,0.9*2A
$GNGSA,A,2,74,75,85,86,,,,,,,,,1.3,1.0,0.9*25
$GPGSV,3,1,11,02,56,071,20,06,18,042,16,12,62,033,20,24,47,180,19*71
$GPGSV,3,2,11,25,46,326,24,29,38,261,14,05,08,130,,14,11,284,*78
$GPGSV,3,3,11,19,04,053,,31,,,,32,07,285,*78
$GLGSV,2,1,07,74,25,143,19,86,61,260,17,75,80,112,22,85,48,016,27*6B
$GLGSV,2,2,07,76,37,330,,84,02,036,,87,09,227,*5D
$GPGGA,163537.0,3205.212438,N,03453.399426,E,1,06,1.0,89.7,M,19.0,M,,*68
$GPVTG,67.7,T,67.7,M,8.9,N,16.4,K,A*11
$GPRMC,163537.0,A,3205.212438,N,03453.399426,E,8.9,67.7,040416,0.0,E,A*38
$GPGSA,A,2,02,06,12,24,25,29,,,,,,,1.3,1.0,0.9*34
$GNGSA,A,2,02,06,12,24,25,29,,,,,,,1.3,1.0,0.9*2A
$GNGSA,A,2,74,75,85,86,,,,,,,,,1.3,1.0,0.9*25
$GPGSV,3,1,11,02,56,071,21,06,18,042,16,12,62,033,20,24,47,180,17*7E
$GPGSV,3,2,11,25,46,326,23,29,38,261,14,05,08,130,,14,11,284,*7F
$GPGSV,3,3,11,19,04,053,,31,,,,32,07,285,*78
$GLGSV,2,1,07,74,25,143,19,86,61,260,16,75,80,112,22,85,48,016,25*68
$GLGSV,2,2,07,76,37,330,,84,02,036,,87,09,227,*5D
$GPGGA,163538.0,3205.213420,N,03453.403076,E,1,06,1.0,88.5,M,19.0,M,,*69
$GPVTG,72.7,T,72.7,M,9.5,N,17.6,K,A*1F
$GPRMC,163538.0,A,3205.213420,N,03453.403076,E,9.5,72.7,040416,0.0,E,A*33
$GPGSA,A,2,02,06,12,24,25,29,,,,,,,1.3,1.0,0.9*34
$GNGSA,A,2,02,06,12,24,25,29,,,,,,,1.3,1.0,0.9*2A
$GNGSA,A,2,74,75,85,86,,,,,,,,,1.3,1.0,0.9*25
$GPGSV,3,1,11,02,56,071,21,06,18,042,16,12,62,033,19,24,47,180,17*74
$GPGSV,3,2,11,25,46,326,21,29,38,261,14,05,08,130,,14,11,284,*7D
$GPGSV,3,3,11,19,04,053,,31,,,,32,07,285,*78
$GLGSV,2,1,07,74,25,143,19,86,61,260,16,75,80,112,22,85,48,016,22*6F
$GLGSV,2,2,07,76,37,330,,84,02,036,,87,09,227,*5D
$GPGGA,163539.0,3205.215197,N,03453.409541,E,1,06,1.0,86.9,M,19.0,M,,*6E
$GPVTG,70.1,T,70.1,M,12.9,N,23.9,K,A*21
$GPRMC,163539.0,A,3205.215197,N,03453.409541,E,12.9,70.1,040416,0.0,E,A*04
$GPGSA,A,2,02,06,12,24,25,29,,,,,,,1.3,1.0,0.9*34
$GNGSA,A,2,02,06,12,24,25,29,,,,,,,1.3,1.0,0.9*2A
$GNGSA,A,2,74,75,85,86,,,,,,,,,1.3,1.0,0.9*25
$GPGSV,3,1,11,02,56,071,21,06,18,042,16,12,62,033,18,24,47,180,17*75
$GPGSV,3,2,11,25,46,326,21,29,38,261,14,05,08,130,,14,11,284,*7D
$GPGSV,3,3,11,19,04,053,,31,,,,32,07,285,*78
$GLGSV,2,1,07,74,25,143,19,86,61,260,16,75,80,112,21,85,48,016,22*6C
$GLGSV,2,2,07,76,37,330,,84,02,036,,87,09,227,*5D
$GPGGA,163540.0,3205.215864,N,03453.413646,E,1,06,1.0,87.9,M,19.0,M,,*6B
$GPVTG,76.4,T,76.4,M,12.2,N,22.5,K,A*27
$GPRMC,163540.0,A,3205.215864,N,03453.413646,E,12.2,76.4,040416,0.0,E,A*08
$GPGSA,A,2,02,06,12,24,25,29,,,,,,,1.3,1.0,0.9*34
$GNGSA,A,2,02,06,12,24,25,29,,,,,,,1.3,1.0,0.9*2A
$GNGSA,A,2,74,75,85,86,,,,,,,,,1.3,1.0,0.9*25
$GPGSV,3,1,11,02,56,071,22,06,18,042,16,12,62,033,19,24,47,180,17*77
$GPGSV,3,2,11,25,46,326,20,29,38,261,13,05,08,130,,14,11,284,*7B
$GPGSV,3,3,11,19,04,053,,31,,,,32,07,285,*78
$GLGSV,2,1,07,74,25,143,19,86,61,260,16,75,80,112,23,85,48,016,17*68
$GLGSV,2,2,07,76,37,330,,84,02,036,,87,09,227,*5D
$GPGGA,163541.0,3205.218094,N,03453.419020,E,1,06,1.2,87.5,M,19.0,M,,*62
$GPVTG,67.6,T,67.6,M,14.7,N,27.3,K,A*27
$GPRMC,163541.0,A,3205.218094,N,03453.419020,E,14.7,67.6,040416,0.0,E,A*0E
$GPGSA,A,2,02,06,12,24,25,29,,,,,,,1.5,1.2,0.9*30
$GNGSA,A,2,02,06,12,24,25,29,,,,,,,1.5,1.2,0.9*2E
$GNGSA,A,2,75,85,86,,,,,,,,,,1.5,1.2,0.9*22
$GPGSV,3,1,11,02,56,071,22,06,18,042,16,12,62,033,17,24,47,180,14*7A
$GPGSV,3,2,11,25,46,326,23,29,38,261,13,05,08,130,,14,11,284,*78
$GPGSV,3,3,11,19,04,053,,31,,,,32,07,285,*78
$GLGSV,2,1,07,74,25,143,19,86,61,260,16,75,80,112,22,85,48,016,23*6E
$GLGSV,2,2,07,76,37,330,,84,02,036,,87,09,227,*5D
$GPGGA,163542.0,3205.219874,N,03453.427193,E,1,06,1.2,89.0,M,19.0,M,,*69
$GPVTG,67.6,T,67.6,M,18.2,N,33.8,K,A*20
$GPRMC,163542.0,A,3205.219874,N,03453.427193,E,18.2,67.6,040416,0.0,E,A*07
$GPGSA,A,2,02,06,12,24,25,29,,,,,,,1.5,1.2,0.9*30
$GNGSA,A,2,02,06,12,24,25,29,,,,,,,1.5,1.2,0.9*2E
$GNGSA,A,2,75,85,86,,,,,,,,,,1.5,1.2,0.9*22
$GPGSV,3,1,11,02,56,071,18,06,18,042,16,12,62,033,20,24,47,180,14*77
$GPGSV,3,2,11,25,46,326,24,29,38,261,15,05,08,130,,14,11,284,*79
$GPGSV,3,3,11,19,04,053,,31,,,,32,07,285,*78
$GLGSV,2,1,07,74,25,143,19,86,61,260,16,75,80,112,21,85,48,016,24*6A
$GLGSV,2,2,07,76,37,330,,84,02,036,,87,09,227,*5D
$GPGGA,163543.0,3205.219149,N,03453.432242,E,1,06,1.2,93.8,M,19.0,M,,*67
$GPVTG,72.9,T,72.9,M,17.7,N,32.8,K,A*2B
$GPRMC,163543.0,A,3205.219149,N,03453.432242,E,17.7,72.9,040416,0.0,E,A*0B
$GPGSA,A,2,02,06,12,24,25,29,,,,,,,1.5,1.2,0.9*30
$GNGSA,A,2,02,06,12,24,25,29,,,,,,,1.5,1.2,0.9*2E
$GNGSA,A,2,75,85,86,,,,,,,,,,1.5,1.2,0.9*22
$GPGSV,3,1,11,02,56,071,20,06,18,042,16,12,62,033,19,24,47,180,14*76
$GPGSV,3,2,11,25,46,326,24,29,38,261,17,05,08,130,,14,11,284,*7B
$GPGSV,3,3,11,19,04,053,,31,,,,32,07,285,*78
$GLGSV,2,1,07,74,25,143,19,86,61,260,16,75,80,112,21,85,48,016,24*6A
$GLGSV,2,2,07,76,37,330,,84,02,036,,87,09,227,*5D
$GPGGA,163544.0,3205.220420,N,03453.438245,E,1,05,1.3,94.8,M,19.0,M,,*68
$GPVTG,71.7,T,71.7,M,17.5,N,32.3,K,A*22
$GPRMC,163544.0,A,3205.220420,N,03453.438245,E,17.5,71.7,040416,0.0,E,A*0E
$GPGSA,A,2,02,12,24,25,29,,,,,,,,1.6,1.3,1.0*3C
$GNGSA,A,2,02,12,24,25,29,,,,,,,,1.6,1.3,1.0*22
$GNGSA,A,2,75,85,86,,,,,,,,,,1.6,1.3,1.0*28
$GPGSV,3,1,11,02,56,071,21,06,18,042,16,12,62,033,20,24,47,180,14*7D
$GPGSV,3,2,11,25,46,326,19,29,38,261,17,05,08,130,,14,11,284,*75
$GPGSV,3,3,11,19,04,053,,31,,,,32,07,285,*78
$GLGSV,2,1,07,74,25,143,19,86,61,260,13,75,80,112,20,85,48,016,17*6E
$GLGSV,2,2,07,76,37,330,,84,02,036,,87,09,227,*5D
$GPGGA,163545.0,3205.221319,N,03453.446482,E,1,05,1.3,94.1,M,19.0,M,,*68
$GPVTG,77.1,T,77.1,M,19.3,N,35.7,K,A*29
$GPRMC,163545.0,A,3205.221319,N,03453.446482,E,19.3,77.1,040416,0.0,E,A*0F
$GPGSA,A,2,02,12,24,25,29,,,,,,,,1.6,1.3,1.0*3C
$GNGSA,A,2,02,12,24,25,29,,,,,,,,1.6,1.3,1.0*22
$GNGSA,A,2,75,85,86,,,,,,,,,,1.6,1.3,1.0*28
$GPGSV,3,1,11,02,56,071,20,06,18,042,16,12,62,033,20,24,47,180,14*7C
$GPGSV,3,2,11,25,46,326,22,29,38,261,17,05,08,130,,14,11,284,*7D
$GPGSV,3,3,11,19,04,053,,31,,,,32,07,285,*78
$GLGSV,2,1,07,74,25,143,7,86,61,260,18,75,80,112,20,85,48,016,20*5E
$GLGSV,2,2,07,76,37,330,,84,02,036,,87,09,227,*5D
$GPGGA,163546.0,3205.223543,N,03453.453087,E,1,05,1.1,94.3,M,19.0,M,,*65
$GPVTG,71.3,T,71.3,M,21.3,N,39.4,K,A*2D
$GPRMC,163546.0,A,3205.223543,N,03453.453087,E,21.3,71.3,040416,0.0,E,A*0D
$GPGSA,A,2,02,12,24,25,29,,,,,,,,1.4,1.1,0.9*34
$GNGSA,A,2,02,12,24,25,29,,,,,,,,1.4,1.1,0.9*2A
$GNGSA,A,2,74,75,85,86,,,,,,,,,1.4,1.1,0.9*23
$GPGSV,3,1,11,02,56,071,18,06,18,042,16,12,62,033,21,24,47,180,14*76
$GPGSV,3,2,11,25,46,326,22,29,38,261,15,05,08,130,,14,11,284,*7F
$GPGSV,3,3,11,19,04,053,,31,,,,32,07,285,*78
$GLGSV,2,1,07,74,25,143,18,86,61,260,18,75,80,112,20,85,48,016,21*61
$GLGSV,2,2,07,76,37,330,,84,02,036,,87,09,227,*5D
$GPGGA,163547.0,3205.226346,N,03453.459993,E,1,05,1.1,94.9,M,19.0,M,,*6E
$GPVTG,69.6,T,69.6,M,20.6,N,38.1,K,A*2D
$GPRMC,163547.0,A,3205.226346,N,03453.459993,E,20.6,69.6,040416,0.0,E,A*04
$GPGSA,A,2,02,12,24,25,29,,,,,,,,1.4,1.1,0.9*34
$GNGSA,A,2,02,12,24,25,29,,,,,,,,1.4,1.1,0.9*2A
$GNGSA,A,2,74,75,85,86,,,,,,,,,1.4,1.1,0.9*23
$GPGSV,3,1,11,02,56,071,18,06,18,042,16,12,62,033,21,24,47,180,12*70
$GPGSV,3,2,11,25,46,326,20,29,38,261,17,05,08,130,,14,11,284,*7F
$GPGSV,3,3,11,19,04,053,,31,,,,32,07,285,*78
$GLGSV,2,1,07,74,25,143,18,86,61,260,18,75,80,112,19,85,48,016,27*6D
$GLGSV,2,2,07,76,37,330,,84,02,036,,87,09,227,*5D
$GPGGA,163548.0,3205.228938,N,03453.467803,E,1,05,1.1,95.3,M,19.0,M,,*62
$GPVTG,69.0,T,69.0,M,21.3,N,39.5,K,A*2C
$GPRMC,163548.0,A,3205.228938,N,03453.467803,E,21.3,69.0,040416,0.0,E,A*01
$GPGSA,A,2,02,12,24,25,29,,,,,,,,1.4,1.1,0.9*34
$GNGSA,A,2,02,12,24,25,29,,,,,,,,1.4,1.1,0.9*2A
$GNGSA,A,2,74,75,85,86,,,,,,,,,1.4,1.1,0.9*23
$GPGSV,3,1,11,02,56,071,20,06,18,042,9,12,62,033,21,24,47,180,12*45
$GPGSV,3,2,11,25,46,326,22,29,38,261,18,05,08,130,,14,11,284,*72
$GPGSV,3,3,11,19,04,053,,31,,,,32,07,285,*78
$GLGSV,2,1,07,74,25,143,18,86,61,260,16,75,80,112,20,85,48,016,26*68
$GLGSV,2,2,07,76,37,330,,84,02,036,,87,09,227,*5D
$GPGGA,163549.0,3205.231828,N,03453.473821,E,1,06,1.0,94.9,M,19.0,M,,*67
$GPVTG,65.6,T,65.6,M,19.9,N,36.8,K,A*2F
$GPRMC,163549.0,A,3205.231828,N,03453.473821,E,19.9,65.6,040416,0.0,E,A*06
$GPGSA,A,2,02,06,12,24,25,29,,,,,,,1.3,1.0,0.9*34
$GNGSA,A,2,02,06,12,24,25,29,,,,,,,1.3,1.0,0.9*2A
$GNGSA,A,2,74,75,85,86,,,,,,,,,1.3,1.0,0.9*25
$GPGSV,3,1,11,02,56,071,23,06,18,042,9,12,62,033,21,24,47,180,12*46
$GPGSV,3,2,11,25,46,326,22,29,38,261,18,05,08,130,,14,11,284,*72
$GPGSV,3,3,11,19,04,053,,31,,,,32,07,285,*78
$GLGSV,2,1,07,74,25,143,18,86,61,260,16,75,80,112,20,85,48,016,23*6D
$GLGSV,2,2,07,76,37,330,,84,02,036,,87,09,227,*5D
$GPGGA,163550.0,3205.233968,N,03453.480683,E,1,06,1.0,96.1,M,19.0,M,,*68
$GPVTG,68.9,T,68.9,M,21.1,N,39.1,K,A*2A
$GPRMC,163550.0,A,3205.233968,N,03453.480683,E,21.1,68.9,040416,0.0,E,A*02
$GPGSA,A,2,02,06,12,24,25,29,,,,,,,1.3,1.0,0.9*34
$GNGSA,A,2,02,06,12,24,25,29,,,,,,,1.3,1.0,0.9*2A
$GNGSA,A,2,74,75,85,86,,,,,,,,,1.3,1.0,0.9*25
$GPGSV,3,1,11,02,56,071,21,06,18,042,9,12,62,033,20,24,47,180,12*45
$GPGSV,3,2,11,25,46,326,22,29,38,261,18,05,08,130,,14,11,284,*72
$GPGSV,3,3,11,19,04,053,,31,,,,32,07,285,*78
$GLGSV,2,1,07,74,25,143,18,86,61,260,16,75,80,112,22,85,48,016,21*6D
$GLGSV,2,2,07,76,37,330,,84,02,036,,87,09,227,*5D
$GPGGA,163551.0,3205.234810,N,03453.487066,E,1,06,1.0,97.0,M,19.0,M,,*6A
$GPVTG,69.9,T,69.9,M,20.9,N,38.8,K,A*2B
$GPRMC,163551.0,A,3205.234810,N,03453.487066,E,20.9,69.9,040416,0.0,E,A*08
$GPGSA,A,2,02,06,12,24,25,29,,,,,,,1.3,1.0,0.9*34
$GNGSA,A,2,02,06,12,24,25,29,,,,,,,1.3,1.0,0.9*2A
$GNGSA,A,2,74,75,85,86,,,,,,,,,1.3,1.0,0.9*25
$GPGSV,3,1,11,02,56,071,21,06,18,042,17,12,62,033,20,24,47,180,12*7A
