$GPGGA,073138.34,,,,,0,00,300.0,,M,,M,,*6C
$GPGSV,3,1,10,30,65,331,,07,53,029,,28,52,190,,09,44,106,*7A
$GPGSV,3,2,10,05,34,302,,08,16,071,,23,15,116,,13,10,306,*76
$GPGSV,3,3,10,27,04,043,,02,00,254,*7F
$GLGSV,2,1,07,65,65,316,,75,62,316,,72,57,164,,74,30,029,*68
$GLGSV,2,2,07,66,11,331,,71,06,155,,84,03,078,*52
$GPGSA,A,1,,,,,,,,,,,,,140.0,99.0,99.0*35
$GNGSA,A,1,,,,,,,,,,,,,140.0,99.0,99.0*2B
$GNGSA,A,1,,,,,,,,,,,,,140.0,99.0,99.0*2B
$QZGSA,A,1,,,,,,,,,,,,,140.0,99.0,99.0*29
$GPRMC,073138.34,V,,,,,,,010516,,,N*77
$GPGGA,073139.24,,,,,0,00,300.0,,M,,M,,*6C
$GPGSV,3,1,11,30,65,331,28,07,53,029,39,05,34,302,27,27,04,043,34*77
$GPGSV,3,2,11,11,01,000,,28,52,190,,09,44,106,,08,16,071,*7B
$GPGSV,3,3,11,23,15,116,,13,10,306,,02,00,254,*4D
$GLGSV,2,1,07,74,30,029,34,65,65,316,,75,62,316,,72,57,164,*6F
$GLGSV,2,2,07,66,11,331,,71,06,155,,84,03,078,*52
$GPGSA,A,1,,,,,,,,,,,,,140.0,99.0,99.0*35
$GNGSA,A,1,,,,,,,,,,,,,140.0,99.0,99.0*2B
$GNGSA,A,1,,,,,,,,,,,,,140.0,99.0,99.0*2B
$QZGSA,A,1,,,,,,,,,,,,,140.0,99.0,99.0*29
$GPRMC,073139.24,V,,,,,,,010516,,,N*77
$GPGGA,073140.24,,,,,0,00,300.0,,M,,M,,*62
$GPGSV,3,1,11,30,65,331,25,07,53,029,36,28,52,190,24,09,44,106,27*7A
$GPGSV,3,2,11,05,34,302,25,08,16,071,24,23,15,116,26,27,04,043,31*70
$GPGSV,3,3,11,11,01,000,,13,10,306,,02,00,254,*4F
$GLGSV,2,1,07,74,30,029,31,65,65,316,,75,62,316,,72,57,164,*6A
$GLGSV,2,2,07,66,11,331,,71,06,155,,84,03,078,*52
$GPGSA,A,1,,,,,,,,,,,,,140.0,99.0,99.0*35
$GNGSA,A,1,,,,,,,,,,,,,140.0,99.0,99.0*2B
$GNGSA,A,1,,,,,,,,,,,,,140.0,99.0,99.0*2B
$QZGSA,A,1,,,,,,,,,,,,,140.0,99.0,99.0*29
$GPRMC,073140.24,V,,,,,,,010516,,,N*79
$GPGGA,073141.23,,,,,0,08,25.0,,M,,M,,*58
$GPGSV,3,1,11,30,65,331,26,07,53,029,38,28,52,190,24,09,44,106,28*78
$GPGSV,3,2,11,05,34,302,26,08,16,071,34,23,15,116,23,27,04,043,32*74
$GPGSV,3,3,11,11,01,000,,13,10,306,,02,00,254,*4F
$GLGSV,2,1,07,74,30,029,30,65,65,316,,75,62,316,,72,57,164,*6B
$GLGSV,2,2,07,66,11,331,,71,06,155,,84,03,078,*52
$GPGSA,A,1,,,,,,,,,,,,,3.9,2.9,2.5*36
$GNGSA,A,1,,,,,,,,,,,,,3.9,2.9,2.5*28
$GNGSA,A,1,,,,,,,,,,,,,3.9,2.9,2.5*28
$QZGSA,A,1,,,,,,,,,,,,,3.9,2.9,2.5*2A
$GPRMC,073141.23,V,,,,,,,010516,,,N*7F
$GPGGA,073142.23,3206.160335,N,03510.727832,E,1,08,4.8,551.9,M,19.0,M,,*63
$GPGSV,3,1,11,30,65,331,26,07,53,029,39,28,52,190,23,09,44,106,32*75
$GPGSV,3,2,11,05,34,302,26,08,16,071,31,23,15,116,23,27,04,043,32*71
$GPGSV,3,3,11,11,01,000,,13,10,306,,02,00,254,*4F
$GLGSV,2,1,07,74,30,029,30,65,65,316,,75,62,316,,72,57,164,*6B
$GLGSV,2,2,07,66,11,331,,71,06,155,,84,03,078,*52
$GPGSA,A,3,05,07,09,23,27,28,30,,,,,,2.7,2.1,1.7*34
$GNGSA,A,3,05,07,09,23,27,28,30,,,,,,2.7,2.1,1.7*2A
$GNGSA,A,3,74,,,,,,,,,,,,2.7,2.1,1.7*2F
$QZGSA,A,3,,,,,,,,,,,,,2.7,2.1,1.7*2E
$GPRMC,073142.23,A,3206.160335,N,03510.727832,E,015.0,120.4,010516,,,A*55
$GPGGA,073143.21,3206.159997,N,03510.729989,E,1,07,3.2,547.9,M,19.0,M,,*62
$GPGSV,3,1,12,30,65,331,25,07,53,029,39,28,52,190,25,09,44,106,31*70
$GPGSV,3,2,12,05,34,302,26,08,16,071,36,23,15,116,21,27,04,043,32*77
$GPGSV,3,3,12,11,01,000,,32,01,000,,13,10,306,,02,00,254,*7C
$GLGSV,2,1,07,74,30,029,27,65,65,316,,75,62,316,,72,57,164,*6D
$GLGSV,2,2,07,66,11,331,,71,06,155,,84,03,078,*52
$GPGSA,A,3,05,07,08,09,27,28,30,,,,,,3.1,2.0,2.4*3B
$GNGSA,A,3,05,07,08,09,27,28,30,,,,,,3.1,2.0,2.4*25
$GNGSA,A,3,,,,,,,,,,,,,3.1,2.0,2.4*2A
$QZGSA,A,3,,,,,,,,,,,,,3.1,2.0,2.4*28
$GPRMC,073143.21,A,3206.159997,N,03510.729989,E,013.7,123.2,010516,,,A*55
$GPGGA,073144.22,3206.159997,N,03510.729989,E,1,09,3.2,544.0,M,19.0,M,,*62
$GPGSV,3,1,11,30,65,331,25,07,53,029,38,28,52,190,24,09,44,106,31*73
$GPGSV,3,2,11,05,34,302,26,08,16,071,36,23,15,116,21,27,04,043,32*74
$GPGSV,3,3,11,32,01,000,,13,10,306,,02,00,254,*4E
$GLGSV,2,1,07,74,30,029,32,65,65,316,,75,62,316,,72,57,164,*69
$GLGSV,2,2,07,66,11,331,,71,06,155,,84,03,077,*5D
$GPGSA,A,3,05,07,08,09,23,27,28,30,,,,,3.4,1.9,2.7*36
$GNGSA,A,3,05,07,08,09,23,27,28,30,,,,,3.4,1.9,2.7*28
$GNGSA,A,3,74,,,,,,,,,,,,3.4,1.9,2.7*25
$QZGSA,A,3,,,,,,,,,,,,,3.4,1.9,2.7*24
$GPRMC,073144.22,A,3206.159997,N,03510.729989,E,000.0,,010516,,,A*78
$GPGGA,073145.22,3206.159997,N,03510.729989,E,1,09,1.6,544.1,M,19.0,M,,*64
$GPGSV,3,1,11,30,65,331,25,07,53,029,38,28,52,190,24,09,44,106,30*72
$GPGSV,3,2,11,05,34,302,26,08,16,071,35,23,15,116,21,27,04,043,31*74
$GPGSV,3,3,11,32,01,000,,13,10,306,,02,00,254,*4E
$GLGSV,2,1,07,74,30,029,31,65,65,316,,75,62,316,,72,57,164,*6A
$GLGSV,2,2,07,66,11,331,,71,06,155,,84,03,077,*5D
$GPGSA,A,3,05,07,08,09,23,27,28,30,,,,,2.1,1.2,1.7*3A
$GNGSA,A,3,05,07,08,09,23,27,28,30,,,,,2.1,1.2,1.7*24
$GNGSA,A,3,74,,,,,,,,,,,,2.1,1.2,1.7*29
$QZGSA,A,3,,,,,,,,,,,,,2.1,1.2,1.7*28
$GPRMC,073145.22,A,3206.159997,N,03510.729989,E,000.0,,010516,,,A*79
$GPGGA,073146.00,3206.159997,N,03510.729989,E,1,12,1.6,548.3,M,19.0,M,,*63
$GPGSV,3,1,11,30,65,331,33,07,53,029,38,28,52,190,24,09,44,106,29*7D
$GPGSV,3,2,11,05,34,302,28,08,16,071,33,23,15,116,21,13,10,306,14*7B
$GPGSV,3,3,11,27,04,043,31,02,00,254,14,32,01,000,*49
$GLGSV,2,1,07,74,30,029,32,66,11,331,21,65,65,316,,75,62,316,*6F
$GLGSV,2,2,07,72,57,164,,71,06,155,,84,03,077,*58
$GPGSA,A,3,02,05,07,08,09,13,23,27,28,30,,,2.0,1.2,1.6*3A
$GNGSA,A,3,02,05,07,08,09,13,23,27,28,30,,,2.0,1.2,1.6*24
$GNGSA,A,3,66,74,,,,,,,,,,,2.0,1.2,1.6*29
$QZGSA,A,3,,,,,,,,,,,,,2.0,1.2,1.6*28
$GPRMC,073146.00,A,3206.159997,N,03510.729989,E,000.0,,010516,,,A*7A
$GPGGA,073147.00,3206.159997,N,03510.729989,E,1,11,1.2,552.6,M,19.0,M,,*6B
$GPGSV,3,1,11,30,65,331,34,07,53,029,38,28,52,190,24,09,44,106,29*7A
$GPGSV,3,2,11,05,34,302,31,08,16,071,31,23,15,116,27,13,10,306,29*79
$GPGSV,3,3,11,27,04,043,30,02,00,254,13,32,01,000,*4F
$GLGSV,2,1,07,65,65,316,16,74,30,029,31,66,11,331,27,75,62,316,18*64
$GLGSV,2,2,07,72,57,164,,71,06,155,,84,03,077,*58
$GPGSA,A,3,05,07,08,09,13,23,27,28,30,,,,1.6,1.1,1.3*3B
$GNGSA,A,3,05,07,08,09,13,23,27,28,30,,,,1.6,1.1,1.3*25
$GNGSA,A,3,66,74,,,,,,,,,,,1.6,1.1,1.3*2A
$QZGSA,A,3,,,,,,,,,,,,,1.6,1.1,1.3*2B
$GPRMC,073147.00,A,3206.159997,N,03510.729989,E,000.0,,010516,,,A*7B
$GPGGA,073148.00,3206.159997,N,03510.729989,E,1,12,1.2,553.5,M,19.0,M,,*65
$GPGSV,3,1,11,30,65,331,34,07,53,029,37,28,52,190,24,09,44,106,28*74
$GPGSV,3,2,11,05,34,302,31,08,16,071,29,23,15,116,28,13,10,306,36*71
$GPGSV,3,3,11,27,04,043,29,02,00,254,13,32,01,000,*47
$GLGSV,2,1,08,65,65,316,25,74,30,029,31,66,11,331,32,75,62,316,19*6E
$GLGSV,2,2,08,73,01,000,,72,57,164,,71,06,155,,84,03,077,*62
$GPGSA,A,3,02,05,07,08,09,13,23,27,28,30,,,1.6,1.0,1.2*39
$GNGSA,A,3,02,05,07,08,09,13,23,27,28,30,,,1.6,1.0,1.2*27
$GNGSA,A,3,66,74,,,,,,,,,,,1.6,1.0,1.2*2A
$QZGSA,A,3,,,,,,,,,,,,,1.6,1.0,1.2*2B
$GPRMC,073148.00,A,3206.159997,N,03510.729989,E,000.0,,010516,,,A*74
$GPGGA,073149.00,3206.159997,N,03510.729989,E,1,12,1.2,553.9,M,19.0,M,,*68
$GPGSV,3,1,10,30,65,331,34,07,53,029,36,28,52,190,24,09,44,106,28*74
$GPGSV,3,2,10,05,34,302,34,08,16,071,29,23,15,116,28,13,10,306,36*75
$GPGSV,3,3,10,27,04,043,28,02,00,254,13*77
$GLGSV,2,1,08,65,65,316,24,74,30,029,30,66,11,331,32,75,62,316,20*64
$GLGSV,2,2,08,73,01,000,,72,57,164,,71,06,155,,84,03,077,*62
$GPGSA,A,3,02,05,07,08,09,13,23,27,28,30,,,1.7,0.9,1.4*36
$GNGSA,A,3,02,05,07,08,09,13,23,27,28,30,,,1.7,0.9,1.4*28
$GNGSA,A,3,66,74,,,,,,,,,,,1.7,0.9,1.4*25
$QZGSA,A,3,,,,,,,,,,,,,1.7,0.9,1.4*24
$GPRMC,073149.00,A,3206.159997,N,03510.729989,E,000.0,,010516,,,A*75
$GPGGA,073150.00,3206.155622,N,03510.741077,E,1,11,1.2,554.0,M,19.0,M,,*66
$GPGSV,3,1,10,30,65,331,33,07,53,030,34,28,52,190,25,09,44,106,27*77
$GPGSV,3,2,10,05,34,302,35,08,16,071,29,23,15,116,29,13,10,306,37*74
$GPGSV,3,3,10,27,04,043,27,02,00,254,29*71
$GLGSV,2,1,08,65,65,316,24,74,30,029,29,66,11,331,29,75,62,316,20*66
$GLGSV,2,2,08,73,01,000,,72,57,164,,71,06,155,,84,03,077,*62
$GPGSA,A,3,02,05,07,08,09,13,23,27,28,30,,,1.4,0.9,1.1*30
$GNGSA,A,3,02,05,07,08,09,13,23,27,28,30,,,1.4,0.9,1.1*2E
$GNGSA,A,3,74,,,,,,,,,,,,1.4,0.9,1.1*23
$QZGSA,A,3,,,,,,,,,,,,,1.4,0.9,1.1*22
$GPRMC,073150.00,A,3206.155622,N,03510.741077,E,000.0,,010516,,,A*76
$GPGGA,073151.00,3206.158647,N,03510.743561,E,1,11,0.8,551.8,M,19.0,M,,*6F
$GPGSV,3,1,10,30,65,331,32,07,53,030,34,28,52,190,25,09,44,106,27*76
$GPGSV,3,2,10,05,34,302,35,08,16,071,28,23,15,116,29,13,10,306,36*74
$GPGSV,3,3,10,27,04,043,27,02,00,254,30*79
$GLGSV,2,1,08,65,65,316,24,74,30,029,28,66,11,331,23,75,62,316,20*6D
$GLGSV,2,2,08,73,01,000,,72,57,164,,71,06,155,,84,03,077,*62
$GPGSA,A,3,02,05,07,08,09,13,23,27,28,30,,,1.4,0.9,1.1*30
$GNGSA,A,3,02,05,07,08,09,13,23,27,28,30,,,1.4,0.9,1.1*2E
$GNGSA,A,3,74,,,,,,,,,,,,1.4,0.9,1.1*23
$QZGSA,A,3,,,,,,,,,,,,,1.4,0.9,1.1*22
$GPRMC,073151.00,A,3206.158647,N,03510.743561,E,009.2,,010516,,,A*72
$GPGGA,073152.00,3206.163285,N,03510.743190,E,1,12,1.6,550.7,M,19.0,M,,*66
$GPGSV,3,1,10,30,65,331,31,07,53,030,33,28,52,190,29,09,44,106,27*7E
$GPGSV,3,2,10,05,34,302,34,08,16,071,29,23,15,116,28,13,10,306,34*77
$GPGSV,3,3,10,27,04,043,26,02,00,254,32*7A
$GLGSV,2,1,08,65,65,316,24,74,30,029,27,66,11,331,22,75,62,316,20*63
$GLGSV,2,2,08,73,01,000,,72,56,164,,71,06,155,,84,03,077,*63
$GPGSA,A,3,02,05,07,08,09,13,23,27,28,30,,,1.3,0.8,1.0*37
$GNGSA,A,3,02,05,07,08,09,13,23,27,28,30,,,1.3,0.8,1.0*29
$GNGSA,A,3,66,74,,,,,,,,,,,1.3,0.8,1.0*24
$QZGSA,A,3,,,,,,,,,,,,,1.3,0.8,1.0*25
$GPRMC,073152.00,A,3206.163285,N,03510.743190,E,013.0,,010516,,,A*70
$GPGGA,073153.00,3206.168304,N,03510.741036,E,1,12,1.6,549.6,M,19.0,M,,*62
$GPGSV,3,1,10,30,65,331,30,07,53,030,32,28,52,190,31,09,44,106,26*76
$GPGSV,3,2,10,05,34,302,33,08,16,071,29,23,15,116,28,13,10,306,33*77
$GPGSV,3,3,10,27,04,043,26,02,00,254,32*7A
$GLGSV,2,1,08,65,65,316,24,74,30,029,26,66,11,331,22,75,62,316,20*62
$GLGSV,2,2,08,73,01,000,,72,56,164,,71,06,155,,84,03,077,*63
$GPGSA,A,3,02,05,07,08,09,13,23,27,28,30,,,1.5,0.9,1.2*32
$GNGSA,A,3,02,05,07,08,09,13,23,27,28,30,,,1.5,0.9,1.2*2C
$GNGSA,A,3,66,74,,,,,,,,,,,1.5,0.9,1.2*21
$QZGSA,A,3,,,,,,,,,,,,,1.5,0.9,1.2*20
$GPRMC,073153.00,A,3206.168304,N,03510.741036,E,016.0,,010516,,,A*78
$GPGGA,073154.00,3206.173204,N,03510.738657,E,1,12,1.6,549.8,M,19.0,M,,*6F
$GPGSV,3,1,10,30,65,331,29,07,53,030,31,28,52,190,30,09,44,106,26*7C
$GPGSV,3,2,10,05,34,302,33,08,16,071,29,23,15,116,28,13,10,306,32*76
$GPGSV,3,3,10,27,04,043,26,02,00,254,32*7A
$GLGSV,2,1,07,65,65,316,23,74,30,029,25,66,11,331,21,75,62,316,20*6A
$GLGSV,2,2,07,72,56,164,,71,06,155,,84,03,077,*59
$GPGSA,A,3,02,05,07,08,09,13,23,27,28,30,,,1.3,0.8,1.0*37
$GNGSA,A,3,02,05,07,08,09,13,23,27,28,30,,,1.3,0.8,1.0*29
$GNGSA,A,3,66,74,,,,,,,,,,,1.3,0.8,1.0*24
$QZGSA,A,3,,,,,,,,,,,,,1.3,0.8,1.0*25
$GPRMC,073154.00,A,3206.173204,N,03510.738657,E,018.1,337.2,010516,,,A*5F
$GPGGA,073155.00,3206.178126,N,03510.736938,E,1,12,1.6,550.6,M,19.0,M,,*68
$GPGSV,3,1,10,30,65,331,28,07,53,030,30,28,52,190,30,09,44,106,25*7F
$GPGSV,3,2,10,05,34,302,33,08,16,071,28,23,15,116,27,13,10,306,32*78
$GPGSV,3,3,10,27,04,043,26,02,00,253,31*7E
$GLGSV,2,1,07,65,65,316,23,74,30,029,25,66,11,331,26,75,62,316,20*6D
$GLGSV,2,2,07,72,56,164,,71,06,155,,84,03,077,*59
$GPGSA,A,3,02,05,07,08,09,13,23,27,28,30,,,1.3,0.8,1.0*37
$GNGSA,A,3,02,05,07,08,09,13,23,27,28,30,,,1.3,0.8,1.0*29
$GNGSA,A,3,66,74,,,,,,,,,,,1.3,0.8,1.0*24
$QZGSA,A,3,,,,,,,,,,,,,1.3,0.8,1.0*25
$GPRMC,073155.00,A,3206.178126,N,03510.736938,E,018.1,339.0,010516,,,A*52
$GPGGA,073156.00,3206.183893,N,03510.735788,E,1,12,1.6,549.1,M,19.0,M,,*61
$GPGSV,3,1,10,30,65,331,28,07,53,030,29,28,52,190,29,09,44,106,25*7F
$GPGSV,3,2,10,05,34,302,32,08,16,071,27,23,15,116,27,13,10,306,32*76
$GPGSV,3,3,10,27,04,043,26,02,00,253,30*7F
$GLGSV,2,1,07,65,65,316,23,74,30,029,24,66,11,331,26,75,62,316,20*6C
$GLGSV,2,2,07,72,56,164,,71,06,155,,84,03,077,*59
$GPGSA,A,3,02,05,07,08,09,13,23,27,28,30,,,1.4,0.9,1.1*30
$GNGSA,A,3,02,05,07,08,09,13,23,27,28,30,,,1.4,0.9,1.1*2E
$GNGSA,A,3,66,74,,,,,,,,,,,1.4,0.9,1.1*23
$QZGSA,A,3,,,,,,,,,,,,,1.4,0.9,1.1*22
$GPRMC,073156.00,A,3206.183893,N,03510.735788,E,019.0,341.8,010516,,,A*53
$GPGGA,073157.00,3206.191330,N,03510.734634,E,1,12,1.6,551.4,M,19.0,M,,*6A
$GPGSV,3,1,11,30,65,331,27,07,53,030,28,28,52,190,28,09,44,106,24*70
$GPGSV,3,2,11,05,34,302,32,08,16,071,27,23,15,116,26,13,10,306,34*70
$GPGSV,3,3,11,27,04,043,26,02,00,253,30,25,01,000,*48
$GLGSV,2,1,07,65,65,316,22,74,30,029,23,66,11,331,26,75,62,316,20*6A
$GLGSV,2,2,07,72,56,164,,71,06,155,,84,03,077,*59
$GPGSA,A,3,02,05,07,08,09,13,23,27,28,30,,,1.7,1.0,1.3*39
$GNGSA,A,3,02,05,07,08,09,13,23,27,28,30,,,1.7,1.0,1.3*27
$GNGSA,A,3,66,74,,,,,,,,,,,1.7,1.0,1.3*2A
$QZGSA,A,3,,,,,,,,,,,,,1.7,1.0,1.3*2B
$GPRMC,073157.00,A,3206.191330,N,03510.734634,E,024.0,350.7,010516,,,A*55
$GPGGA,073158.00,3206.198915,N,03510.732634,E,1,12,1.6,550.7,M,19.0,M,,*65
$GPGSV,3,1,11,30,65,331,27,07,53,030,28,28,52,190,28,09,44,106,24*70
$GPGSV,3,2,11,05,34,302,32,08,16,071,26,23,15,116,27,13,10,306,34*70
$GPGSV,3,3,11,27,04,043,25,02,00,253,30,25,01,000,*4B
$GLGSV,2,1,07,65,65,316,22,74,30,029,23,66,11,331,25,75,62,316,20*69
$GLGSV,2,2,07,72,56,164,,71,06,155,,84,03,077,*59
$GPGSA,A,3,02,05,07,08,09,13,23,27,28,30,,,1.4,0.8,1.1*31
$GNGSA,A,3,02,05,07,08,09,13,23,27,28,30,,,1.4,0.8,1.1*2F
$GNGSA,A,3,66,74,,,,,,,,,,,1.4,0.8,1.1*22
$QZGSA,A,3,,,,,,,,,,,,,1.4,0.8,1.1*23
$GPRMC,073158.00,A,3206.198915,N,03510.732634,E,022.9,349.5,010516,,,A*5D
$GPGGA,073159.00,3206.206567,N,03510.731159,E,1,12,1.6,550.5,M,19.0,M,,*64
$GPGSV,3,1,11,30,65,331,26,07,53,030,27,28,52,190,27,09,44,106,24*71
$GPGSV,3,2,11,05,34,302,31,08,16,071,26,23,15,116,29,13,10,306,32*7B
$GPGSV,3,3,11,27,04,043,24,02,00,253,30,25,01,000,*4A
$GLGSV,2,1,07,65,65,316,21,74,30,029,22,66,11,331,25,75,62,316,20*6B
$GLGSV,2,2,07,72,56,164,,71,06,155,,84,03,077,*59
$GPGSA,A,3,02,05,07,08,09,13,23,27,28,30,,,1.4,0.9,1.1*30
$GNGSA,A,3,02,05,07,08,09,13,23,27,28,30,,,1.4,0.9,1.1*2E
$GNGSA,A,3,66,74,,,,,,,,,,,1.4,0.9,1.1*23
$QZGSA,A,3,,,,,,,,,,,,,1.4,0.9,1.1*22
$GPRMC,073159.00,A,3206.206567,N,03510.731159,E,022.9,348.3,010516,,,A*59
$GPGGA,073200.00,3206.213336,N,03510.728683,E,1,12,1.2,549.7,M,19.0,M,,*6B
$GPGSV,3,1,11,30,65,331,26,07,53,030,26,28,52,190,27,09,44,106,23*77
$GPGSV,3,2,11,05,34,302,30,08,16,071,28,23,15,116,29,13,10,306,31*77
$GPGSV,3,3,11,27,04,043,23,02,00,253,29,25,01,000,*45
$GLGSV,2,1,07,65,65,316,21,74,30,029,22,66,11,331,24,75,62,316,19*60
$GLGSV,2,2,07,72,56,164,,71,06,155,,84,03,077,*59
$GPGSA,A,3,02,05,07,08,09,13,23,27,28,30,,,1.6,0.9,1.3*30
$GNGSA,A,3,02,05,07,08,09,13,23,27,28,30,,,1.6,0.9,1.3*2E
$GNGSA,A,3,66,74,,,,,,,,,,,1.6,0.9,1.3*23
$QZGSA,A,3,,,,,,,,,,,,,1.6,0.9,1.3*22
$GPRMC,073200.00,A,3206.213336,N,03510.728683,E,021.4,340.7,010516,,,A*5A
$GPGGA,073201.00,3206.219335,N,03510.725150,E,1,12,1.2,549.4,M,19.0,M,,*64
$GPGSV,3,1,11,30,65,331,25,07,53,030,26,28,52,190,29,09,44,106,23*7A
$GPGSV,3,2,11,05,34,302,30,08,16,071,27,23,15,116,29,13,10,306,30*79
$GPGSV,3,3,11,27,04,043,23,02,00,253,28,25,01,000,*44
$GLGSV,2,1,07,65,65,316,21,74,30,029,21,66,11,331,24,75,62,316,19*63
$GLGSV,2,2,07,72,56,164,,71,06,155,,84,03,077,*59
$GPGSA,A,3,02,05,07,08,09,13,23,27,28,30,,,1.9,1.1,1.6*33
$GNGSA,A,3,02,05,07,08,09,13,23,27,28,30,,,1.9,1.1,1.6*2D
$GNGSA,A,3,66,74,,,,,,,,,,,1.9,1.1,1.6*20
$QZGSA,A,3,,,,,,,,,,,,,1.9,1.1,1.6*21
$GPRMC,073201.00,A,3206.219335,N,03510.725150,E,022.2,331.8,010516,,,A*5A
$GPGGA,073202.00,3206.225591,N,03510.721406,E,1,12,1.6,548.9,M,19.0,M,,*6A
$GPGSV,3,1,12,30,65,331,25,07,53,030,26,28,52,190,29,09,44,106,23*79
$GPGSV,3,2,12,05,34,302,29,08,16,071,26,23,15,116,29,13,10,306,29*7B
$GPGSV,3,3,12,27,04,043,22,02,00,253,28,20,01,000,,25,01,000,*75
$GLGSV,2,1,07,65,65,316,20,74,30,029,21,66,11,331,23,75,62,316,19*65
$GLGSV,2,2,07,72,56,164,,71,06,155,,84,03,077,*59
$GPGSA,A,3,02,05,07,08,09,13,23,27,28,30,,,1.7,1.1,1.3*38
$GNGSA,A,3,02,05,07,08,09,13,23,27,28,30,,,1.7,1.1,1.3*26
$GNGSA,A,3,66,74,,,,,,,,,,,1.7,1.1,1.3*2B
$QZGSA,A,3,,,,,,,,,,,,,1.7,1.1,1.3*2A
$GPRMC,073202.00,A,3206.225591,N,03510.721406,E,022.2,331.8,010516,,,A*5C
$GPGGA,073203.00,3206.231396,N,03510.717748,E,1,13,1.6,550.0,M,19.0,M,,*62
$GPGSV,3,1,11,30,65,331,24,07,53,030,25,28,52,190,33,09,44,106,23*73
$GPGSV,3,2,11,05,34,302,28,08,16,071,26,23,15,116,28,13,10,306,28*79
$GPGSV,3,3,11,27,04,043,21,02,00,253,29,20,01,000,*42
$GLGSV,2,1,07,65,65,316,18,74,30,029,21,66,11,331,22,71,06,155,15*60
$GLGSV,2,2,07,75,62,316,19,72,56,164,14,84,03,077,*57
$GPGSA,A,3,02,05,07,08,09,13,23,27,28,30,,,2.3,1.2,1.9*36
$GNGSA,A,3,02,05,07,08,09,13,23,27,28,30,,,2.3,1.2,1.9*28
$GNGSA,A,3,66,71,74,,,,,,,,,,2.3,1.2,1.9*23
$QZGSA,A,3,,,,,,,,,,,,,2.3,1.2,1.9*24
$GPRMC,073203.00,A,3206.231396,N,03510.717748,E,023.2,332.8,010516,,,A*57
$GPGGA,073204.00,3206.235041,N,03510.713019,E,1,13,1.6,549.7,M,19.0,M,,*60
$GPGSV,3,1,11,30,65,331,24,07,53,030,24,28,52,190,36,09,44,106,25*71
$GPGSV,3,2,11,05,34,302,27,08,16,071,25,23,15,117,28,13,10,306,27*7B
$GPGSV,3,3,11,27,04,043,21,02,00,253,28,20,01,000,*43
$GLGSV,2,1,07,65,65,316,14,74,30,029,20,66,11,331,21,71,06,155,17*6C
$GLGSV,2,2,07,75,62,316,19,72,56,164,15,84,03,077,*56
$GPGSA,A,3,02,05,07,08,09,13,23,27,28,30,,,2.1,1.4,1.5*3E
$GNGSA,A,3,02,05,07,08,09,13,23,27,28,30,,,2.1,1.4,1.5*20
$GNGSA,A,3,66,71,74,,,,,,,,,,2.1,1.4,1.5*2B
$QZGSA,A,3,,,,,,,,,,,,,2.1,1.4,1.5*2C
$GPRMC,073204.00,A,3206.235041,N,03510.713019,E,017.8,330.3,010516,,,A*5E
$GPGGA,073205.00,3206.236396,N,03510.709163,E,1,12,1.6,548.4,M,19.0,M,,*6F
$GPGSV,3,1,11,30,65,331,24,07,53,030,24,28,52,190,36,09,44,106,27*73
$GPGSV,3,2,11,05,34,302,27,08,16,071,27,23,15,117,27,13,10,306,25*74
$GPGSV,3,3,11,27,04,043,19,02,00,253,28,20,01,000,*48
$GLGSV,2,1,07,74,30,029,20,66,11,331,21,71,06,155,30,65,65,316,10*6D
$GLGSV,2,2,07,75,62,316,19,72,56,164,15,84,03,077,*56
$GPGSA,A,3,02,05,07,08,09,13,23,28,30,,,,1.6,1.0,1.2*3C
$GNGSA,A,3,02,05,07,08,09,13,23,28,30,,,,1.6,1.0,1.2*22
$GNGSA,A,3,66,71,74,,,,,,,,,,1.6,1.0,1.2*2C
$QZGSA,A,3,,,,,,,,,,,,,1.6,1.0,1.2*2B
$GPRMC,073205.00,A,3206.236396,N,03510.709163,E,012.2,305.5,010516,,,A*5D
$GPGGA,073206.00,3206.237244,N,03510.705362,E,1,12,1.6,547.3,M,19.0,M,,*64
$GPGSV,3,1,11,30,65,331,26,07,53,030,23,28,52,190,36,09,44,106,27*76
$GPGSV,3,2,11,05,34,302,26,08,16,071,27,23,15,117,27,13,10,306,24*74
$GPGSV,3,3,11,27,04,043,15,02,00,253,27,20,01,000,*4B
$GLGSV,2,1,08,74,30,029,20,66,11,331,20,71,06,155,29,75,62,316,19*64
$GLGSV,2,2,08,72,56,164,16,82,01,000,,65,65,315,,84,03,077,*6C
$GPGSA,A,3,02,05,07,08,09,13,23,28,30,,,,1.5,0.9,1.1*34
$GNGSA,A,3,02,05,07,08,09,13,23,28,30,,,,1.5,0.9,1.1*2A
$GNGSA,A,3,66,71,74,,,,,,,,,,1.5,0.9,1.1*24
$QZGSA,A,3,,,,,,,,,,,,,1.5,0.9,1.1*23
$GPRMC,073206.00,A,3206.237244,N,03510.705362,E,012.0,293.1,010516,,,A*56
$GPGGA,073207.00,3206.237976,N,03510.700634,E,1,12,1.6,546.7,M,19.0,M,,*69
$GPGSV,3,1,10,30,65,331,26,07,53,030,23,28,52,190,36,09,44,106,27*77
$GPGSV,3,2,10,05,34,302,26,08,16,071,27,23,15,117,26,13,10,306,24*74
$GPGSV,3,3,10,02,00,253,26,27,04,043,10*7D
$GLGSV,2,1,08,74,30,029,19,66,11,331,20,71,06,155,29,75,62,316,18*6F
$GLGSV,2,2,08,72,56,164,16,82,01,000,,65,65,315,,84,03,077,*6C
$GPGSA,A,3,02,05,07,08,09,13,23,28,30,,,,1.6,1.0,1.2*3C
$GNGSA,A,3,02,05,07,08,09,13,23,28,30,,,,1.6,1.0,1.2*22
$GNGSA,A,3,66,71,74,,,,,,,,,,1.6,1.0,1.2*2C
$QZGSA,A,3,,,,,,,,,,,,,1.6,1.0,1.2*2B
$GPRMC,073207.00,A,3206.237976,N,03510.700634,E,013.6,293.5,010516,,,A*5D
$GPGGA,073208.00,3206.238343,N,03510.696113,E,1,12,1.6,546.3,M,19.0,M,,*6D
$GPGSV,3,1,10,30,65,331,26,07,53,030,23,28,52,190,36,09,44,106,26*76
$GPGSV,3,2,10,05,34,302,25,08,16,071,28,23,15,117,28,13,10,306,23*71
$GPGSV,3,3,10,02,00,253,25,27,04,043,*7F
$GLGSV,2,1,08,74,30,029,19,66,11,331,19,71,06,155,28,75,62,316,18*64
$GLGSV,2,2,08,72,56,164,17,82,01,000,,65,65,315,,84,03,077,*6D
$GPGSA,A,3,02,05,07,08,09,13,23,28,30,,,,1.6,1.1,1.2*3D
$GNGSA,A,3,02,05,07,08,09,13,23,28,30,,,,1.6,1.1,1.2*23
$GNGSA,A,3,66,71,74,,,,,,,,,,1.6,1.1,1.2*2D
$QZGSA,A,3,,,,,,,,,,,,,1.6,1.1,1.2*2A
$GPRMC,073208.00,A,3206.238343,N,03510.696113,E,012.1,293.1,010516,,,A*5F
$GPGGA,073209.00,3206.239111,N,03510.691875,E,1,12,1.6,546.7,M,19.0,M,,*62
$GPGSV,3,1,10,30,65,331,26,07,53,030,22,28,52,190,36,09,44,106,26*77
$GPGSV,3,2,10,05,34,302,25,08,16,071,29,23,15,117,28,13,10,306,22*71
$GPGSV,3,3,10,02,00,253,25,27,04,043,*7F
$GLGSV,2,1,08,74,30,029,19,66,11,331,19,71,06,155,29,75,62,316,18*65
$GLGSV,2,2,08,72,56,164,17,82,01,000,,65,65,315,,84,03,077,*6D
$GPGSA,A,3,02,05,07,08,09,13,23,28,30,,,,1.7,1.0,1.4*3B
$GNGSA,A,3,02,05,07,08,09,13,23,28,30,,,,1.7,1.0,1.4*25
$GNGSA,A,3,66,71,74,,,,,,,,,,1.7,1.0,1.4*2B
$QZGSA,A,3,,,,,,,,,,,,,1.7,1.0,1.4*2C
$GPRMC,073209.00,A,3206.239111,N,03510.691875,E,011.5,295.9,010516,,,A*5D
$GPGGA,073210.00,3206.240163,N,03510.687845,E,1,12,1.2,548.5,M,19.0,M,,*6D
$GPGSV,3,1,10,30,65,331,25,07,53,030,22,28,52,190,36,09,44,106,26*74
$GPGSV,3,2,10,05,34,302,24,08,16,071,29,23,15,117,27,13,10,306,21*7C
$GPGSV,3,3,10,02,00,253,24,27,04,043,*7E
$GLGSV,2,1,08,74,30,029,18,66,11,331,18,71,06,155,32,75,62,316,18*6F
$GLGSV,2,2,08,72,56,164,30,82,01,000,,65,65,315,,84,03,077,*68
$GPGSA,A,3,02,05,07,08,09,13,23,28,30,,,,1.5,0.9,1.3*36
$GNGSA,A,3,02,05,07,08,09,13,23,28,30,,,,1.5,0.9,1.3*28
$GNGSA,A,3,66,71,74,,,,,,,,,,1.5,0.9,1.3*26
$QZGSA,A,3,,,,,,,,,,,,,1.5,0.9,1.3*21
$GPRMC,073210.00,A,3206.240163,N,03510.687845,E,011.6,295.6,010516,,,A*56
$GPGGA,073211.00,3206.240754,N,03510.684146,E,1,12,1.2,549.8,M,19.0,M,,*6B
$GPGSV,3,1,11,30,65,331,24,07,53,030,22,28,52,190,36,09,44,106,31*72
$GPGSV,3,2,11,05,34,302,24,08,16,071,27,23,15,117,30,13,10,306,21*75
$GPGSV,3,3,11,02,00,253,23,03,01,000,,27,04,043,*4A
$GLGSV,2,1,08,74,30,029,24,66,11,331,18,71,06,155,33,75,62,316,18*61
$GLGSV,2,2,08,72,56,164,32,82,01,000,,65,66,315,,84,03,077,*69
$GPGSA,A,3,02,05,07,08,09,13,23,28,30,,,,1.8,1.1,1.4*35
$GNGSA,A,3,02,05,07,08,09,13,23,28,30,,,,1.8,1.1,1.4*2B
$GNGSA,A,3,66,71,74,,,,,,,,,,1.8,1.1,1.4*25
$QZGSA,A,3,,,,,,,,,,,,,1.8,1.1,1.4*22
$GPRMC,073211.00,A,3206.240754,N,03510.684146,E,010.2,285.6,010516,,,A*58
$GPGGA,073212.00,3206.240872,N,03510.680727,E,1,11,1.2,549.9,M,19.0,M,,*64
$GPGSV,3,1,11,30,65,331,24,07,53,030,22,28,52,190,35,09,44,106,35*75
$GPGSV,3,2,11,05,34,302,24,08,16,071,27,23,15,117,36,13,10,306,20*72
$GPGSV,3,3,11,02,00,253,22,03,01,000,,27,04,043,*4B
$GLGSV,2,1,07,74,30,029,24,66,11,331,18,71,06,155,30,75,62,316,16*63
$GLGSV,2,2,07,72,56,164,31,65,66,315,,84,03,077,*5E
$GPGSA,A,3,02,05,07,08,09,13,23,28,30,,,,2.0,1.1,1.7*3D
$GNGSA,A,3,02,05,07,08,09,13,23,28,30,,,,2.0,1.1,1.7*23
$GNGSA,A,3,66,74,,,,,,,,,,,2.0,1.1,1.7*2B
$QZGSA,A,3,,,,,,,,,,,,,2.0,1.1,1.7*2A
$GPRMC,073212.00,A,3206.240872,N,03510.680727,E,010.1,276.2,010516,,,A*5E
$GPGGA,073213.00,3206.240553,N,03510.677639,E,1,11,1.2,550.1,M,19.0,M,,*6D
$GPGSV,3,1,11,30,65,331,23,07,53,030,22,28,52,190,34,09,44,106,37*71
$GPGSV,3,2,11,05,34,302,24,08,16,071,29,23,15,117,36,13,10,306,19*76
$GPGSV,3,3,11,02,00,253,21,03,01,000,,27,04,043,*48
$GLGSV,2,1,07,74,30,029,23,66,11,331,17,71,06,155,24,75,62,316,13*6B
$GLGSV,2,2,07,72,56,164,30,65,66,315,,84,03,077,*5F
$GPGSA,A,3,02,05,07,08,09,13,23,28,30,,,,2.1,1.2,1.7*3F
$GNGSA,A,3,02,05,07,08,09,13,23,28,30,,,,2.1,1.2,1.7*21
$GNGSA,A,3,66,74,,,,,,,,,,,2.1,1.2,1.7*29
$QZGSA,A,3,,,,,,,,,,,,,2.1,1.2,1.7*28
$GPRMC,073213.00,A,3206.240553,N,03510.677639,E,010.1,284.0,010516,,,A*58
$GPGGA,073214.00,3206.239248,N,03510.675341,E,1,12,1.2,550.8,M,19.0,M,,*6B
$GPGSV,3,1,11,30,65,331,23,07,53,030,24,28,52,190,33,09,44,106,37*70
$GPGSV,3,2,11,05,34,302,25,08,16,071,33,23,15,117,36,13,10,306,19*7C
$GPGSV,3,3,11,02,00,253,21,03,01,000,,27,04,043,*48
$GLGSV,2,1,07,74,30,029,23,66,11,331,17,71,06,155,23,75,62,316,09*67
$GLGSV,2,2,07,72,56,164,27,65,66,315,,84,03,077,*59
$GPGSA,A,3,02,05,07,08,09,13,23,28,30,,,,2.3,1.2,2.0*39
$GNGSA,A,3,02,05,07,08,09,13,23,28,30,,,,2.3,1.2,2.0*27
$GNGSA,A,3,66,71,74,,,,,,,,,,2.3,1.2,2.0*29
$QZGSA,A,3,,,,,,,,,,,,,2.3,1.2,2.0*2E
$GPRMC,073214.00,A,3206.239248,N,03510.675341,E,008.6,269.2,010516,,,A*5B
$GPGGA,073215.00,3206.235561,N,03510.673228,E,1,12,1.2,550.9,M,19.0,M,,*63
$GPGSV,3,1,11,30,65,331,23,07,53,030,29,28,52,190,32,09,44,106,37*7C
$GPGSV,3,2,11,05,34,302,25,08,16,071,33,23,15,117,38,13,10,306,18*73
$GPGSV,3,3,11,02,00,253,20,03,01,000,,27,04,043,*49
$GLGSV,2,1,07,74,30,029,22,66,11,331,17,71,06,155,25,72,56,164,27*6B
$GLGSV,2,2,07,65,66,315,,75,62,316,,84,03,077,*5B
$GPGSA,A,3,02,05,07,08,09,13,23,28,30,,,,1.9,1.1,1.6*36
$GNGSA,A,3,02,05,07,08,09,13,23,28,30,,,,1.9,1.1,1.6*28
$GNGSA,A,3,66,71,74,,,,,,,,,,1.9,1.1,1.6*26
$QZGSA,A,3,,,,,,,,,,,,,1.9,1.1,1.6*21
$GPRMC,073215.00,A,3206.235561,N,03510.673228,E,010.6,264.1,010516,,,A*55
$GPGGA,073216.00,3206.231098,N,03510.672885,E,1,11,1.2,550.7,M,19.0,M,,*66
$GPGSV,3,1,11,30,65,331,23,07,53,030,28,28,52,190,31,09,44,106,37*7E
$GPGSV,3,2,11,05,34,302,24,08,16,071,33,23,14,117,37,13,10,306,18*7C
$GPGSV,3,3,11,02,00,253,20,03,01,000,,27,04,043,*49
$GLGSV,2,1,08,74,30,029,21,66,11,331,15,71,06,155,31,72,56,164,29*6E
$GLGSV,2,2,08,77,01,000,,65,66,315,,75,62,316,,84,03,077,*65
$GPGSA,A,3,02,05,07,08,09,13,23,28,30,,,,1.8,1.0,1.5*35
$GNGSA,A,3,02,05,07,08,09,13,23,28,30,,,,1.8,1.0,1.5*2B
$GNGSA,A,3,71,74,,,,,,,,,,,1.8,1.0,1.5*25
$QZGSA,A,3,,,,,,,,,,,,,1.8,1.0,1.5*22
$GPRMC,073216.00,A,3206.231098,N,03510.672885,E,009.9,193.4,010516,,,A*54
$GPGGA,073217.00,3206.226818,N,03510.672056,E,1,11,1.2,549.3,M,19.0,M,,*6B
$GPGSV,3,1,10,30,65,331,23,07,53,030,27,28,52,190,30,09,44,106,37*71
$GPGSV,3,2,10,05,34,302,24,08,16,071,32,23,14,117,38,13,10,306,18*73
$GPGSV,3,3,10,02,00,253,19,27,04,043,*70
$GLGSV,2,1,08,74,30,029,21,66,11,331,12,71,06,155,31,72,56,164,32*63
$GLGSV,2,2,08,77,01,000,,65,66,315,,75,62,316,,84,03,077,*65
$GPGSA,A,3,02,05,07,08,09,13,23,28,30,,,,1.6,0.9,1.3*35
$GNGSA,A,3,02,05,07,08,09,13,23,28,30,,,,1.6,0.9,1.3*2B
$GNGSA,A,3,71,74,,,,,,,,,,,1.6,0.9,1.3*25
$QZGSA,A,3,,,,,,,,,,,,,1.6,0.9,1.3*22
$GPRMC,073217.00,A,3206.226818,N,03510.672056,E,009.9,232.0,010516,,,A*59
$GPGGA,073218.00,3206.223571,N,03510.670658,E,1,12,1.2,547.5,M,19.0,M,,*62
$GPGSV,3,1,10,30,65,331,24,07,52,030,27,28,52,190,34,09,44,106,36*72
$GPGSV,3,2,10,05,34,302,24,08,16,071,31,23,14,117,37,13,10,306,17*70
$GPGSV,3,3,10,02,00,253,19,27,04,043,*70
$GLGSV,2,1,08,74,30,029,20,66,11,331,13,71,06,155,31,72,56,164,33*62
$GLGSV,2,2,08,77,01,000,,65,66,315,,75,62,316,,84,03,077,*65
$GPGSA,A,3,02,05,07,08,09,13,23,28,30,,,,2.7,1.7,2.0*38
$GNGSA,A,3,02,05,07,08,09,13,23,28,30,,,,2.7,1.7,2.0*26
$GNGSA,A,3,66,71,74,,,,,,,,,,2.7,1.7,2.0*28
$QZGSA,A,3,,,,,,,,,,,,,2.7,1.7,2.0*2F
$GPRMC,073218.00,A,3206.223571,N,03510.670658,E,010.1,215.7,010516,,,A*59
$GPGGA,073219.00,3206.219863,N,03510.667549,E,1,12,1.2,546.1,M,19.0,M,,*64
$GPGSV,3,1,10,30,65,331,24,07,52,030,26,28,52,190,37,09,44,107,36*71
$GPGSV,3,2,10,05,34,302,24,08,16,071,30,23,14,117,36,13,10,307,17*71
$GPGSV,3,3,10,02,00,253,19,27,04,043,*70
$GLGSV,2,1,08,74,30,029,24,66,11,331,13,71,06,155,30,72,56,164,33*67
$GLGSV,2,2,08,77,01,000,,65,66,315,,75,62,316,,84,03,077,*65
$GPGSA,A,3,02,05,07,08,09,13,23,28,30,,,,1.9,1.3,1.4*36
$GNGSA,A,3,02,05,07,08,09,13,23,28,30,,,,1.9,1.3,1.4*28
$GNGSA,A,3,66,71,74,,,,,,,,,,1.9,1.3,1.4*26
$QZGSA,A,3,,,,,,,,,,,,,1.9,1.3,1.4*21
$GPRMC,073219.00,A,3206.219863,N,03510.667549,E,014.2,211.9,010516,,,A*57
$GPGGA,073220.00,3206.216824,N,03510.663738,E,1,11,1.6,544.8,M,19.0,M,,*6E
$GPGSV,3,1,11,30,65,331,24,07,52,030,26,28,52,190,36,09,44,107,35*72
$GPGSV,3,2,11,05,34,302,25,08,16,071,29,23,14,117,34,13,10,307,15*79
$GPGSV,3,3,11,02,00,253,18,04,01,000,,27,04,043,*45
$GLGSV,2,1,08,74,30,029,24,66,11,331,13,71,06,155,29,72,56,164,33*6F
$GLGSV,2,2,08,77,01,000,,65,66,315,,75,62,317,,84,03,077,*64
$GPGSA,A,3,02,05,07,08,09,23,28,30,,,,,2.7,1.8,2.1*34
$GNGSA,A,3,02,05,07,08,09,23,28,30,,,,,2.7,1.8,2.1*2A
$GNGSA,A,3,66,71,74,,,,,,,,,,2.7,1.8,2.1*26
$QZGSA,A,3,,,,,,,,,,,,,2.7,1.8,2.1*21
$GPRMC,073220.00,A,3206.216824,N,03510.663738,E,014.0,224.7,010516,,,A*5B
$GPGGA,073221.00,3206.213041,N,03510.658349,E,1,11,1.6,543.3,M,19.0,M,,*67
$GPGSV,3,1,11,30,65,331,25,07,52,030,26,28,52,190,36,09,44,107,34*72
$GPGSV,3,2,11,05,34,302,25,08,16,071,28,23,14,117,33,13,10,307,12*78
$GPGSV,3,3,11,02,00,253,18,04,01,000,,27,04,043,*45
$GLGSV,2,1,07,74,30,029,23,66,11,331,13,71,06,155,28,72,56,164,32*67
$GLGSV,2,2,07,65,66,315,,75,62,317,,84,03,077,*5A
$GPGSA,A,3,02,05,07,08,09,23,28,30,,,,,2.5,1.5,2.0*3A
$GNGSA,A,3,02,05,07,08,09,23,28,30,,,,,2.5,1.5,2.0*24
$GNGSA,A,3,66,71,74,,,,,,,,,,2.5,1.5,2.0*28
$QZGSA,A,3,,,,,,,,,,,,,2.5,1.5,2.0*2F
$GPRMC,073221.00,A,3206.213041,N,03510.658349,E,014.0,219.0,010516,,,A*57
$GPGGA,073222.00,3206.209856,N,03510.651808,E,1,11,2.4,541.6,M,19.0,M,,*60
$GPGSV,3,1,11,30,65,331,25,07,52,030,25,28,52,190,36,09,44,107,34*71
$GPGSV,3,2,11,05,34,302,24,08,16,071,27,23,14,117,31,02,00,253,18*7F
$GPGSV,3,3,11,13,10,307,09,04,01,000,,27,04,043,*44
$GLGSV,2,1,07,74,30,029,23,66,11,331,13,71,06,155,27,72,56,164,32*68
$GLGSV,2,2,07,65,66,315,,75,62,317,,84,03,077,*5A
$GPGSA,A,3,02,05,07,08,09,23,28,30,,,,,2.6,1.6,2.0*3A
$GNGSA,A,3,02,05,07,08,09,23,28,30,,,,,2.6,1.6,2.0*24
$GNGSA,A,3,66,71,74,,,,,,,,,,2.6,1.6,2.0*28
$QZGSA,A,3,,,,,,,,,,,,,2.6,1.6,2.0*2F
$GPRMC,073222.00,A,3206.209856,N,03510.651808,E,019.9,230.4,010516,,,A*5D
$GPGGA,073223.00,3206.208482,N,03510.644970,E,1,11,2.4,540.0,M,19.0,M,,*68
$GPGSV,3,1,11,30,65,331,25,07,52,030,25,28,52,190,36,09,44,107,33*76
$GPGSV,3,2,11,05,34,302,24,08,16,071,26,23,14,117,30,02,00,253,18*7F
$GPGSV,3,3,11,04,01,000,,13,10,307,,27,04,043,*4D
$GLGSV,2,1,07,74,30,029,23,66,11,331,13,71,06,155,26,72,56,164,32*69
$GLGSV,2,2,07,65,66,315,,75,62,317,,84,03,077,*5A
$GPGSA,A,3,02,05,07,08,09,23,28,30,,,,,2.5,1.5,2.0*3A
$GNGSA,A,3,02,05,07,08,09,23,28,30,,,,,2.5,1.5,2.0*24
$GNGSA,A,3,66,71,74,,,,,,,,,,2.5,1.5,2.0*28
$QZGSA,A,3,,,,,,,,,,,,,2.5,1.5,2.0*2F
$GPRMC,073223.00,A,3206.208482,N,03510.644970,E,019.1,256.2,010516,,,A*5C
$GPGGA,073224.00,3206.207541,N,03510.638290,E,1,11,2.4,538.6,M,19.0,M,,*69
$GPGSV,3,1,11,30,65,331,25,07,52,030,25,28,52,190,36,09,44,107,33*76
$GPGSV,3,2,11,05,34,302,24,08,16,071,26,23,14,117,29,02,00,253,17*78
$GPGSV,3,3,11,04,01,000,,13,10,307,,27,04,043,*4D
$GLGSV,2,1,07,74,30,029,22,66,11,331,13,71,06,155,25,72,56,164,32*6B
$GLGSV,2,2,07,65,66,315,,75,62,317,,84,03,077,*5A
$GPGSA,A,3,02,05,07,08,09,23,28,30,,,,,2.8,1.9,2.0*3B
$GNGSA,A,3,02,05,07,08,09,23,28,30,,,,,2.8,1.9,2.0*25
$GNGSA,A,3,66,71,74,,,,,,,,,,2.8,1.9,2.0*29
$QZGSA,A,3,,,,,,,,,,,,,2.8,1.9,2.0*2E
$GPRMC,073224.00,A,3206.207541,N,03510.638290,E,016.9,259.0,010516,,,A*5E
$GPGGA,073225.00,3206.206531,N,03510.631565,E,1,11,1.6,537.5,M,19.0,M,,*67
$GPGSV,3,1,11,30,65,331,25,07,52,030,24,28,52,190,36,09,43,107,32*71
$GPGSV,3,2,11,05,34,302,24,08,16,071,25,23,14,117,28,02,00,253,17*7A
$GPGSV,3,3,11,04,01,000,,13,10,307,,27,04,043,*4D
$GLGSV,2,1,08,74,30,029,22,66,11,331,13,71,06,155,24,72,56,164,31*66
$GLGSV,2,2,08,76,01,000,,65,66,315,,75,62,317,,84,03,077,*65
$GPGSA,A,3,02,05,07,08,09,23,28,30,,,,,2.7,1.8,2.1*34
$GNGSA,A,3,02,05,07,08,09,23,28,30,,,,,2.7,1.8,2.1*2A
$GNGSA,A,3,66,71,74,,,,,,,,,,2.7,1.8,2.1*26
$QZGSA,A,3,,,,,,,,,,,,,2.7,1.8,2.1*21
$GPRMC,073225.00,A,3206.206531,N,03510.631565,E,016.4,257.6,010516,,,A*58
$GPGGA,073226.00,3206.205405,N,03510.625575,E,1,09,1.6,536.3,M,19.0,M,,*6B
$GPGSV,3,1,10,30,65,331,24,07,52,030,24,28,52,190,36,09,43,107,32*71
$GPGSV,3,2,10,05,34,302,23,08,16,071,24,23,14,117,25,02,00,253,17*70
$GPGSV,3,3,10,13,10,307,,27,04,043,*79
$GLGSV,2,1,08,74,30,029,21,66,11,331,12,71,06,155,23,72,56,164,31*63
$GLGSV,2,2,08,76,01,000,,65,66,315,,75,62,317,,84,03,077,*65
$GPGSA,A,3,02,05,07,08,09,28,30,,,,,,2.6,1.6,2.0*3B
$GNGSA,A,3,02,05,07,08,09,28,30,,,,,,2.6,1.6,2.0*25
$GNGSA,A,3,71,74,,,,,,,,,,,2.6,1.6,2.0*28
$QZGSA,A,3,,,,,,,,,,,,,2.6,1.6,2.0*2F
$GPRMC,073226.00,A,3206.205405,N,03510.625575,E,017.0,254.3,010516,,,A*59
$GPGGA,073227.00,3206.204368,N,03510.619756,E,1,09,1.6,535.2,M,19.0,M,,*69
$GPGSV,3,1,10,30,65,331,24,07,52,030,24,28,52,190,35,09,43,107,31*71
$GPGSV,3,2,10,05,34,302,23,08,16,071,24,23,14,117,20,02,00,253,17*75
$GPGSV,3,3,10,13,10,307,,27,04,043,*79
$GLGSV,2,1,08,74,30,029,21,66,11,331,09,71,06,155,23,72,56,164,31*69
$GLGSV,2,2,08,76,01,000,,65,66,315,,75,62,317,,84,03,077,*65
$GPGSA,A,3,02,05,07,08,09,28,30,,,,,,2.6,1.6,2.0*3B
$GNGSA,A,3,02,05,07,08,09,28,30,,,,,,2.6,1.6,2.0*25
$GNGSA,A,3,71,74,,,,,,,,,,,2.6,1.6,2.0*28
$QZGSA,A,3,,,,,,,,,,,,,2.6,1.6,2.0*2F
$GPRMC,073227.00,A,3206.204368,N,03510.619756,E,017.0,254.4,010516,,,A*5E
$GPGGA,073228.00,3206.202766,N,03510.613483,E,1,09,1.6,533.8,M,19.0,M,,*67
$GPGSV,3,1,10,30,65,331,24,07,52,030,25,28,52,190,35,09,43,107,31*70
$GPGSV,3,2,10,05,34,302,23,08,16,071,23,02,00,253,16,23,14,117,14*74
$GPGSV,3,3,10,13,10,307,,27,04,043,*79
$GLGSV,2,1,08,74,30,029,21,71,06,155,22,72,56,164,31,76,01,000,*60
$GLGSV,2,2,08,65,66,315,,75,62,317,,66,11,331,,84,03,077,*64
$GPGSA,A,3,02,05,07,08,09,28,30,,,,,,2.6,1.6,2.0*3B
$GNGSA,A,3,02,05,07,08,09,28,30,,,,,,2.6,1.6,2.0*25
$GNGSA,A,3,71,74,,,,,,,,,,,2.6,1.6,2.0*28
$QZGSA,A,3,,,,,,,,,,,,,2.6,1.6,2.0*2F
$GPRMC,073228.00,A,3206.202766,N,03510.613483,E,017.6,254.4,010516,,,A*5A
$GPGGA,073229.00,3206.201755,N,03510.605584,E,1,09,1.2,532.4,M,19.0,M,,*6D
$GPGSV,3,1,11,30,65,331,24,07,52,030,25,28,52,190,35,09,43,107,31*71
$GPGSV,3,2,11,05,34,302,22,08,16,071,22,02,00,253,16,23,14,117,09*79
$GPGSV,3,3,11,31,01,000,,13,10,307,,27,04,043,*4B
$GLGSV,2,1,08,74,30,029,21,71,06,155,22,72,56,164,30,76,01,000,*61
$GLGSV,2,2,08,65,66,315,,75,62,317,,66,11,331,,84,03,077,*64
$GPGSA,A,3,02,05,07,08,09,28,30,,,,,,1.9,1.0,1.6*34
$GNGSA,A,3,02,05,07,08,09,28,30,,,,,,1.9,1.0,1.6*2A
$GNGSA,A,3,71,74,,,,,,,,,,,1.9,1.0,1.6*27
$QZGSA,A,3,,,,,,,,,,,,,1.9,1.0,1.6*20
$GPRMC,073229.00,A,3206.201755,N,03510.605584,E,020.3,256.7,010516,,,A*59
$GPGGA,073230.00,3206.201083,N,03510.597636,E,1,10,1.6,531.7,M,19.0,M,,*67
$GPGSV,3,1,11,30,65,331,24,07,52,030,25,28,52,190,35,09,43,107,31*71
$GPGSV,3,2,11,05,34,302,22,08,16,071,22,23,14,117,26,02,00,253,16*74
$GPGSV,3,3,11,31,01,000,,13,10,307,,27,04,043,*4B
$GLGSV,2,1,07,74,30,029,21,71,06,155,22,72,56,164,30,65,66,315,*6A
$GLGSV,2,2,07,75,62,317,,66,11,331,,84,03,077,*5F
$GPGSA,A,3,02,05,07,08,09,23,28,30,,,,,2.5,1.5,2.0*3A
$GNGSA,A,3,02,05,07,08,09,23,28,30,,,,,2.5,1.5,2.0*24
$GNGSA,A,3,71,74,,,,,,,,,,,2.5,1.5,2.0*28
$QZGSA,A,3,,,,,,,,,,,,,2.5,1.5,2.0*2F
$GPRMC,073230.00,A,3206.201083,N,03510.597636,E,022.0,261.7,010516,,,A*5A
$GPGGA,073231.00,3206.200445,N,03510.589520,E,1,10,1.6,531.7,M,19.0,M,,*62
$GPGSV,3,1,11,30,65,331,24,07,52,030,24,28,52,190,35,09,43,107,30*71
$GPGSV,3,2,11,05,34,302,22,08,16,071,21,23,14,117,26,02,00,253,16*77
$GPGSV,3,3,11,31,01,000,,13,10,307,,27,04,043,*4B
$GLGSV,2,1,07,74,30,029,24,71,06,155,24,72,56,164,30,65,66,315,*69
$GLGSV,2,2,07,75,62,317,,66,11,331,,84,03,077,*5F
$GPGSA,A,3,02,05,07,08,09,23,28,30,,,,,1.9,1.0,1.5*36
$GNGSA,A,3,02,05,07,08,09,23,28,30,,,,,1.9,1.0,1.5*28
$GNGSA,A,3,71,74,,,,,,,,,,,1.9,1.0,1.5*24
$QZGSA,A,3,,,,,,,,,,,,,1.9,1.0,1.5*23
$GPRMC,073231.00,A,3206.200445,N,03510.589520,E,022.9,260.7,010516,,,A*57
$GPGGA,073232.00,3206.199717,N,03510.582013,E,1,10,1.6,532.1,M,19.0,M,,*6D
$GPGSV,3,1,11,30,65,331,24,07,52,030,24,28,52,190,34,09,43,107,30*70
$GPGSV,3,2,11,05,34,302,22,08,16,071,21,23,14,117,26,02,00,253,16*77
$GPGSV,3,3,11,31,01,000,,13,10,307,,27,04,043,*4B
$GLGSV,2,1,07,74,30,029,23,71,06,155,23,72,56,164,29,65,66,315,*61
$GLGSV,2,2,07,75,62,317,,66,11,331,,84,03,077,*5F
$GPGSA,A,3,02,05,07,08,09,23,28,30,,,,,3.5,1.9,2.9*3E
$GNGSA,A,3,02,05,07,08,09,23,28,30,,,,,3.5,1.9,2.9*20
$GNGSA,A,3,71,74,,,,,,,,,,,3.5,1.9,2.9*2C
$QZGSA,A,3,,,,,,,,,,,,,3.5,1.9,2.9*2B
$GPRMC,073232.00,A,3206.199717,N,03510.582013,E,022.1,261.3,010516,,,A*50
$GPGGA,073233.00,3206.198994,N,03510.574721,E,1,10,1.6,532.8,M,19.0,M,,*6E
$GPGSV,3,1,11,30,65,331,24,07,52,030,24,28,52,190,34,09,43,107,29*78
$GPGSV,3,2,11,05,34,302,21,08,16,071,20,23,14,117,25,02,00,253,16*76
$GPGSV,3,3,11,31,01,000,,13,10,307,,27,04,043,*4B
$GLGSV,2,1,07,74,30,029,23,71,06,155,23,72,56,164,29,65,66,315,*61
$GLGSV,2,2,07,75,62,317,,66,11,331,,84,03,077,*5F
$GPGSA,A,3,02,05,07,08,09,23,28,30,,,,,2.5,1.5,2.0*3A
$GNGSA,A,3,02,05,07,08,09,23,28,30,,,,,2.5,1.5,2.0*24
$GNGSA,A,3,71,74,,,,,,,,,,,2.5,1.5,2.0*28
$QZGSA,A,3,,,,,,,,,,,,,2.5,1.5,2.0*2F
$GPRMC,073233.00,A,3206.198994,N,03510.574721,E,022.2,261.4,010516,,,A*5E
$GPGGA,073234.00,3206.197910,N,03510.567876,E,1,10,1.6,533.2,M,19.0,M,,*6E
$GPGSV,3,1,12,30,65,331,24,07,52,030,24,28,52,190,35,09,43,107,29*7A
$GPGSV,3,2,12,05,34,302,21,08,16,071,20,23,14,117,25,02,00,253,15*76
$GPGSV,3,3,12,19,01,000,,31,01,000,,13,10,307,,27,04,043,*71
$GLGSV,2,1,07,74,30,029,24,71,06,155,25,72,56,164,29,65,66,315,*60
$GLGSV,2,2,07,75,62,317,,66,11,331,,84,03,077,*5F
$GPGSA,A,3,02,05,07,08,09,23,28,30,,,,,2.5,1.5,2.0*3A
$GNGSA,A,3,02,05,07,08,09,23,28,30,,,,,2.5,1.5,2.0*24
$GNGSA,A,3,71,74,,,,,,,,,,,2.5,1.5,2.0*28
$QZGSA,A,3,,,,,,,,,,,,,2.5,1.5,2.0*2F
$GPRMC,073234.00,A,3206.197910,N,03510.567876,E,020.9,257.6,010516,,,A*5B
$GPGGA,073235.00,3206.196559,N,03510.560453,E,1,10,1.6,533.2,M,19.0,M,,*63
$GPGSV,3,1,11,30,65,331,24,07,52,030,23,28,52,190,35,09,43,107,29*7E
$GPGSV,3,2,11,05,34,302,21,08,16,071,20,23,14,117,24,02,00,253,15*74
$GPGSV,3,3,11,19,01,000,,13,10,307,,27,04,043,*41
$GLGSV,2,1,07,74,30,029,26,71,06,155,29,72,56,164,30,65,66,315,*66
$GLGSV,2,2,07,75,62,317,,66,11,331,,84,03,077,*5F
$GPGSA,A,3,02,05,07,08,09,23,28,30,,,,,3.9,2.0,3.3*33
$GNGSA,A,3,02,05,07,08,09,23,28,30,,,,,3.9,2.0,3.3*2D
$GNGSA,A,3,71,74,,,,,,,,,,,3.9,2.0,3.3*21
$QZGSA,A,3,,,,,,,,,,,,,3.9,2.0,3.3*26
$GPRMC,073235.00,A,3206.196559,N,03510.560453,E,022.1,257.3,010516,,,A*59
$GPGGA,073236.00,3206.195017,N,03510.552516,E,1,10,1.6,533.4,M,19.0,M,,*6B
$GPGSV,3,1,11,30,65,331,24,07,52,030,24,28,52,190,35,09,43,107,29*79
$GPGSV,3,2,11,05,34,302,21,08,16,071,20,23,14,117,26,02,00,253,15*76
$GPGSV,3,3,11,19,01,000,,13,10,307,,27,04,043,*41
$GLGSV,2,1,07,74,30,029,26,71,06,155,30,72,56,164,30,65,66,315,*6E
$GLGSV,2,2,07,75,62,317,,66,11,331,,84,03,077,*5F
$GPGSA,A,3,02,05,07,08,09,23,28,30,,,,,2.6,1.6,2.0*3A
$GNGSA,A,3,02,05,07,08,09,23,28,30,,,,,2.6,1.6,2.0*24
$GNGSA,A,3,71,74,,,,,,,,,,,2.6,1.6,2.0*28
$QZGSA,A,3,,,,,,,,,,,,,2.6,1.6,2.0*2F
$GPRMC,073236.00,A,3206.195017,N,03510.552516,E,022.1,257.6,010516,,,A*52
$GPGGA,073237.00,3206.192944,N,03510.543829,E,1,10,1.6,534.2,M,19.0,M,,*62
$GPGSV,3,1,11,30,65,331,23,07,52,030,25,28,52,190,35,09,43,107,32*75
$GPGSV,3,2,11,05,34,302,21,08,16,071,20,23,14,117,30,02,00,253,15*71
$GPGSV,3,3,11,19,01,000,,13,10,307,,27,04,043,*41
$GLGSV,2,1,07,74,30,029,25,71,06,155,33,72,56,164,30,65,66,315,*6E
$GLGSV,2,2,07,75,62,317,,66,11,331,,84,03,077,*5F
$GPGSA,A,3,02,05,07,08,09,23,28,30,,,,,1.9,1.0,1.5*36
$GNGSA,A,3,02,05,07,08,09,23,28,30,,,,,1.9,1.0,1.5*28
$GNGSA,A,3,71,74,,,,,,,,,,,1.9,1.0,1.5*24
$QZGSA,A,3,,,,,,,,,,,,,1.9,1.0,1.5*23
$GPRMC,073237.00,A,3206.192944,N,03510.543829,E,025.3,253.7,010516,,,A*5A
$GPGGA,073238.00,3206.191032,N,03510.534875,E,1,11,1.2,534.6,M,19.0,M,,*6E
$GPGSV,3,1,11,30,65,331,23,07,52,030,25,28,52,190,35,09,43,107,32*75
$GPGSV,3,2,11,05,34,302,25,08,16,071,19,23,14,117,29,02,00,253,15*77
$GPGSV,3,3,11,19,01,000,,13,10,307,,27,04,043,*41
$GLGSV,2,1,07,74,30,029,25,71,06,155,32,72,56,164,31,65,66,315,*6E
$GLGSV,2,2,07,75,62,317,,66,11,331,,84,03,077,*5F
$GPGSA,A,3,02,05,07,08,09,23,28,30,,,,,2.1,1.1,1.8*31
$GNGSA,A,3,02,05,07,08,09,23,28,30,,,,,2.1,1.1,1.8*2F
$GNGSA,A,3,71,72,74,,,,,,,,,,2.1,1.1,1.8*26
$QZGSA,A,3,,,,,,,,,,,,,2.1,1.1,1.8*24
$GPRMC,073238.00,A,3206.191032,N,03510.534875,E,025.4,252.8,010516,,,A*5E
$GPGGA,073239.00,3206.188989,N,03510.526240,E,1,11,1.2,535.2,M,19.0,M,,*64
$GPGSV,3,1,12,30,65,332,23,07,52,030,25,28,52,190,35,09,43,107,32*75
$GPGSV,3,2,12,05,34,302,25,08,16,071,25,23,14,117,29,02,00,253,15*7B
$GPGSV,3,3,12,06,01,000,,19,01,000,,13,10,307,,27,04,043,*75
$GLGSV,2,1,07,72,56,164,31,74,30,029,26,71,06,155,33,65,66,315,*6C
$GLGSV,2,2,07,75,62,317,,66,11,331,,84,03,077,*5F
$GPGSA,A,3,02,05,07,08,09,23,28,30,,,,,1.8,1.0,1.5*37
$GNGSA,A,3,02,05,07,08,09,23,28,30,,,,,1.8,1.0,1.5*29
$GNGSA,A,3,71,72,74,,,,,,,,,,1.8,1.0,1.5*20
$QZGSA,A,3,,,,,,,,,,,,,1.8,1.0,1.5*22
$GPRMC,073239.00,A,3206.188989,N,03510.526240,E,024.7,252.5,010516,,,A*5E
$GPGGA,073240.00,3206.186809,N,03510.518430,E,1,11,1.2,535.3,M,19.0,M,,*60
$GPGSV,3,1,11,30,65,332,22,07,52,030,25,28,52,190,36,09,43,107,32*74
$GPGSV,3,2,11,05,34,302,25,08,16,071,25,23,14,117,28,02,00,253,15*79
$GPGSV,3,3,11,06,01,000,,13,10,307,,27,04,043,*4F
$GLGSV,2,1,07,72,56,164,31,74,30,029,27,71,06,155,33,65,66,315,*6D
$GLGSV,2,2,07,75,62,317,,66,11,331,,84,03,077,*5F
$GPGSA,A,3,02,05,07,08,09,23,28,30,,,,,1.7,1.0,1.4*39
$GNGSA,A,3,02,05,07,08,09,23,28,30,,,,,1.7,1.0,1.4*27
$GNGSA,A,3,71,72,74,,,,,,,,,,1.7,1.0,1.4*2E
$QZGSA,A,3,,,,,,,,,,,,,1.7,1.0,1.4*2C
$GPRMC,073240.00,A,3206.186809,N,03510.518430,E,022.8,251.0,010516,,,A*54
$GPGGA,073241.00,3206.185229,N,03510.512608,E,1,10,1.2,535.7,M,19.0,M,,*6C
$GPGSV,3,1,11,30,65,332,24,28,52,190,36,07,52,030,25,09,43,107,32*72
$GPGSV,3,2,11,05,34,302,24,08,16,071,25,23,14,117,28,02,00,253,13*7E
$GPGSV,3,3,11,06,01,000,,13,10,307,,27,04,043,*4F
$GLGSV,2,1,07,72,56,164,31,74,30,029,28,71,06,155,32,65,66,315,*63
$GLGSV,2,2,07,75,62,317,,66,11,331,,84,03,077,*5F
$GPGSA,A,3,05,07,08,09,23,28,30,,,,,,1.7,1.0,1.4*3B
$GNGSA,A,3,05,07,08,09,23,28,30,,,,,,1.7,1.0,1.4*25
$GNGSA,A,3,71,72,74,,,,,,,,,,1.7,1.0,1.4*2E
$QZGSA,A,3,,,,,,,,,,,,,1.7,1.0,1.4*2C
$GPRMC,073241.00,A,3206.185229,N,03510.512608,E,016.7,250.5,010516,,,A*51
$GPGGA,073242.00,3206.183724,N,03510.507599,E,1,10,1.6,536.2,M,19.0,M,,*6C
$GPGSV,3,1,11,30,65,332,24,28,52,190,36,07,52,030,26,09,43,107,36*75
$GPGSV,3,2,11,05,34,302,24,08,16,071,25,23,14,117,31,02,00,253,11*74
$GPGSV,3,3,11,06,01,000,,13,10,307,,27,04,043,*4F
$GLGSV,2,1,07,72,56,164,30,74,30,029,27,71,06,155,32,65,66,315,*6D
$GLGSV,2,2,07,75,62,317,,66,11,331,,84,03,077,*5F
$GPGSA,A,3,05,07,08,09,23,28,30,,,,,,1.7,1.0,1.4*3B
$GNGSA,A,3,05,07,08,09,23,28,30,,,,,,1.7,1.0,1.4*25
$GNGSA,A,3,71,72,74,,,,,,,,,,1.7,1.0,1.4*2E
$QZGSA,A,3,,,,,,,,,,,,,1.7,1.0,1.4*2C
$GPRMC,073242.00,A,3206.183724,N,03510.507599,E,016.1,249.5,010516,,,A*5D
$GPGGA,073243.00,3206.182318,N,03510.502511,E,1,10,1.6,536.3,M,19.0,M,,*63
$GPGSV,3,1,11,30,65,332,24,28,52,190,35,07,52,030,26,09,43,107,35*75
$GPGSV,3,2,11,05,34,302,24,08,16,071,27,23,14,117,34,02,00,253,07*74
$GPGSV,3,3,11,06,01,000,,13,10,307,,27,04,043,*4F
$GLGSV,2,1,08,72,56,164,30,74,30,029,27,71,06,155,30,83,01,000,*6E
$GLGSV,2,2,08,65,66,315,,75,62,317,,66,11,331,,84,03,077,*64
$GPGSA,A,3,05,07,08,09,23,28,30,,,,,,2.1,1.1,1.8*33
$GNGSA,A,3,05,07,08,09,23,28,30,,,,,,2.1,1.1,1.8*2D
$GNGSA,A,3,71,72,74,,,,,,,,,,2.1,1.1,1.8*26
$QZGSA,A,3,,,,,,,,,,,,,2.1,1.1,1.8*24
$GPRMC,073243.00,A,3206.182318,N,03510.502511,E,016.1,249.0,010516,,,A*56
$GPGGA,073244.00,3206.180848,N,03510.497315,E,1,10,1.6,537.4,M,19.0,M,,*61
$GPGSV,3,1,10,30,65,332,24,28,52,190,34,07,52,030,25,09,43,107,35*76
$GPGSV,3,2,10,05,34,302,24,08,16,071,27,23,14,117,33,13,10,307,*74
$GPGSV,3,3,10,27,04,043,,02,00,253,*78
$GLGSV,2,1,08,72,56,164,29,74,30,029,26,71,06,155,30,83,01,000,*67
$GLGSV,2,2,08,65,66,315,,75,62,317,,66,11,331,,84,03,077,*64
$GPGSA,A,3,05,07,08,09,23,28,30,,,,,,1.9,1.0,1.5*34
$GNGSA,A,3,05,07,08,09,23,28,30,,,,,,1.9,1.0,1.5*2A
$GNGSA,A,3,71,72,74,,,,,,,,,,1.9,1.0,1.5*21
$QZGSA,A,3,,,,,,,,,,,,,1.9,1.0,1.5*23
$GPRMC,073244.00,A,3206.180848,N,03510.497315,E,016.6,248.2,010516,,,A*56
$GPGGA,073245.00,3206.179336,N,03510.491889,E,1,10,1.6,538.5,M,19.0,M,,*62
$GPGSV,3,1,10,30,65,332,24,07,52,030,25,28,52,190,34,09,43,107,35*76
$GPGSV,3,2,10,05,34,302,23,08,16,071,27,23,14,117,32,13,10,307,*72
$GPGSV,3,3,10,27,04,043,,02,00,253,*78
$GLGSV,2,1,08,65,66,315,17,72,56,164,29,74,30,029,26,71,06,155,28*66
$GLGSV,2,2,08,83,01,000,,75,62,317,,66,11,331,,84,03,077,*6A
$GPGSA,A,3,05,07,08,09,23,28,30,,,,,,2.1,1.1,1.8*33
$GNGSA,A,3,05,07,08,09,23,28,30,,,,,,2.1,1.1,1.8*2D
$GNGSA,A,3,71,72,74,,,,,,,,,,2.1,1.1,1.8*26
$QZGSA,A,3,,,,,,,,,,,,,2.1,1.1,1.8*24
$GPRMC,073245.00,A,3206.179336,N,03510.491889,E,018.1,247.5,010516,,,A*5A
$GPGGA,073246.00,3206.177116,N,03510.485966,E,1,10,1.2,539.4,M,19.0,M,,*6E
$GPGSV,3,1,10,30,65,332,23,07,52,030,24,28,52,190,33,09,43,107,35*77
$GPGSV,3,2,10,05,34,302,23,08,16,071,26,23,14,117,34,13,10,307,*75
$GPGSV,3,3,10,27,04,043,,02,00,253,*78
$GLGSV,2,1,08,65,66,315,17,72,56,164,29,74,30,029,26,71,06,155,28*66
$GLGSV,2,2,08,83,01,000,,75,62,317,,66,11,331,,84,03,077,*6A
$GPGSA,A,3,05,07,08,09,23,28,30,,,,,,1.8,1.0,1.5*35
$GNGSA,A,3,05,07,08,09,23,28,30,,,,,,1.8,1.0,1.5*2B
$GNGSA,A,3,71,72,74,,,,,,,,,,1.8,1.0,1.5*20
$QZGSA,A,3,,,,,,,,,,,,,1.8,1.0,1.5*22
$GPRMC,073246.00,A,3206.177116,N,03510.485966,E,020.0,244.2,010516,,,A*5C
$GPGGA,073247.00,3206.174567,N,03510.479386,E,1,10,1.2,540.1,M,19.0,M,,*62
$GPGSV,3,1,10,30,65,332,24,07,52,030,24,28,52,190,33,09,43,107,34*71
$GPGSV,3,2,10,05,34,302,23,08,16,071,26,23,14,117,33,13,10,307,*72
$GPGSV,3,3,10,27,04,043,,02,00,253,*78
$GLGSV,2,1,08,65,66,315,17,72,56,164,29,74,30,029,26,71,06,155,27*69
$GLGSV,2,2,08,83,01,000,,75,62,317,,66,11,331,,84,03,077,*6A
$GPGSA,A,3,05,07,08,09,23,28,30,,,,,,1.9,1.0,1.7*36
$GNGSA,A,3,05,07,08,09,23,28,30,,,,,,1.9,1.0,1.7*28
$GNGSA,A,3,71,72,74,,,,,,,,,,1.9,1.0,1.7*23
$QZGSA,A,3,,,,,,,,,,,,,1.9,1.0,1.7*21
$GPRMC,073247.00,A,3206.174567,N,03510.479386,E,022.1,245.2,010516,,,A*59
$GPGGA,073248.00,3206.171577,N,03510.471994,E,1,10,1.2,540.8,M,19.0,M,,*61
$GPGSV,3,1,11,30,65,332,25,07,52,030,25,28,52,190,33,09,43,107,33*77
$GPGSV,3,2,11,05,34,302,23,08,16,071,26,23,14,117,32,21,01,000,*77
$GPGSV,3,3,11,13,10,307,,27,04,043,,02,00,253,*4E
$GLGSV,2,1,08,65,66,315,17,72,56,164,28,74,30,029,26,71,06,155,27*68
$GLGSV,2,2,08,83,01,000,,75,62,317,,66,11,331,,84,03,077,*6A
$GPGSA,A,3,05,07,08,09,23,28,30,,,,,,2.6,1.8,1.9*3C
$GNGSA,A,3,05,07,08,09,23,28,30,,,,,,2.6,1.8,1.9*22
$GNGSA,A,3,71,72,74,,,,,,,,,,2.6,1.8,1.9*29
$QZGSA,A,3,,,,,,,,,,,,,2.6,1.8,1.9*2B
$GPRMC,073248.00,A,3206.171577,N,03510.471994,E,024.0,244.4,010516,,,A*53
$GPGGA,073249.00,3206.168436,N,03510.464472,E,1,10,1.2,540.9,M,19.0,M,,*6C
$GPGSV,3,1,11,30,65,332,25,07,52,030,25,28,52,190,33,09,43,107,33*77
$GPGSV,3,2,11,05,34,302,23,08,16,071,26,23,14,117,32,21,01,000,*77
$GPGSV,3,3,11,13,10,307,,27,04,043,,02,00,253,*4E
$GLGSV,2,1,07,65,66,315,17,72,56,164,28,74,30,029,28,71,06,155,26*68
$GLGSV,2,2,07,75,62,317,,66,11,331,,84,03,077,*5F
$GPGSA,A,3,05,07,08,09,23,28,30,,,,,,1.8,1.0,1.5*35
$GNGSA,A,3,05,07,08,09,23,28,30,,,,,,1.8,1.0,1.5*2B
$GNGSA,A,3,71,72,74,,,,,,,,,,1.8,1.0,1.5*20
$QZGSA,A,3,,,,,,,,,,,,,1.8,1.0,1.5*22
$GPRMC,073249.00,A,3206.168436,N,03510.464472,E,024.6,243.6,010516,,,A*5C
$GPGGA,073250.00,3206.164847,N,03510.456918,E,1,10,1.2,540.9,M,19.0,M,,*62
$GPGSV,3,1,11,30,65,332,25,07,52,030,25,28,52,190,32,09,43,107,33*76
$GPGSV,3,2,11,05,34,302,23,08,16,071,26,23,14,117,35,21,01,000,*70
$GPGSV,3,3,11,13,10,307,,27,04,043,,02,00,253,*4E
$GLGSV,2,1,07,65,66,315,17,72,56,164,27,74,30,029,28,71,06,155,26*67
$GLGSV,2,2,07,75,62,317,,66,11,331,,84,03,077,*5F
$GPGSA,A,3,05,07,08,09,23,28,30,,,,,,1.9,1.0,1.6*37
$GNGSA,A,3,05,07,08,09,23,28,30,,,,,,1.9,1.0,1.6*29
$GNGSA,A,3,71,72,74,,,,,,,,,,1.9,1.0,1.6*22
$QZGSA,A,3,,,,,,,,,,,,,1.9,1.0,1.6*20
$GPRMC,073250.00,A,3206.164847,N,03510.456918,E,025.9,241.8,010516,,,A*50
$GPGGA,073251.00,3206.160697,N,03510.449173,E,1,10,1.2,540.6,M,19.0,M,,*60
$GPGSV,3,1,11,30,65,332,25,07,52,030,25,28,52,190,31,09,43,107,33*75
$GPGSV,3,2,11,05,34,302,22,08,16,071,27,23,14,117,36,21,01,000,*73
$GPGSV,3,3,11,13,10,307,,27,04,043,,02,00,253,*4E
$GLGSV,2,1,07,65,66,315,15,72,56,164,27,74,30,029,27,71,06,155,26*6A
$GLGSV,2,2,07,75,62,317,,66,11,331,,84,03,077,*5F
$GPGSA,A,3,05,07,08,09,23,28,30,,,,,,1.8,1.0,1.5*35
$GNGSA,A,3,05,07,08,09,23,28,30,,,,,,1.8,1.0,1.5*2B
$GNGSA,A,3,71,72,74,,,,,,,,,,1.8,1.0,1.5*20
$QZGSA,A,3,,,,,,,,,,,,,1.8,1.0,1.5*22
$GPRMC,073251.00,A,3206.160697,N,03510.449173,E,025.9,240.8,010516,,,A*5C
$GPGGA,073252.00,3206.156911,N,03510.442050,E,1,10,1.2,540.7,M,19.0,M,,*6D
$GPGSV,3,1,11,30,65,332,25,07,52,030,24,28,52,190,31,09,43,107,32*75
$GPGSV,3,2,11,05,34,302,22,08,16,071,27,23,14,117,34,21,01,000,*71
$GPGSV,3,3,11,13,10,307,,27,04,043,,02,00,253,*4E
$GLGSV,2,1,08,65,66,315,12,72,56,164,27,74,30,029,27,71,06,155,26*62
$GLGSV,2,2,08,81,01,000,,75,62,317,,66,11,331,,84,03,077,*68
$GPGSA,A,3,05,07,08,09,23,28,30,,,,,,2.5,1.5,2.0*38
$GNGSA,A,3,05,07,08,09,23,28,30,,,,,,2.5,1.5,2.0*26
$GNGSA,A,3,71,72,74,,,,,,,,,,2.5,1.5,2.0*2D
$QZGSA,A,3,,,,,,,,,,,,,2.5,1.5,2.0*2F
$GPRMC,073252.00,A,3206.156911,N,03510.442050,E,023.7,239.5,010516,,,A*5B
$GPGGA,073253.00,3206.153339,N,03510.435614,E,1,10,1.2,540.0,M,19.0,M,,*68
$GPGSV,3,1,10,30,65,332,25,28,52,190,31,07,52,030,24,09,43,107,34*72
$GPGSV,3,2,10,05,34,302,22,08,16,071,27,23,14,117,34,13,10,307,*75
$GPGSV,3,3,10,27,04,043,,02,00,253,*78
$GLGSV,2,1,08,72,56,164,28,74,30,029,26,71,06,155,26,65,66,315,09*66
$GLGSV,2,2,08,81,01,000,,75,62,317,,66,11,331,,84,03,077,*68
$GPGSA,A,3,05,07,08,09,23,28,30,,,,,,1.9,1.0,1.6*37
$GNGSA,A,3,05,07,08,09,23,28,30,,,,,,1.9,1.0,1.6*29
$GNGSA,A,3,71,72,74,,,,,,,,,,1.9,1.0,1.6*22
$QZGSA,A,3,,,,,,,,,,,,,1.9,1.0,1.6*20
$GPRMC,073253.00,A,3206.153339,N,03510.435614,E,022.8,239.0,010516,,,A*52
$GPGGA,073254.00,3206.149341,N,03510.428801,E,1,10,1.2,539.0,M,19.0,M,,*63
$GPGSV,3,1,10,30,65,332,25,28,52,190,31,07,52,030,24,09,43,107,34*72
$GPGSV,3,2,10,05,34,302,24,08,16,071,30,23,14,117,33,13,10,307,*72
$GPGSV,3,3,10,27,04,043,,02,00,253,*78
$GLGSV,2,1,08,72,56,164,28,74,30,029,26,71,06,155,25,81,01,000,*60
$GLGSV,2,2,08,65,66,315,,75,62,317,,66,11,331,,84,03,077,*64
$GPGSA,A,3,05,07,08,09,23,28,30,,,,,,1.8,1.0,1.4*34
$GNGSA,A,3,05,07,08,09,23,28,30,,,,,,1.8,1.0,1.4*2A
$GNGSA,A,3,71,72,74,,,,,,,,,,1.8,1.0,1.4*21
$QZGSA,A,3,,,,,,,,,,,,,1.8,1.0,1.4*23
$GPRMC,073254.00,A,3206.149341,N,03510.428801,E,024.6,238.5,010516,,,A*5B
$GPGGA,073255.00,3206.145034,N,03510.421637,E,1,10,1.2,538.7,M,19.0,M,,*6B
$GPGSV,3,1,10,30,65,332,25,28,52,190,31,07,52,030,24,09,43,107,35*73
$GPGSV,3,2,10,05,34,302,24,08,16,071,29,23,14,117,35,13,10,307,*7C
$GPGSV,3,3,10,27,04,043,,02,00,253,*78
$GLGSV,2,1,08,72,56,164,27,74,30,029,26,71,06,155,25,81,01,000,*6F
$GLGSV,2,2,08,65,66,315,,75,62,317,,66,11,331,,84,03,077,*64
$GPGSA,A,3,05,07,08,09,23,28,30,,,,,,1.8,1.0,1.5*35
$GNGSA,A,3,05,07,08,09,23,28,30,,,,,,1.8,1.0,1.5*2B
$GNGSA,A,3,71,72,74,,,,,,,,,,1.8,1.0,1.5*20
$QZGSA,A,3,,,,,,,,,,,,,1.8,1.0,1.5*22
$GPRMC,073255.00,A,3206.145034,N,03510.421637,E,025.0,238.0,010516,,,A*57
$GPGGA,073256.00,3206.140573,N,03510.414015,E,1,10,1.2,538.3,M,19.0,M,,*6F
$GPGSV,3,1,10,30,65,332,25,07,52,030,24,28,52,190,31,09,43,107,35*73
$GPGSV,3,2,10,05,34,302,25,08,16,071,29,23,14,117,35,13,10,307,*7D
$GPGSV,3,3,10,27,04,043,,02,00,253,*78
$GLGSV,2,1,08,65,66,315,18,72,56,164,27,74,30,029,26,71,06,155,24*6B
$GLGSV,2,2,08,81,01,000,,75,62,317,,66,11,331,,84,03,077,*68
$GPGSA,A,3,05,07,08,09,23,28,30,,,,,,2.1,1.1,1.8*33
$GNGSA,A,3,05,07,08,09,23,28,30,,,,,,2.1,1.1,1.8*2D
$GNGSA,A,3,71,72,74,,,,,,,,,,2.1,1.1,1.8*26
$QZGSA,A,3,,,,,,,,,,,,,2.1,1.1,1.8*24
$GPRMC,073256.00,A,3206.140573,N,03510.414015,E,026.6,237.5,010516,,,A*58
$GPGGA,073257.00,3206.136240,N,03510.406276,E,1,10,1.2,538.3,M,19.0,M,,*6C
$GPGSV,3,1,11,30,65,332,24,07,52,030,24,28,52,190,31,09,43,107,35*73
$GPGSV,3,2,11,05,34,302,25,08,16,071,29,23,14,117,35,14,01,000,*7F
$GPGSV,3,3,11,13,10,307,,27,04,043,,02,00,253,*4E
$GLGSV,2,1,08,65,66,315,16,72,56,164,27,74,30,029,26,71,06,155,25*64
$GLGSV,2,2,08,81,01,000,,75,62,317,,66,11,331,,84,03,077,*68
$GPGSA,A,3,05,07,08,09,23,28,30,,,,,,1.8,1.0,1.5*35
$GNGSA,A,3,05,07,08,09,23,28,30,,,,,,1.8,1.0,1.5*2B
$GNGSA,A,3,71,72,74,,,,,,,,,,1.8,1.0,1.5*20
$QZGSA,A,3,,,,,,,,,,,,,1.8,1.0,1.5*22
$GPRMC,073257.00,A,3206.136240,N,03510.406276,E,027.3,238.7,010516,,,A*52
$GPGGA,073258.00,3206.132215,N,03510.398021,E,1,10,1.2,538.2,M,19.0,M,,*66
$GPGSV,3,1,11,30,65,332,24,07,52,030,23,28,52,190,31,09,43,107,35*74
$GPGSV,3,2,11,05,34,302,25,08,16,071,28,23,14,117,33,14,01,000,*78
$GPGSV,3,3,11,13,10,307,,27,04,043,,02,00,253,*4E
$GLGSV,2,1,07,65,66,315,13,72,56,164,27,74,30,029,25,71,06,155,27*6F
$GLGSV,2,2,07,75,62,317,,66,11,331,,84,03,077,*5F
$GPGSA,A,3,05,07,08,09,23,28,30,,,,,,1.7,1.0,1.4*3B
$GNGSA,A,3,05,07,08,09,23,28,30,,,,,,1.7,1.0,1.4*25
$GNGSA,A,3,71,72,74,,,,,,,,,,1.7,1.0,1.4*2E
$QZGSA,A,3,,,,,,,,,,,,,1.7,1.0,1.4*2C
$GPRMC,073258.00,A,3206.132215,N,03510.398021,E,028.4,240.1,010516,,,A*58
$GPGGA,073259.00,3206.128783,N,03510.390145,E,1,10,1.2,537.5,M,19.0,M,,*65
$GPGSV,3,1,11,30,65,332,24,28,52,190,30,07,52,030,23,09,43,107,34*74
$GPGSV,3,2,11,05,34,302,25,08,16,071,28,23,14,117,33,14,01,000,*78
$GPGSV,3,3,11,13,10,307,,27,04,043,,02,00,253,*4E
$GLGSV,2,1,07,72,56,164,27,74,30,029,26,71,06,155,26,65,66,315,09*66
$GLGSV,2,2,07,75,62,317,,66,11,331,,84,03,077,*5F
$GPGSA,A,3,05,07,08,09,23,28,30,,,,,,1.7,1.0,1.4*3B
$GNGSA,A,3,05,07,08,09,23,28,30,,,,,,1.7,1.0,1.4*25
$GNGSA,A,3,71,72,74,,,,,,,,,,1.7,1.0,1.4*2E
$QZGSA,A,3,,,,,,,,,,,,,1.7,1.0,1.4*2C
$GPRMC,073259.00,A,3206.128783,N,03510.390145,E,027.6,242.3,010516,,,A*5E
$GPGGA,073300.00,3206.125699,N,03510.382298,E,1,10,1.2,536.6,M,19.0,M,,*6D
$GPGSV,3,1,11,30,65,332,23,28,52,190,30,07,52,030,23,09,43,107,34*73
$GPGSV,3,2,11,05,34,302,24,08,16,071,27,23,14,117,33,14,01,000,*76
$GPGSV,3,3,11,13,10,307,,27,04,043,,02,00,253,*4E
$GLGSV,2,1,07,72,56,164,29,74,30,029,26,71,06,155,26,65,66,315,*61
$GLGSV,2,2,07,75,62,317,,66,11,331,,84,03,077,*5F
$GPGSA,A,3,05,07,08,09,23,28,30,,,,,,2.1,1.1,1.8*33
$GNGSA,A,3,05,07,08,09,23,28,30,,,,,,2.1,1.1,1.8*2D
$GNGSA,A,3,71,72,74,,,,,,,,,,2.1,1.1,1.8*26
$QZGSA,A,3,,,,,,,,,,,,,2.1,1.1,1.8*24
$GPRMC,073300.00,A,3206.125699,N,03510.382298,E,026.9,244.5,010516,,,A*5A
$GPGGA,073301.00,3206.122837,N,03510.373994,E,1,10,1.2,536.2,M,19.0,M,,*6C
$GPGSV,3,1,11,30,65,332,23,28,52,190,29,07,52,030,25,09,43,107,33*7A
$GPGSV,3,2,11,05,34,302,24,08,16,071,27,23,14,117,33,14,01,000,*76
$GPGSV,3,3,11,13,10,307,,27,04,043,,02,00,253,*4E
$GLGSV,2,1,07,72,56,164,30,74,30,029,25,71,06,155,25,65,66,315,*69
$GLGSV,2,2,07,75,62,317,,66,11,331,,84,03,077,*5F
$GPGSA,A,3,05,07,08,09,23,28,30,,,,,,2.1,1.1,1.8*33
$GNGSA,A,3,05,07,08,09,23,28,30,,,,,,2.1,1.1,1.8*2D
$GNGSA,A,3,71,72,74,,,,,,,,,,2.1,1.1,1.8*26
$QZGSA,A,3,,,,,,,,,,,,,2.1,1.1,1.8*24
$GPRMC,073301.00,A,3206.122837,N,03510.373994,E,026.9,244.5,010516,,,A*5F
$GPGGA,073302.00,3206.121070,N,03510.365132,E,1,10,1.2,535.8,M,19.0,M,,*6D
$GPGSV,3,1,12,30,65,332,23,28,52,190,29,07,52,030,27,09,43,107,33*7B
$GPGSV,3,2,12,05,34,302,24,08,16,071,26,23,14,117,33,14,01,000,*74
$GPGSV,3,3,12,16,01,000,,13,10,307,,27,04,043,,02,00,253,*7B
$GLGSV,2,1,07,72,56,164,32,74,30,029,25,71,06,155,25,65,66,315,*6B
$GLGSV,2,2,07,75,62,317,,66,11,331,,84,03,077,*5F
$GPGSA,A,3,05,07,08,09,23,28,30,,,,,,1.7,1.0,1.4*3B
$GNGSA,A,3,05,07,08,09,23,28,30,,,,,,1.7,1.0,1.4*25
$GNGSA,A,3,71,72,74,,,,,,,,,,1.7,1.0,1.4*2E
$QZGSA,A,3,,,,,,,,,,,,,1.7,1.0,1.4*2C
$GPRMC,073302.00,A,3206.121070,N,03510.365132,E,027.7,253.1,010516,,,A*5A
$GPGGA,073303.00,3206.119783,N,03510.355682,E,1,10,1.2,535.6,M,19.0,M,,*6D
$GPGSV,3,1,11,30,65,332,23,28,52,190,31,07,52,030,27,09,43,107,33*71
$GPGSV,3,2,11,05,34,302,24,08,16,071,26,23,14,117,34,16,01,000,*72
$GPGSV,3,3,11,13,10,307,,27,04,043,,02,00,253,*4E
$GLGSV,2,1,07,72,56,164,31,74,30,029,25,71,06,155,25,65,66,315,*68
$GLGSV,2,2,07,75,62,317,,66,11,331,,84,03,077,*5F
$GPGSA,A,3,05,07,08,09,23,28,30,,,,,,1.7,1.0,1.4*3B
$GNGSA,A,3,05,07,08,09,23,28,30,,,,,,1.7,1.0,1.4*25
$GNGSA,A,3,71,72,74,,,,,,,,,,1.7,1.0,1.4*2E
$QZGSA,A,3,,,,,,,,,,,,,1.7,1.0,1.4*2C
$GPRMC,073303.00,A,3206.119783,N,03510.355682,E,028.2,256.8,010516,,,A*52
$GPGGA,073304.00,3206.118544,N,03510.346372,E,1,10,1.2,535.6,M,19.0,M,,*6A
$GPGSV,3,1,11,30,65,332,23,28,52,190,31,07,52,030,27,09,43,107,32*70
$GPGSV,3,2,11,05,34,302,24,08,16,071,26,23,14,117,33,16,01,000,*75
$GPGSV,3,3,11,13,10,307,,27,04,043,,02,00,253,*4E
$GLGSV,2,1,07,72,56,164,31,74,30,029,24,71,06,155,25,65,66,315,*69
$GLGSV,2,2,07,75,62,317,,66,11,331,,84,03,077,*5F
$GPGSA,A,3,05,07,08,09,23,28,30,,,,,,1.8,1.0,1.4*34
$GNGSA,A,3,05,07,08,09,23,28,30,,,,,,1.8,1.0,1.4*2A
$GNGSA,A,3,71,72,74,,,,,,,,,,1.8,1.0,1.4*21
$QZGSA,A,3,,,,,,,,,,,,,1.8,1.0,1.4*23
$GPRMC,073304.00,A,3206.118544,N,03510.346372,E,027.7,257.7,010516,,,A*51
$GPGGA,073305.00,3206.117454,N,03510.337128,E,1,10,1.2,535.5,M,19.0,M,,*6C
$GPGSV,3,1,11,30,65,332,22,28,52,190,30,07,52,030,26,09,43,107,31*72
$GPGSV,3,2,11,05,34,302,23,08,16,070,25,23,14,117,33,16,01,000,*70
$GPGSV,3,3,11,13,10,307,,27,04,043,,02,00,253,*4E
$GLGSV,2,1,07,72,56,164,31,74,30,029,24,71,06,155,24,65,66,315,*68
$GLGSV,2,2,07,75,62,317,,66,11,331,,84,03,077,*5F
$GPGSA,A,3,05,07,08,09,23,28,30,,,,,,1.8,1.0,1.4*34
$GNGSA,A,3,05,07,08,09,23,28,30,,,,,,1.8,1.0,1.4*2A
$GNGSA,A,3,71,72,74,,,,,,,,,,1.8,1.0,1.4*21
$QZGSA,A,3,,,,,,,,,,,,,1.8,1.0,1.4*23
$GPRMC,073305.00,A,3206.117454,N,03510.337128,E,028.1,258.8,010516,,,A*5D
$GPGGA,073306.00,3206.116299,N,03510.326929,E,1,10,1.6,535.2,M,19.0,M,,*63
$GPGSV,3,1,12,30,65,332,22,28,53,190,30,07,52,030,26,09,43,107,30*71
$GPGSV,3,2,12,05,34,302,23,08,16,070,25,23,14,117,32,12,01,000,*76
$GPGSV,3,3,12,16,01,000,,13,10,307,,27,04,043,,02,00,253,*7B
$GLGSV,2,1,07,72,56,164,32,74,30,029,23,71,06,155,24,65,66,315,*6C
$GLGSV,2,2,07,75,62,317,,66,11,331,,84,03,077,*5F
$GPGSA,A,3,05,07,08,09,23,28,30,,,,,,1.8,1.0,1.4*34
$GNGSA,A,3,05,07,08,09,23,28,30,,,,,,1.8,1.0,1.4*2A
$GNGSA,A,3,71,72,74,,,,,,,,,,1.8,1.0,1.4*21
$QZGSA,A,3,,,,,,,,,,,,,1.8,1.0,1.4*23
$GPRMC,073306.00,A,3206.116299,N,03510.326929,E,031.6,260.1,010516,,,A*5C
$GPGGA,073307.00,3206.115259,N,03510.317198,E,1,10,1.6,534.9,M,19.0,M,,*67
$GPGSV,3,1,11,30,65,332,22,28,53,190,30,07,52,030,26,09,43,107,30*72
$GPGSV,3,2,11,05,34,302,23,08,16,070,25,23,14,117,32,12,01,000,*75
$GPGSV,3,3,11,13,10,307,,27,04,043,,02,00,253,*4E
$GLGSV,2,1,07,65,66,315,16,72,56,164,32,74,30,029,23,71,06,155,24*6B
$GLGSV,2,2,07,75,62,317,,66,11,331,,84,03,077,*5F
$GPGSA,A,3,05,07,08,09,23,28,30,,,,,,2.2,1.2,1.8*33
$GNGSA,A,3,05,07,08,09,23,28,30,,,,,,2.2,1.2,1.8*2D
$GNGSA,A,3,71,72,74,,,,,,,,,,2.2,1.2,1.8*26
$QZGSA,A,3,,,,,,,,,,,,,2.2,1.2,1.8*24
$GPRMC,073307.00,A,3206.115259,N,03510.317198,E,029.8,259.8,010516,,,A*56
$GPGGA,073308.00,3206.114186,N,03510.307338,E,1,10,1.6,534.9,M,19.0,M,,*61
$GPGSV,3,1,11,30,65,332,22,28,53,190,30,07,52,030,29,09,43,107,29*75
$GPGSV,3,2,11,05,34,302,23,08,16,070,25,23,14,117,32,12,01,000,*75
$GPGSV,3,3,11,13,10,307,,27,04,043,,02,00,253,*4E
$GLGSV,2,1,07,65,66,315,15,72,56,164,31,74,30,029,23,71,06,155,24*6B
$GLGSV,2,2,07,75,62,317,,66,11,331,,84,03,077,*5F
$GPGSA,A,3,05,07,08,09,23,28,30,,,,,,1.8,1.1,1.5*34
$GNGSA,A,3,05,07,08,09,23,28,30,,,,,,1.8,1.1,1.5*2A
$GNGSA,A,3,71,72,74,,,,,,,,,,1.8,1.1,1.5*21
$QZGSA,A,3,,,,,,,,,,,,,1.8,1.1,1.5*23
$GPRMC,073308.00,A,3206.114186,N,03510.307338,E,029.1,259.2,010516,,,A*53
$GPGGA,073309.00,3206.113114,N,03510.298129,E,1,10,1.2,535.0,M,19.0,M,,*65
$GPGSV,3,1,11,30,65,332,22,28,53,190,30,07,52,030,29,09,43,107,28*74
$GPGSV,3,2,11,05,34,302,23,08,16,070,24,23,14,117,33,12,01,000,*75
$GPGSV,3,3,11,13,10,307,,27,04,043,,02,00,253,*4E
$GLGSV,2,1,07,65,66,315,12,72,56,164,31,74,30,029,22,71,06,155,24*6D
$GLGSV,2,2,07,75,62,317,,66,11,331,,84,03,077,*5F
$GPGSA,A,3,05,07,08,09,23,28,30,,,,,,1.8,1.0,1.4*34
$GNGSA,A,3,05,07,08,09,23,28,30,,,,,,1.8,1.0,1.4*2A
$GNGSA,A,3,71,72,74,,,,,,,,,,1.8,1.0,1.4*21
