$GPGGA,164029.88,,,,,0,00,300.0,,M,,M,,*6D
$GPGSV,3,1,12,25,62,343,,12,61,075,,29,49,285,,02,47,052,*76
$GPGSV,3,2,12,24,30,178,,05,19,117,,31,14,320,,20,10,163,*7B
$GPGSV,3,3,12,21,07,212,,14,07,270,,06,05,038,,32,03,270,*77
$GPGSA,A,1,,,,,,,,,,,,,140.0,99.0,99.0*35
$GNGSA,A,1,,,,,,,,,,,,,140.0,99.0,99.0*2B
$GNGSA,A,1,,,,,,,,,,,,,140.0,99.0,99.0*2B
$QZGSA,A,1,,,,,,,,,,,,,140.0,99.0,99.0*29
$GPRMC,164029.88,V,,,,,,,120416,,,N*75
$GPGGA,164030.78,,,,,0,00,300.0,,M,,M,,*6A
$GPGSV,4,1,14,16,01,000,,13,01,000,,25,62,343,,12,61,075,*7D
$GPGSV,4,2,14,29,49,285,,02,47,052,,24,30,178,,05,19,117,*74
$GPGSV,4,3,14,31,14,320,,20,10,163,,14,07,270,,21,07,212,*78
$GPGSV,4,4,14,06,05,038,,32,03,270,*73
$GLGSV,1,1,02,66,01,000,,74,01,000,*64
$GPGSA,A,1,,,,,,,,,,,,,140.0,99.0,99.0*35
$GNGSA,A,1,,,,,,,,,,,,,140.0,99.0,99.0*2B
$GNGSA,A,1,,,,,,,,,,,,,140.0,99.0,99.0*2B
$QZGSA,A,1,,,,,,,,,,,,,140.0,99.0,99.0*29
$GPRMC,164030.78,V,,,,,,,120416,,,N*72
$GPGGA,164031.78,,,,,0,00,300.0,,M,,M,,*6B
$GPGSV,4,1,14,16,01,000,,13,01,000,,25,62,343,,12,61,075,*7D
$GPGSV,4,2,14,29,49,285,,02,47,052,,24,30,178,,05,19,117,*74
$GPGSV,4,3,14,31,14,320,,20,10,163,,14,07,270,,21,07,212,*78
$GPGSV,4,4,14,06,05,038,,32,03,270,*73
$GLGSV,1,1,02,66,01,000,,74,01,000,*64
$GPGSA,A,1,,,,,,,,,,,,,140.0,99.0,99.0*35
$GNGSA,A,1,,,,,,,,,,,,,140.0,99.0,99.0*2B
$GNGSA,A,1,,,,,,,,,,,,,140.0,99.0,99.0*2B
$QZGSA,A,1,,,,,,,,,,,,,140.0,99.0,99.0*29
$GPRMC,164031.78,V,,,,,,,120416,,,N*73
$GPGGA,164032.78,,,,,0,00,333.9,,M,,M,,*61
$GPGSV,4,1,14,05,01,000,,06,01,000,,12,01,000,,13,01,000,*7B
$GPGSV,4,2,14,14,01,000,,16,01,000,,20,01,000,,21,01,000,*79
$GPGSV,4,3,14,24,01,000,,25,01,000,,29,01,000,,31,01,000,*73
$GPGSV,4,4,14,32,01,000,,02,01,000,*7F
$GLGSV,1,1,02,66,01,000,,74,01,000,*64
$GPGSA,A,1,,,,,,,,,,,,,140.0,99.0,99.0*35
$GNGSA,A,1,,,,,,,,,,,,,140.0,99.0,99.0*2B
$GNGSA,A,1,,,,,,,,,,,,,140.0,99.0,99.0*2B
$QZGSA,A,1,,,,,,,,,,,,,140.0,99.0,99.0*29
$GPRMC,164032.78,V,,,,,,,120416,,,N*70
$GPGGA,164033.78,,,,,0,00,333.9,,M,,M,,*60
$GPGSV,4,1,14,16,01,000,,13,01,000,,25,62,344,,12,61,075,*7A
$GPGSV,4,2,14,29,49,285,,02,46,052,,24,30,178,,05,19,117,*75
$GPGSV,4,3,14,31,14,320,,20,10,163,,21,08,212,,14,07,270,*77
$GPGSV,4,4,14,06,05,038,,32,03,270,*73
$GLGSV,1,1,02,66,01,000,,74,01,000,*64
$GPGSA,A,1,,,,,,,,,,,,,140.0,99.0,99.0*35
$GNGSA,A,1,,,,,,,,,,,,,140.0,99.0,99.0*2B
$GNGSA,A,1,,,,,,,,,,,,,140.0,99.0,99.0*2B
$QZGSA,A,1,,,,,,,,,,,,,140.0,99.0,99.0*29
$GPRMC,164033.78,V,,,,,,,120416,,,N*71
$GPGGA,164034.78,,,,,0,00,333.9,,M,,M,,*67
$GPGSV,4,1,16,04,01,000,,07,01,000,,13,01,000,,16,01,000,*7D
$GPGSV,4,2,16,25,62,344,,12,61,075,,29,49,285,,02,46,052,*70
$GPGSV,4,3,16,24,30,178,,05,19,117,,31,14,320,,20,10,163,*79
$GPGSV,4,4,16,21,08,212,,14,07,270,,06,05,038,,32,03,270,*7C
$GLGSV,2,1,06,82,01,000,,75,01,000,,76,01,000,,74,01,000,*6A
$GLGSV,2,2,06,73,01,000,,66,01,000,*67
$GPGSA,A,1,,,,,,,,,,,,,140.0,99.0,99.0*35
$GNGSA,A,1,,,,,,,,,,,,,140.0,99.0,99.0*2B
$GNGSA,A,1,,,,,,,,,,,,,140.0,99.0,99.0*2B
$QZGSA,A,1,,,,,,,,,,,,,140.0,99.0,99.0*29
$GPRMC,164034.78,V,,,,,,,120416,,,N*76
$GPGGA,164035.78,,,,,0,00,333.9,,M,,M,,*66
$GPGSV,4,1,14,04,01,000,,07,01,000,,25,62,344,,12,61,075,*7C
$GPGSV,4,2,14,29,49,285,,02,46,052,,24,30,178,,05,19,117,*75
$GPGSV,4,3,14,31,14,320,,20,10,163,,21,08,212,,14,07,270,*77
$GPGSV,4,4,14,06,05,038,,32,03,270,*73
$GLGSV,1,1,04,73,01,000,,75,01,000,,76,01,000,,82,01,000,*6C
$GPGSA,A,1,,,,,,,,,,,,,140.0,99.0,99.0*35
$GNGSA,A,1,,,,,,,,,,,,,140.0,99.0,99.0*2B
$GNGSA,A,1,,,,,,,,,,,,,140.0,99.0,99.0*2B
$QZGSA,A,1,,,,,,,,,,,,,140.0,99.0,99.0*29
$GPRMC,164035.78,V,,,,,,,120416,,,N*77
$GPGGA,164036.78,,,,,0,00,333.9,,M,,M,,*65
$GPGSV,3,1,12,25,62,344,,12,61,075,,29,49,285,,02,46,052,*70
$GPGSV,3,2,12,24,30,178,,05,19,117,,31,14,320,,20,10,163,*7B
$GPGSV,3,3,12,21,08,212,,14,07,270,,06,05,038,,32,03,270,*78
$GPGSA,A,1,,,,,,,,,,,,,140.0,99.0,99.0*35
$GNGSA,A,1,,,,,,,,,,,,,140.0,99.0,99.0*2B
$GNGSA,A,1,,,,,,,,,,,,,140.0,99.0,99.0*2B
$QZGSA,A,1,,,,,,,,,,,,,140.0,99.0,99.0*29
$GPRMC,164036.78,V,,,,,,,120416,,,N*74
$GPGGA,164037.78,,,,,0,00,333.9,,M,,M,,*64
$GPGSV,3,1,12,25,62,344,,12,61,075,,29,49,285,,02,46,052,*70
$GPGSV,3,2,12,24,30,178,,05,19,117,,31,14,320,,20,10,163,*7B
$GPGSV,3,3,12,21,08,212,,14,07,270,,06,05,038,,32,03,270,*78
$GPGSA,A,1,,,,,,,,,,,,,140.0,99.0,99.0*35
$GNGSA,A,1,,,,,,,,,,,,,140.0,99.0,99.0*2B
$GNGSA,A,1,,,,,,,,,,,,,140.0,99.0,99.0*2B
$QZGSA,A,1,,,,,,,,,,,,,140.0,99.0,99.0*29
$GPRMC,164037.78,V,,,,,,,120416,,,N*75
$GPGGA,164038.78,,,,,0,00,333.9,,M,,M,,*6B
$GPGSV,3,1,12,12,61,075,23,25,62,344,,29,49,285,,02,46,052,*71
$GPGSV,3,2,12,24,30,178,,05,19,117,,31,14,320,,20,10,163,*7B
$GPGSV,3,3,12,21,08,212,,14,07,270,,06,05,038,,32,03,270,*78
$GPGSA,A,1,,,,,,,,,,,,,140.0,99.0,99.0*35
$GNGSA,A,1,,,,,,,,,,,,,140.0,99.0,99.0*2B
$GNGSA,A,1,,,,,,,,,,,,,140.0,99.0,99.0*2B
$QZGSA,A,1,,,,,,,,,,,,,140.0,99.0,99.0*29
$GPRMC,164038.78,V,,,,,,,120416,,,N*7A
$GPGGA,164039.78,,,,,0,00,333.9,,M,,M,,*6A
$GPGSV,4,1,14,12,61,075,21,29,49,285,27,24,30,178,24,09,01,000,*75
$GPGSV,4,2,14,19,01,000,,25,62,344,,02,46,052,,05,19,117,*7E
$GPGSV,4,3,14,31,14,320,,20,10,163,,21,08,212,,14,07,270,*77
$GPGSV,4,4,14,06,05,038,,32,03,270,*73
$GLGSV,1,1,04,81,01,000,,65,01,000,,84,01,000,,83,01,000,*6C
$GPGSA,A,1,,,,,,,,,,,,,140.0,99.0,99.0*35
$GNGSA,A,1,,,,,,,,,,,,,140.0,99.0,99.0*2B
$GNGSA,A,1,,,,,,,,,,,,,140.0,99.0,99.0*2B
$QZGSA,A,1,,,,,,,,,,,,,140.0,99.0,99.0*29
$GPRMC,164039.78,V,,,,,,,120416,,,N*7B
$GPGGA,164040.78,,,,,0,00,333.9,,M,,M,,*64
$GPGSV,4,1,14,12,61,075,17,29,49,285,27,02,46,052,20,24,30,178,24*7D
$GPGSV,4,2,14,09,01,000,,19,01,000,,25,62,344,,05,19,117,*71
$GPGSV,4,3,14,31,14,320,,20,10,163,,21,08,212,,14,07,270,*77
$GPGSV,4,4,14,06,05,038,,32,03,270,*73
$GLGSV,1,1,04,81,01,000,,65,01,000,,84,01,000,,83,01,000,*6C
$GPGSA,A,1,,,,,,,,,,,,,140.0,99.0,99.0*35
$GNGSA,A,1,,,,,,,,,,,,,140.0,99.0,99.0*2B
$GNGSA,A,1,,,,,,,,,,,,,140.0,99.0,99.0*2B
$QZGSA,A,1,,,,,,,,,,,,,140.0,99.0,99.0*29
$GPRMC,164040.78,V,,,,,,,120416,,,N*75
$GPGGA,164041.78,,,,,0,00,333.9,,M,,M,,*65
$GPGSV,4,1,14,12,61,075,22,29,49,285,27,02,46,052,18,24,30,178,22*76
$GPGSV,4,2,14,05,19,117,20,09,01,000,,19,01,000,,25,62,344,*73
$GPGSV,4,3,14,31,14,320,,20,10,163,,21,08,212,,14,07,270,*77
$GPGSV,4,4,14,06,05,038,,32,03,270,*73
$GLGSV,1,1,04,81,01,000,,65,01,000,,84,01,000,,83,01,000,*6C
$GPGSA,A,1,,,,,,,,,,,,,140.0,99.0,99.0*35
$GNGSA,A,1,,,,,,,,,,,,,140.0,99.0,99.0*2B
$GNGSA,A,1,,,,,,,,,,,,,140.0,99.0,99.0*2B
$QZGSA,A,1,,,,,,,,,,,,,140.0,99.0,99.0*29
$GPRMC,164041.78,V,,,,,,,120416,,,N*74
$GPGGA,164042.78,,,,,0,00,333.9,,M,,M,,*66
$GPGSV,4,1,14,12,61,075,22,29,49,285,27,02,46,052,19,24,30,178,28*7D
$GPGSV,4,2,14,05,19,117,18,09,01,000,,19,01,000,,25,62,344,*78
$GPGSV,4,3,14,31,14,320,,20,10,163,,21,08,212,,14,07,270,*77
$GPGSV,4,4,14,06,05,038,,32,03,270,*73
$GLGSV,1,1,04,81,01,000,,65,01,000,,84,01,000,,83,01,000,*6C
$GPGSA,A,1,,,,,,,,,,,,,140.0,99.0,99.0*35
$GNGSA,A,1,,,,,,,,,,,,,140.0,99.0,99.0*2B
$GNGSA,A,1,,,,,,,,,,,,,140.0,99.0,99.0*2B
$QZGSA,A,1,,,,,,,,,,,,,140.0,99.0,99.0*29
$GPRMC,164042.78,V,,,,,,,120416,,,N*77
$GPGGA,164043.69,3205.573103,N,03450.108112,E,1,06,6.4,11.5,M,19.2,M,,*52
$GPGSV,5,1,18,25,62,344,16,12,61,075,22,29,49,285,27,02,46,052,18*77
$GPGSV,5,2,18,24,30,178,28,05,19,117,19,01,01,000,,09,01,000,*7C
$GPGSV,5,3,18,28,01,000,,17,01,000,,19,01,000,,26,01,000,*76
$GPGSV,5,4,18,31,14,320,,20,10,163,,21,08,212,,14,07,270,*7D
$GPGSV,5,5,18,06,05,038,,32,03,270,*7F
$GLGSV,2,1,06,68,01,000,,65,01,000,,84,01,000,,83,01,000,*6A
$GLGSV,2,2,06,81,01,000,,67,01,000,*6B
$GPGSA,A,3,02,05,12,24,25,29,,,,,,,5.0,2.1,4.5*3B
$GNGSA,A,3,02,05,12,24,25,29,,,,,,,5.0,2.1,4.5*25
$GNGSA,A,3,,,,,,,,,,,,,5.0,2.1,4.5*2B
$QZGSA,A,3,,,,,,,,,,,,,5.0,2.1,4.5*29
$GPRMC,164043.69,A,3205.573103,N,03450.108112,E,,,120416,,,A*5B
$GPGGA,164044.70,3205.573103,N,03450.108112,E,1,05,3.2,11.3,M,19.2,M,,*5B
$GPGSV,4,1,16,25,62,344,14,12,61,075,22,29,49,285,27,02,46,052,18*7A
$GPGSV,4,2,16,24,30,178,28,05,19,117,19,01,01,000,,17,01,000,*7C
$GPGSV,4,3,16,26,01,000,,28,01,000,,31,14,320,,20,10,163,*76
$GPGSV,4,4,16,21,08,212,,14,07,270,,06,05,038,,32,03,270,*7C
$GLGSV,1,1,02,68,01,000,,67,01,000,*68
$GPGSA,A,3,02,05,12,24,29,,,,,,,,3.7,1.7,3.2*38
$GNGSA,A,3,02,05,12,24,29,,,,,,,,3.7,1.7,3.2*26
$GNGSA,A,3,,,,,,,,,,,,,3.7,1.7,3.2*2F
$QZGSA,A,3,,,,,,,,,,,,,3.7,1.7,3.2*2D
$GPRMC,164044.70,A,3205.573103,N,03450.108112,E,000.0,,120416,,,A*7A
$GPGGA,164045.72,3205.561239,N,03450.119389,E,1,06,3.2,3.2,M,19.2,M,,*60
$GPGSV,4,1,16,25,62,344,18,12,61,075,22,29,49,285,27,02,46,052,18*76
$GPGSV,4,2,16,24,30,178,27,05,19,117,20,01,01,000,,17,01,000,*79
$GPGSV,4,3,16,26,01,000,,28,01,000,,31,14,320,,20,10,163,*76
$GPGSV,4,4,16,21,08,212,,14,07,270,,06,05,038,,32,03,270,*7C
$GLGSV,1,1,02,68,01,000,,67,01,000,*68
$GPGSA,A,3,02,05,12,24,25,29,,,,,,,5.0,2.1,4.5*3B
$GNGSA,A,3,02,05,12,24,25,29,,,,,,,5.0,2.1,4.5*25
$GNGSA,A,3,,,,,,,,,,,,,5.0,2.1,4.5*2B
$QZGSA,A,3,,,,,,,,,,,,,5.0,2.1,4.5*29
$GPRMC,164045.72,A,3205.561239,N,03450.119389,E,000.0,,120416,,,A*70
$GPGGA,164046.72,3205.561239,N,03450.119389,E,1,06,3.2,1.1,M,19.2,M,,*62
$GPGSV,4,1,16,25,62,344,18,12,61,075,22,29,49,285,26,02,46,052,18*77
$GPGSV,4,2,16,24,30,178,27,05,19,117,25,01,01,000,,17,01,000,*7C
$GPGSV,4,3,16,26,01,000,,28,01,000,,31,14,320,,20,10,163,*76
$GPGSV,4,4,16,21,08,212,,14,07,270,,06,05,038,,32,03,270,*7C
$GLGSV,1,1,02,68,01,000,,67,01,000,*68
$GPGSA,A,3,02,05,12,24,25,29,,,,,,,4.6,2.0,4.1*39
$GNGSA,A,3,02,05,12,24,25,29,,,,,,,4.6,2.0,4.1*27
$GNGSA,A,3,,,,,,,,,,,,,4.6,2.0,4.1*29
$QZGSA,A,3,,,,,,,,,,,,,4.6,2.0,4.1*2B
$GPRMC,164046.72,A,3205.561239,N,03450.119389,E,000.0,,120416,,,A*73
$GPGGA,164047.72,3205.561239,N,03450.119389,E,1,07,3.2,0.0,M,19.2,M,,*62
$GPGSV,4,1,16,25,62,344,19,12,61,075,21,29,49,285,25,02,46,052,18*76
$GPGSV,4,2,16,24,30,178,26,05,19,117,27,31,14,320,14,01,01,000,*7B
$GPGSV,4,3,16,17,01,000,,26,01,000,,28,01,000,,20,10,163,*77
$GPGSV,4,4,16,21,08,212,,14,07,270,,06,05,038,,32,03,270,*7C
$GLGSV,1,1,02,68,01,000,,67,01,000,*68
$GPGSA,A,3,02,05,12,24,25,29,31,,,,,,4.6,2.0,4.1*3B
$GNGSA,A,3,02,05,12,24,25,29,31,,,,,,4.6,2.0,4.1*25
$GNGSA,A,3,,,,,,,,,,,,,4.6,2.0,4.1*29
$QZGSA,A,3,,,,,,,,,,,,,4.6,2.0,4.1*2B
$GPRMC,164047.72,A,3205.561239,N,03450.119389,E,000.0,,120416,,,A*72
$GPGGA,164048.72,3205.561239,N,03450.119389,E,1,06,3.2,0.0,M,19.2,M,,*6C
$GPGSV,6,1,22,25,62,344,19,12,61,075,21,29,49,285,25,02,46,052,18*73
$GPGSV,6,2,22,24,30,178,26,05,19,117,27,31,14,320,12,01,01,000,*78
$GPGSV,6,3,22,08,01,000,,10,01,000,,11,01,000,,15,01,000,*71
$GPGSV,6,4,22,17,01,000,,26,01,000,,27,01,000,,28,01,000,*76
$GPGSV,6,5,22,30,01,000,,20,10,163,,21,08,212,,14,07,270,*72
$GPGSV,6,6,22,06,05,038,,32,03,270,*76
$GLGSV,1,1,02,68,01,000,,67,01,000,*68
$GPGSA,A,3,02,05,12,24,25,29,,,,,,,4.6,2.0,4.1*39
$GNGSA,A,3,02,05,12,24,25,29,,,,,,,4.6,2.0,4.1*27
$GNGSA,A,3,,,,,,,,,,,,,4.6,2.0,4.1*29
$QZGSA,A,3,,,,,,,,,,,,,4.6,2.0,4.1*2B
$GPRMC,164048.72,A,3205.561239,N,03450.119389,E,000.0,,120416,,,A*7D
$GPGGA,164049.72,3205.561239,N,03450.119389,E,1,08,3.2,12.6,M,19.2,M,,*56
$GPGSV,5,1,18,25,62,344,19,12,61,075,21,29,49,285,24,02,46,052,18*78
$GPGSV,5,2,18,24,30,178,26,05,19,117,28,31,14,320,12,14,07,270,14*7F
$GPGSV,5,3,18,08,01,000,,11,01,000,,15,01,000,,27,01,000,*7F
$GPGSV,5,4,18,30,01,000,,10,01,000,,20,10,163,,21,08,212,*7E
$GPGSV,5,5,18,06,05,038,,32,03,270,*7F
$GPGSA,A,3,02,05,12,14,24,25,29,31,,,,,2.2,1.3,1.8*30
$GNGSA,A,3,02,05,12,14,24,25,29,31,,,,,2.2,1.3,1.8*2E
$GNGSA,A,3,,,,,,,,,,,,,2.2,1.3,1.8*27
$QZGSA,A,3,,,,,,,,,,,,,2.2,1.3,1.8*25
$GPRMC,164049.72,A,3205.561239,N,03450.119389,E,000.0,,120416,,,A*7C
$GPGGA,164050.72,3205.561239,N,03450.119389,E,1,07,1.6,9.1,M,19.2,M,,*6A
$GPGSV,5,1,18,25,62,344,19,12,61,075,20,29,49,285,24,02,46,052,18*79
$GPGSV,5,2,18,24,30,178,27,05,19,117,31,31,14,320,13,14,07,270,13*70
$GPGSV,5,3,18,10,01,000,,08,01,000,,11,01,000,,15,01,000,*7B
$GPGSV,5,4,18,27,01,000,,30,01,000,,20,10,163,,21,08,212,*7A
$GPGSV,5,5,18,06,05,038,,32,03,270,*7F
$GPGSA,A,3,02,05,12,24,25,29,31,,,,,,4.0,1.7,3.6*39
$GNGSA,A,3,02,05,12,24,25,29,31,,,,,,4.0,1.7,3.6*27
$GNGSA,A,3,,,,,,,,,,,,,4.0,1.7,3.6*2B
$QZGSA,A,3,,,,,,,,,,,,,4.0,1.7,3.6*29
$GPRMC,164050.72,A,3205.561239,N,03450.119389,E,000.0,,120416,,,A*74
$GPGGA,164052.00,3205.561239,N,03450.119389,E,1,08,1.6,10.8,M,19.2,M,,*53
$GPGSV,5,1,18,25,62,344,21,12,61,075,20,29,49,285,24,02,46,052,17*7D
$GPGSV,5,2,18,24,30,178,26,05,19,117,30,31,14,320,14,14,07,270,21*76
$GPGSV,5,3,18,08,01,000,,11,01,000,,15,01,000,,27,01,000,*7F
$GPGSV,5,4,18,30,01,000,,10,01,000,,20,10,163,,21,08,212,*7E
$GPGSV,5,5,18,06,05,038,,32,03,270,*7F
$GPGSA,A,3,02,05,12,14,24,25,29,31,,,,,4.0,1.7,3.6*3C
$GNGSA,A,3,02,05,12,14,24,25,29,31,,,,,4.0,1.7,3.6*22
$GNGSA,A,3,,,,,,,,,,,,,4.0,1.7,3.6*2B
$QZGSA,A,3,,,,,,,,,,,,,4.0,1.7,3.6*29
$GPRMC,164052.00,A,3205.561239,N,03450.119389,E,000.0,,120416,,,A*73
$GPGGA,164053.00,3205.561239,N,03450.119389,E,1,07,1.6,10.4,M,19.2,M,,*51
$GPGSV,6,1,22,25,62,344,22,12,61,075,20,29,49,285,27,02,46,052,17*77
$GPGSV,6,2,22,24,30,178,28,05,19,117,26,31,14,320,14,14,07,270,21*75
$GPGSV,6,3,22,03,01,000,,08,01,000,,10,01,000,,11,01,000,*76
$GPGSV,6,4,22,15,01,000,,18,01,000,,23,01,000,,27,01,000,*72
$GPGSV,6,5,22,30,01,000,,22,01,000,,20,10,163,,21,08,212,*74
$GPGSV,6,6,22,06,05,038,,32,03,270,*76
$QZGSV,1,1,02,02,01,000,,01,01,000,*64
$GPGSA,A,3,02,12,14,24,25,29,31,,,,,,5.5,1.9,5.1*32
$GNGSA,A,3,02,12,14,24,25,29,31,,,,,,5.5,1.9,5.1*2C
$GNGSA,A,3,,,,,,,,,,,,,5.5,1.9,5.1*20
$QZGSA,A,3,,,,,,,,,,,,,5.5,1.9,5.1*22
$GPRMC,164053.00,A,3205.561239,N,03450.119389,E,000.0,,120416,,,A*72
$GPGGA,164054.00,3205.561239,N,03450.119389,E,1,07,1.6,11.2,M,19.2,M,,*51
$GPGSV,4,1,16,25,62,344,24,12,61,075,20,29,49,285,26,02,46,052,17*75
$GPGSV,4,2,16,24,30,178,30,31,14,320,14,14,07,270,21,05,19,117,20*7F
$GPGSV,4,3,16,03,01,000,,18,01,000,,22,01,000,,23,01,000,*72
$GPGSV,4,4,16,20,10,163,,21,08,212,,06,05,038,,32,03,270,*7C
$QZGSV,1,1,02,02,01,000,,01,01,000,*64
$GPGSA,A,3,02,12,14,24,25,29,31,,,,,,5.5,1.9,5.1*32
$GNGSA,A,3,02,12,14,24,25,29,31,,,,,,5.5,1.9,5.1*2C
$GNGSA,A,3,,,,,,,,,,,,,5.5,1.9,5.1*20
$QZGSA,A,3,,,,,,,,,,,,,5.5,1.9,5.1*22
$GPRMC,164054.00,A,3205.561239,N,03450.119389,E,000.0,,120416,,,A*75
$GPGGA,164055.00,3205.558840,N,03450.110133,E,1,09,1.6,13.4,M,19.2,M,,*5E
$GPGSV,4,1,16,25,62,344,25,12,61,075,20,29,49,285,26,02,46,052,17*74
$GPGSV,4,2,16,24,30,178,29,05,19,117,31,31,14,320,15,20,10,163,13*77
$GPGSV,4,3,16,14,07,270,20,03,01,000,,18,01,000,,22,01,000,*77
$GPGSV,4,4,16,23,01,000,,21,08,212,,06,05,038,,32,03,270,*7B
$QZGSV,1,1,02,02,01,000,,01,01,000,*64
$GPGSA,A,3,02,05,12,14,20,24,25,29,31,,,,4.0,1.7,3.6*3E
$GNGSA,A,3,02,05,12,14,20,24,25,29,31,,,,4.0,1.7,3.6*20
$GNGSA,A,3,,,,,,,,,,,,,4.0,1.7,3.6*2B
$QZGSA,A,3,,,,,,,,,,,,,4.0,1.7,3.6*29
$GPRMC,164055.00,A,3205.558840,N,03450.110133,E,000.0,,120416,,,A*70
$GPGGA,164056.00,3205.558840,N,03450.110133,E,1,08,1.6,12.5,M,19.2,M,,*5C
$GPGSV,4,1,16,25,62,344,24,12,61,075,20,29,49,285,25,02,46,052,17*76
$GPGSV,4,2,16,24,30,178,29,05,19,117,30,31,14,320,15,20,10,163,12*77
$GPGSV,4,3,16,14,07,270,20,03,01,000,,18,01,000,,22,01,000,*77
$GPGSV,4,4,16,23,01,000,,21,08,212,,06,05,038,,32,03,270,*7B
$QZGSV,1,1,02,02,01,000,,01,01,000,*64
$GPGSA,A,3,02,05,12,14,24,25,29,31,,,,,5.4,1.9,5.1*36
$GNGSA,A,3,02,05,12,14,24,25,29,31,,,,,5.4,1.9,5.1*28
$GNGSA,A,3,,,,,,,,,,,,,5.4,1.9,5.1*21
$QZGSA,A,3,,,,,,,,,,,,,5.4,1.9,5.1*23
$GPRMC,164056.00,A,3205.558840,N,03450.110133,E,000.0,,120416,,,A*73
$GPGGA,164057.00,3205.558027,N,03450.105483,E,1,08,1.6,13.0,M,19.2,M,,*5A
$GPGSV,4,1,16,25,62,344,24,12,61,075,20,29,49,285,25,02,46,052,18*79
$GPGSV,4,2,16,24,30,178,29,05,19,117,30,31,14,320,15,20,10,163,10*75
$GPGSV,4,3,16,14,07,270,20,03,01,000,,18,01,000,,22,01,000,*77
$GPGSV,4,4,16,23,01,000,,21,08,212,,06,05,038,,32,03,270,*7B
$QZGSV,1,1,02,02,01,000,,01,01,000,*64
$GPGSA,A,3,02,05,12,14,24,25,29,31,,,,,5.4,1.9,5.1*36
$GNGSA,A,3,02,05,12,14,24,25,29,31,,,,,5.4,1.9,5.1*28
$GNGSA,A,3,,,,,,,,,,,,,5.4,1.9,5.1*21
$QZGSA,A,3,,,,,,,,,,,,,5.4,1.9,5.1*23
$GPRMC,164057.00,A,3205.558027,N,03450.105483,E,004.4,,120416,,,A*71
$GPGGA,164058.00,3205.557983,N,03450.102315,E,1,09,1.6,13.1,M,19.2,M,,*52
$GPGSV,5,1,17,25,62,344,24,12,61,075,19,29,49,285,25,02,46,052,19*72
$GPGSV,5,2,17,24,30,178,28,05,19,117,29,31,14,320,16,20,10,163,11*7E
$GPGSV,5,3,17,14,07,270,19,03,01,000,,07,01,000,,18,01,000,*7A
$GPGSV,5,4,17,22,01,000,,23,01,000,,21,08,212,,06,05,038,*7D
$GPGSV,5,5,17,32,03,270,*48
$GLGSV,1,1,02,82,01,000,,75,01,000,*6F
$QZGSV,2,1,05,05,01,000,,02,01,000,,03,01,000,,04,01,000,*63
$QZGSV,2,2,05,01,01,000,*50
$GPGSA,A,3,02,05,12,14,20,24,25,29,31,,,,5.4,1.9,5.1*34
$GNGSA,A,3,02,05,12,14,20,24,25,29,31,,,,5.4,1.9,5.1*2A
$GNGSA,A,3,,,,,,,,,,,,,5.4,1.9,5.1*21
$QZGSA,A,3,,,,,,,,,,,,,5.4,1.9,5.1*23
$GPRMC,164058.00,A,3205.557983,N,03450.102315,E,006.7,,120416,,,A*78
$GPGGA,164059.00,3205.557863,N,03450.099180,E,1,09,2.4,13.7,M,19.2,M,,*56
$GPGSV,4,1,13,25,62,344,24,12,61,075,19,29,49,285,25,02,46,052,19*77
$GPGSV,4,2,13,24,30,178,28,05,19,117,28,31,14,320,16,20,10,163,10*7B
$GPGSV,4,3,13,14,07,270,19,07,01,000,,21,08,212,,06,05,038,*77
$GPGSV,4,4,13,32,03,270,*4C
$GLGSV,1,1,02,75,01,000,,82,01,000,*6F
$QZGSV,1,1,03,05,01,000,,03,01,000,,04,01,000,*55
$GPGSA,A,3,02,05,12,14,20,24,25,29,31,,,,4.7,2.4,4.0*38
$GNGSA,A,3,02,05,12,14,20,24,25,29,31,,,,4.7,2.4,4.0*26
$GNGSA,A,3,,,,,,,,,,,,,4.7,2.4,4.0*2D
$QZGSA,A,3,,,,,,,,,,,,,4.7,2.4,4.0*2F
$GPRMC,164059.00,A,3205.557863,N,03450.099180,E,007.0,,120416,,,A*7D
$GPGGA,164100.00,3205.557776,N,03450.095878,E,1,08,2.4,16.4,M,19.2,M,,*55
$GPGSV,4,1,13,25,62,344,23,12,61,075,19,29,49,285,25,02,46,052,19*70
$GPGSV,4,2,13,24,30,178,27,05,19,117,28,31,14,320,16,20,10,163,10*74
$GPGSV,4,3,13,14,07,270,17,07,01,000,,21,08,212,,06,05,038,*79
$GPGSV,4,4,13,32,03,270,*4C
$GLGSV,1,1,02,75,01,000,,82,01,000,*6F
$QZGSV,1,1,03,05,01,000,,03,01,000,,04,01,000,*55
$GPGSA,A,3,02,05,12,20,24,25,29,31,,,,,4.7,2.4,4.0*3D
$GNGSA,A,3,02,05,12,20,24,25,29,31,,,,,4.7,2.4,4.0*23
$GNGSA,A,3,,,,,,,,,,,,,4.7,2.4,4.0*2D
$QZGSA,A,3,,,,,,,,,,,,,4.7,2.4,4.0*2F
$GPRMC,164100.00,A,3205.557776,N,03450.095878,E,006.9,,120416,,,A*71
$GPGGA,164101.00,3205.557610,N,03450.092409,E,1,08,2.4,18.3,M,19.2,M,,*51
$GPGSV,4,1,13,25,62,344,23,12,61,075,19,29,49,285,25,02,46,052,20*7A
$GPGSV,4,2,13,24,30,178,30,05,19,117,27,31,14,320,16,20,10,163,10*7D
$GPGSV,4,3,13,14,07,270,14,07,01,000,,21,08,212,,06,05,038,*7A
$GPGSV,4,4,13,32,03,270,*4C
$GLGSV,1,1,02,75,01,000,,82,01,000,*6F
$QZGSV,1,1,03,05,01,000,,03,01,000,,04,01,000,*55
$GPGSA,A,3,02,05,12,20,24,25,29,31,,,,,4.7,2.4,4.0*3D
$GNGSA,A,3,02,05,12,20,24,25,29,31,,,,,4.7,2.4,4.0*23
$GNGSA,A,3,,,,,,,,,,,,,4.7,2.4,4.0*2D
$QZGSA,A,3,,,,,,,,,,,,,4.7,2.4,4.0*2F
$GPRMC,164101.00,A,3205.557610,N,03450.092409,E,007.3,,120416,,,A*77
$GPGGA,164102.00,3205.556826,N,03450.087774,E,1,08,1.6,20.8,M,19.2,M,,*54
$GPGSV,4,1,16,25,62,344,25,12,61,075,19,29,49,285,24,02,46,052,21*79
$GPGSV,4,2,16,24,30,178,29,05,19,117,27,31,14,320,17,20,10,163,10*71
$GPGSV,4,3,16,14,07,270,10,07,01,000,,13,01,000,,04,01,000,*7F
$GPGSV,4,4,16,16,01,000,,21,08,212,,06,05,038,,32,03,270,*7D
$GLGSV,2,1,05,75,01,000,,74,01,000,,82,01,000,,73,01,000,*6C
$GLGSV,2,2,05,76,01,000,*50
$QZGSV,1,1,03,05,01,000,,03,01,000,,04,01,000,*55
$GPGSA,A,3,02,05,12,20,24,25,29,31,,,,,4.0,1.7,3.6*3B
$GNGSA,A,3,02,05,12,20,24,25,29,31,,,,,4.0,1.7,3.6*25
$GNGSA,A,3,,,,,,,,,,,,,4.0,1.7,3.6*2B
$QZGSA,A,3,,,,,,,,,,,,,4.0,1.7,3.6*29
$GPRMC,164102.00,A,3205.556826,N,03450.087774,E,008.4,,120416,,,A*7B
$GPGGA,164103.00,3205.555520,N,03450.082944,E,1,09,1.6,22.2,M,19.2,M,,*5C
$GPGSV,4,1,15,25,62,344,26,12,61,075,18,29,49,285,24,02,46,052,21*78
$GPGSV,4,2,15,24,30,178,29,05,19,117,27,31,14,320,18,20,10,163,12*7F
$GPGSV,4,3,15,14,07,270,12,04,01,000,,13,01,000,,16,01,000,*7E
$GPGSV,4,4,15,21,08,212,,06,05,038,,32,03,270,*48
$GLGSV,1,1,03,76,01,000,,74,01,000,,73,01,000,*51
$GPGSA,A,3,02,05,12,14,20,24,25,29,31,,,,2.0,1.1,1.6*3C
$GNGSA,A,3,02,05,12,14,20,24,25,29,31,,,,2.0,1.1,1.6*22
$GNGSA,A,3,,,,,,,,,,,,,2.0,1.1,1.6*29
$QZGSA,A,3,,,,,,,,,,,,,2.0,1.1,1.6*2B
$GPRMC,164103.00,A,3205.555520,N,03450.082944,E,008.2,,120416,,,A*7C
$GPGGA,164104.00,3205.554098,N,03450.077530,E,1,09,1.6,24.0,M,19.2,M,,*5D
$GPGSV,4,1,15,25,62,344,26,12,61,075,18,29,49,285,24,02,46,052,21*78
$GPGSV,4,2,15,24,30,178,29,05,19,117,27,31,14,320,19,20,10,163,12*7E
$GPGSV,4,3,15,14,07,270,13,04,01,000,,13,01,000,,16,01,000,*7F
$GPGSV,4,4,15,21,08,212,,06,05,038,,32,03,270,*48
$GLGSV,1,1,03,76,01,000,,74,01,000,,73,01,000,*51
$GPGSA,A,3,02,05,12,14,20,24,25,29,31,,,,2.1,1.2,1.8*30
$GNGSA,A,3,02,05,12,14,20,24,25,29,31,,,,2.1,1.2,1.8*2E
$GNGSA,A,3,,,,,,,,,,,,,2.1,1.2,1.8*25
$QZGSA,A,3,,,,,,,,,,,,,2.1,1.2,1.8*27
$GPRMC,164104.00,A,3205.554098,N,03450.077530,E,008.4,,120416,,,A*7F
$GPGGA,164105.00,3205.552658,N,03450.072983,E,1,09,1.6,24.9,M,19.2,M,,*58
$GPGSV,4,1,15,25,62,344,26,12,61,075,18,29,49,285,23,02,46,052,21*7F
$GPGSV,4,2,15,24,30,178,28,05,19,117,27,31,14,320,19,20,10,163,13*7E
$GPGSV,4,3,15,14,07,270,15,04,01,000,,13,01,000,,16,01,000,*79
$GPGSV,4,4,15,21,08,212,,06,05,038,,32,03,270,*48
$GLGSV,1,1,03,76,01,000,,74,01,000,,73,01,000,*51
$GPGSA,A,3,02,05,12,14,20,24,25,29,31,,,,2.0,1.1,1.6*3C
$GNGSA,A,3,02,05,12,14,20,24,25,29,31,,,,2.0,1.1,1.6*22
$GNGSA,A,3,,,,,,,,,,,,,2.0,1.1,1.6*29
$QZGSA,A,3,,,,,,,,,,,,,2.0,1.1,1.6*2B
$GPRMC,164105.00,A,3205.552658,N,03450.072983,E,006.1,254.6,120416,,,A*53
$GPGGA,164106.00,3205.551392,N,03450.068080,E,1,09,1.2,27.9,M,19.2,M,,*5D
$GPGSV,4,1,15,25,62,344,25,12,61,075,18,29,49,285,23,02,46,052,21*7C
$GPGSV,4,2,15,24,30,178,28,05,19,117,27,31,14,320,25,20,10,163,13*71
$GPGSV,4,3,15,14,07,270,15,04,01,000,,13,01,000,,16,01,000,*79
$GPGSV,4,4,15,21,08,212,,06,05,038,,32,03,270,*48
$GLGSV,1,1,03,76,01,000,,74,01,000,,73,01,000,*51
$GPGSA,A,3,02,05,12,14,20,24,25,29,31,,,,1.9,1.1,1.5*35
$GNGSA,A,3,02,05,12,14,20,24,25,29,31,,,,1.9,1.1,1.5*2B
$GNGSA,A,3,,,,,,,,,,,,,1.9,1.1,1.5*20
$QZGSA,A,3,,,,,,,,,,,,,1.9,1.1,1.5*22
$GPRMC,164106.00,A,3205.551392,N,03450.068080,E,007.6,260.8,120416,,,A*5E
$GPGGA,164107.00,3205.550335,N,03450.063669,E,1,09,1.2,30.3,M,19.2,M,,*56
$GPGSV,4,1,15,25,62,344,25,12,61,075,18,29,49,285,23,02,46,052,21*7C
$GPGSV,4,2,15,24,30,178,28,05,19,117,26,31,14,320,24,20,10,163,13*71
$GPGSV,4,3,15,14,07,270,25,04,01,000,,13,01,000,,16,01,000,*7A
$GPGSV,4,4,15,21,08,212,,06,05,038,,32,03,270,*48
$GLGSV,1,1,04,76,01,000,,74,01,000,,66,01,000,,73,01,000,*67
$GPGSA,A,3,02,05,12,14,20,24,25,29,31,,,,1.9,1.2,1.4*37
$GNGSA,A,3,02,05,12,14,20,24,25,29,31,,,,1.9,1.2,1.4*29
$GNGSA,A,3,,,,,,,,,,,,,1.9,1.2,1.4*22
$QZGSA,A,3,,,,,,,,,,,,,1.9,1.2,1.4*20
$GPRMC,164107.00,A,3205.550335,N,03450.063669,E,007.3,260.3,120416,,,A*57
$GPGGA,164108.00,3205.549418,N,03450.059369,E,1,10,1.2,31.0,M,19.2,M,,*5F
$GPGSV,4,1,14,25,62,344,25,12,61,075,18,29,49,285,22,02,46,052,21*7C
$GPGSV,4,2,14,24,30,178,28,05,19,117,26,31,14,320,23,20,10,163,13*77
$GPGSV,4,3,14,21,08,212,11,14,07,270,25,13,01,000,,16,01,000,*74
$GPGSV,4,4,14,06,05,038,,32,03,270,*73
$GLGSV,1,1,02,66,01,000,,74,01,000,*64
$GPGSA,A,3,02,05,12,14,20,21,24,25,29,31,,,1.9,1.2,1.4*34
$GNGSA,A,3,02,05,12,14,20,21,24,25,29,31,,,1.9,1.2,1.4*2A
$GNGSA,A,3,,,,,,,,,,,,,1.9,1.2,1.4*22
$QZGSA,A,3,,,,,,,,,,,,,1.9,1.2,1.4*20
$GPRMC,164108.00,A,3205.549418,N,03450.059369,E,007.7,259.3,120416,,,A*5A
$GPGGA,164109.00,3205.548781,N,03450.055733,E,1,09,1.2,30.3,M,19.2,M,,*51
$GPGSV,4,1,14,25,62,344,25,12,61,075,18,29,49,285,22,02,46,052,21*7C
$GPGSV,4,2,14,24,30,178,28,05,19,117,26,31,14,320,23,20,10,163,13*77
$GPGSV,4,3,14,21,08,212,10,14,07,270,25,13,01,000,,16,01,000,*75
$GPGSV,4,4,14,06,05,038,,32,03,270,*73
$GLGSV,1,1,02,66,01,000,,74,01,000,*64
$GPGSA,A,3,02,05,12,14,20,24,25,29,31,,,,1.9,1.2,1.4*37
$GNGSA,A,3,02,05,12,14,20,24,25,29,31,,,,1.9,1.2,1.4*29
$GNGSA,A,3,,,,,,,,,,,,,1.9,1.2,1.4*22
$QZGSA,A,3,,,,,,,,,,,,,1.9,1.2,1.4*20
$GPRMC,164109.00,A,3205.548781,N,03450.055733,E,006.5,258.3,120416,,,A*5C
$GPGGA,164110.00,3205.548781,N,03450.055733,E,1,09,1.2,30.3,M,19.2,M,,*59
$GPGSV,4,1,14,25,62,344,25,12,61,075,18,29,49,285,22,02,46,052,20*7D
$GPGSV,4,2,14,24,30,178,28,05,19,117,25,31,14,320,23,20,10,163,13*74
$GPGSV,4,3,14,21,08,212,08,14,07,270,25,13,01,000,,16,01,000,*7C
$GPGSV,4,4,14,06,05,038,,32,03,270,*73
$GLGSV,1,1,02,66,01,000,,74,01,000,*64
$GPGSA,A,3,02,05,12,14,20,24,25,29,31,,,,1.9,1.2,1.4*37
$GNGSA,A,3,02,05,12,14,20,24,25,29,31,,,,1.9,1.2,1.4*29
$GNGSA,A,3,,,,,,,,,,,,,1.9,1.2,1.4*22
$QZGSA,A,3,,,,,,,,,,,,,1.9,1.2,1.4*20
$GPRMC,164110.00,A,3205.548781,N,03450.055733,E,000.0,258.3,120416,,,A*57
$GPGGA,164111.00,3205.548781,N,03450.055733,E,1,09,1.2,30.5,M,19.2,M,,*5E
$GPGSV,4,1,14,25,62,344,25,12,61,075,18,29,49,285,22,02,46,052,20*7D
$GPGSV,4,2,14,24,30,178,28,05,19,117,25,31,14,320,23,20,10,163,13*74
$GPGSV,4,3,14,14,07,270,24,32,03,270,11,13,01,000,,16,01,000,*78
$GPGSV,4,4,14,21,08,212,,06,05,038,*7E
$GLGSV,1,1,02,66,01,000,,74,01,000,*64
$GPGSA,A,3,02,05,12,14,20,24,25,29,31,,,,1.9,1.2,1.4*37
$GNGSA,A,3,02,05,12,14,20,24,25,29,31,,,,1.9,1.2,1.4*29
$GNGSA,A,3,,,,,,,,,,,,,1.9,1.2,1.4*22
$QZGSA,A,3,,,,,,,,,,,,,1.9,1.2,1.4*20
$GPRMC,164111.00,A,3205.548781,N,03450.055733,E,000.0,258.3,120416,,,A*56
$GPGGA,164112.00,3205.547713,N,03450.047905,E,1,09,1.6,31.3,M,19.2,M,,*52
$GPGSV,4,1,14,25,62,344,26,12,61,075,18,29,49,285,25,02,46,052,25*7C
$GPGSV,4,2,14,24,30,178,27,05,19,117,24,31,14,320,23,20,10,163,13*7A
$GPGSV,4,3,14,14,07,270,24,06,05,038,12,32,03,270,11,13,01,000,*75
$GPGSV,4,4,14,16,01,000,,21,08,212,*70
$GLGSV,1,1,02,74,01,000,,66,01,000,*64
$GPGSA,A,3,02,05,12,14,20,24,25,29,31,,,,1.8,1.1,1.4*35
$GNGSA,A,3,02,05,12,14,20,24,25,29,31,,,,1.8,1.1,1.4*2B
$GNGSA,A,3,,,,,,,,,,,,,1.8,1.1,1.4*20
$QZGSA,A,3,,,,,,,,,,,,,1.8,1.1,1.4*22
$GPRMC,164112.00,A,3205.547713,N,03450.047905,E,003.6,257.9,120416,,,A*59
$GPGGA,164113.00,3205.547196,N,03450.044691,E,1,11,1.2,34.4,M,19.2,M,,*56
$GPGSV,4,1,14,25,62,344,25,12,61,075,20,29,49,285,24,02,46,052,26*76
$GPGSV,4,2,14,24,30,178,27,05,19,117,24,31,14,320,28,20,10,163,13*71
$GPGSV,4,3,14,14,07,270,23,06,05,038,12,32,03,270,11,13,01,000,*72
$GPGSV,4,4,14,16,01,000,,21,08,212,*70
$GLGSV,1,1,02,74,01,000,,66,01,000,*64
$GPGSA,A,3,02,05,06,12,14,20,24,25,29,31,32,,1.8,1.1,1.4*32
$GNGSA,A,3,02,05,06,12,14,20,24,25,29,31,32,,1.8,1.1,1.4*2C
$GNGSA,A,3,,,,,,,,,,,,,1.8,1.1,1.4*20
$QZGSA,A,3,,,,,,,,,,,,,1.8,1.1,1.4*22
$GPRMC,164113.00,A,3205.547196,N,03450.044691,E,005.8,256.3,120416,,,A*51
$GPGGA,164114.00,3205.546682,N,03450.041483,E,1,11,1.2,36.0,M,19.2,M,,*50
$GPGSV,4,1,14,25,62,344,25,12,61,075,21,29,49,285,24,02,46,052,25*74
$GPGSV,4,2,14,24,30,178,26,05,19,117,24,31,14,320,27,20,10,163,13*7F
$GPGSV,4,3,14,14,07,270,23,06,05,038,11,32,03,270,11,13,01,000,*71
$GPGSV,4,4,14,16,01,000,,21,08,212,*70
$GLGSV,1,1,02,74,01,000,,66,01,000,*64
$GPGSA,A,3,02,05,06,12,14,20,24,25,29,31,32,,2.2,1.3,1.8*35
$GNGSA,A,3,02,05,06,12,14,20,24,25,29,31,32,,2.2,1.3,1.8*2B
$GNGSA,A,3,,,,,,,,,,,,,2.2,1.3,1.8*27
$QZGSA,A,3,,,,,,,,,,,,,2.2,1.3,1.8*25
$GPRMC,164114.00,A,3205.546682,N,03450.041483,E,005.8,257.2,120416,,,A*51
$GPGGA,164115.00,3205.546348,N,03450.039036,E,1,10,1.2,36.0,M,19.2,M,,*56
$GPGSV,4,1,14,25,62,344,25,12,61,075,21,29,49,285,24,02,46,052,25*74
$GPGSV,4,2,14,24,30,178,26,05,19,117,25,31,14,320,26,20,10,163,13*7F
$GPGSV,4,3,14,14,07,270,22,06,05,038,10,32,03,270,11,13,01,000,*71
$GPGSV,4,4,14,16,01,000,,21,08,212,*70
$GLGSV,1,1,02,66,01,000,,74,01,000,*64
$GPGSA,A,3,02,05,12,14,20,24,25,29,31,32,,,2.2,1.3,1.8*33
$GNGSA,A,3,02,05,12,14,20,24,25,29,31,32,,,2.2,1.3,1.8*2D
$GNGSA,A,3,,,,,,,,,,,,,2.2,1.3,1.8*27
$QZGSA,A,3,,,,,,,,,,,,,2.2,1.3,1.8*25
$GPRMC,164115.00,A,3205.546348,N,03450.039036,E,005.8,258.0,120416,,,A*5B
$GPGGA,164116.00,3205.546022,N,03450.036820,E,1,10,1.2,36.0,M,19.2,M,,*5A
$GPGSV,4,1,14,25,62,344,24,12,61,075,21,29,49,285,24,02,46,052,24*74
$GPGSV,4,2,14,24,30,178,25,05,19,117,27,31,14,320,26,20,10,163,13*7E
$GPGSV,4,3,14,14,07,270,22,06,05,038,10,32,03,270,10,13,01,000,*70
$GPGSV,4,4,14,16,01,000,,21,08,212,*70
$GLGSV,1,1,02,66,01,000,,74,01,000,*64
$GPGSA,A,3,02,05,06,12,14,20,24,25,29,31,,,2.3,1.3,1.9*34
$GNGSA,A,3,02,05,06,12,14,20,24,25,29,31,,,2.3,1.3,1.9*2A
$GNGSA,A,3,,,,,,,,,,,,,2.3,1.3,1.9*27
$QZGSA,A,3,,,,,,,,,,,,,2.3,1.3,1.9*25
$GPRMC,164116.00,A,3205.546022,N,03450.036820,E,005.8,258.3,120416,,,A*54
$GPGGA,164117.00,3205.545540,N,03450.034611,E,1,10,1.2,36.1,M,19.2,M,,*56
$GPGSV,4,1,14,25,62,344,24,12,61,075,21,29,49,285,24,02,46,052,24*74
$GPGSV,4,2,14,24,30,178,25,05,19,117,28,31,14,320,25,20,10,163,13*72
$GPGSV,4,3,14,14,07,270,22,06,05,038,10,32,03,270,08,13,01,000,*79
$GPGSV,4,4,14,16,01,000,,21,08,212,*70
$GLGSV,1,1,02,66,01,000,,74,01,000,*64
$GPGSA,A,3,02,05,06,12,14,20,24,25,29,31,,,2.4,1.2,2.0*38
$GNGSA,A,3,02,05,06,12,14,20,24,25,29,31,,,2.4,1.2,2.0*26
$GNGSA,A,3,,,,,,,,,,,,,2.4,1.2,2.0*2B
$QZGSA,A,3,,,,,,,,,,,,,2.4,1.2,2.0*29
$GPRMC,164117.00,A,3205.545540,N,03450.034611,E,005.8,256.2,120416,,,A*56
$GPGGA,164118.00,3205.545062,N,03450.032681,E,1,10,1.2,36.1,M,19.2,M,,*53
$GPGSV,4,1,14,25,62,344,24,12,61,075,21,29,49,285,23,02,46,052,24*73
$GPGSV,4,2,14,24,30,178,24,05,19,117,30,31,14,320,25,20,10,163,13*7A
$GPGSV,4,3,14,14,07,270,21,06,05,038,10,13,01,000,,16,01,000,*73
$GPGSV,4,4,14,21,08,212,,32,03,270,*71
$GLGSV,1,1,02,66,01,000,,74,01,000,*64
$GPGSA,A,3,02,05,06,12,14,20,24,25,29,31,,,2.2,1.2,1.8*35
$GNGSA,A,3,02,05,06,12,14,20,24,25,29,31,,,2.2,1.2,1.8*2B
$GNGSA,A,3,,,,,,,,,,,,,2.2,1.2,1.8*26
$QZGSA,A,3,,,,,,,,,,,,,2.2,1.2,1.8*24
$GPRMC,164118.00,A,3205.545062,N,03450.032681,E,005.7,254.6,120416,,,A*5A
$GPGGA,164119.00,3205.544933,N,03450.031810,E,1,10,1.2,36.1,M,19.2,M,,*5B
$GPGSV,4,1,14,25,62,344,23,12,61,075,21,29,49,285,23,02,46,052,24*74
$GPGSV,4,2,14,24,30,178,25,05,19,117,30,31,14,320,24,20,10,163,14*7D
$GPGSV,4,3,14,14,07,270,21,06,05,038,10,13,01,000,,16,01,000,*73
$GPGSV,4,4,14,21,08,212,,32,03,270,*71
$GLGSV,1,1,02,66,01,000,,74,01,000,*64
$GPGSA,A,3,02,05,06,12,14,20,24,25,29,31,,,2.2,1.2,1.8*35
$GNGSA,A,3,02,05,06,12,14,20,24,25,29,31,,,2.2,1.2,1.8*2B
$GNGSA,A,3,,,,,,,,,,,,,2.2,1.2,1.8*26
$QZGSA,A,3,,,,,,,,,,,,,2.2,1.2,1.8*24
$GPRMC,164119.00,A,3205.544933,N,03450.031810,E,005.5,255.3,120416,,,A*54
$GPGGA,164120.00,3205.544677,N,03450.031066,E,1,10,1.6,36.1,M,19.2,M,,*53
$GPGSV,4,1,14,25,62,344,23,12,61,075,21,29,49,285,23,02,46,052,23*73
$GPGSV,4,2,14,24,30,178,24,05,19,117,29,31,14,320,24,20,10,163,14*74
$GPGSV,4,3,14,14,07,270,24,06,05,038,10,13,01,000,,16,01,000,*76
$GPGSV,4,4,14,21,08,212,,32,03,270,*71
$GLGSV,1,1,02,66,01,000,,74,01,000,*64
$GPGSA,A,3,02,05,06,12,14,20,24,25,29,31,,,2.8,1.6,2.2*32
$GNGSA,A,3,02,05,06,12,14,20,24,25,29,31,,,2.8,1.6,2.2*2C
$GNGSA,A,3,,,,,,,,,,,,,2.8,1.6,2.2*21
$QZGSA,A,3,,,,,,,,,,,,,2.8,1.6,2.2*23
$GPRMC,164120.00,A,3205.544677,N,03450.031066,E,005.1,242.3,120416,,,A*5A
$GPGGA,164121.00,3205.544057,N,03450.029954,E,1,10,1.6,36.0,M,19.2,M,,*56
$GPGSV,4,1,14,25,62,344,22,12,61,075,21,29,49,285,23,02,46,052,23*72
$GPGSV,4,2,14,24,30,178,24,05,19,117,30,31,14,320,24,20,10,163,14*7C
$GPGSV,4,3,14,14,07,270,24,06,05,038,10,13,01,000,,16,01,000,*76
$GPGSV,4,4,14,21,08,212,,32,03,270,*71
$GLGSV,1,1,02,66,01,000,,74,01,000,*64
$GPGSA,A,3,02,05,06,12,14,20,24,25,29,31,,,2.4,1.5,1.9*35
$GNGSA,A,3,02,05,06,12,14,20,24,25,29,31,,,2.4,1.5,1.9*2B
$GNGSA,A,3,,,,,,,,,,,,,2.4,1.5,1.9*26
$QZGSA,A,3,,,,,,,,,,,,,2.4,1.5,1.9*24
$GPRMC,164121.00,A,3205.544057,N,03450.029954,E,004.9,228.3,120416,,,A*5B
$GPGGA,164122.00,3205.543297,N,03450.028562,E,1,10,1.6,35.9,M,19.2,M,,*5E
$GPGSV,4,1,14,25,62,344,22,12,61,076,20,29,49,285,22,02,46,052,23*71
$GPGSV,4,2,14,24,30,178,23,05,19,117,31,31,14,320,24,20,10,163,15*7B
$GPGSV,4,3,14,14,07,270,24,06,05,038,10,13,01,000,,16,01,000,*76
$GPGSV,4,4,14,21,08,212,,32,03,270,*71
$GLGSV,1,1,02,66,01,000,,74,01,000,*64
$GPGSA,A,3,02,05,06,12,14,20,24,25,29,31,,,2.2,1.2,1.8*35
$GNGSA,A,3,02,05,06,12,14,20,24,25,29,31,,,2.2,1.2,1.8*2B
$GNGSA,A,3,,,,,,,,,,,,,2.2,1.2,1.8*26
$QZGSA,A,3,,,,,,,,,,,,,2.2,1.2,1.8*24
$GPRMC,164122.00,A,3205.543297,N,03450.028562,E,000.0,239.2,120416,,,A*55
$GPGGA,164123.00,3205.542961,N,03450.027829,E,1,10,1.6,35.9,M,19.2,M,,*51
$GPGSV,4,1,14,25,62,344,21,12,61,076,19,29,49,285,18,02,46,052,19*78
$GPGSV,4,2,14,24,30,178,17,05,19,117,32,31,14,320,22,20,10,163,15*79
$GPGSV,4,3,14,14,07,270,24,06,05,038,10,13,01,000,,16,01,000,*76
$GPGSV,4,4,14,21,08,212,,32,03,270,*71
$GLGSV,1,1,02,66,01,000,,74,01,000,*64
$GPGSA,A,3,02,05,06,12,14,20,24,25,29,31,,,2.4,1.5,1.9*35
$GNGSA,A,3,02,05,06,12,14,20,24,25,29,31,,,2.4,1.5,1.9*2B
$GNGSA,A,3,,,,,,,,,,,,,2.4,1.5,1.9*26
$QZGSA,A,3,,,,,,,,,,,,,2.4,1.5,1.9*24
$GPRMC,164123.00,A,3205.542961,N,03450.027829,E,000.0,239.2,120416,,,A*5A
$GPGGA,164124.00,3205.542678,N,03450.027356,E,1,10,1.6,35.9,M,19.2,M,,*52
$GPGSV,4,1,14,25,62,345,22,12,61,076,19,29,49,285,17,02,46,052,18*74
$GPGSV,4,2,14,24,30,178,18,05,19,117,32,31,14,320,22,20,10,163,15*76
$GPGSV,4,3,14,14,07,270,23,06,05,038,09,13,01,000,,16,01,000,*79
$GPGSV,4,4,14,21,08,212,,32,03,270,*71
$GLGSV,1,1,02,66,01,000,,74,01,000,*64
$GPGSA,A,3,02,05,06,12,14,20,24,25,29,31,,,2.4,1.5,1.9*35
$GNGSA,A,3,02,05,06,12,14,20,24,25,29,31,,,2.4,1.5,1.9*2B
$GNGSA,A,3,,,,,,,,,,,,,2.4,1.5,1.9*26
$QZGSA,A,3,,,,,,,,,,,,,2.4,1.5,1.9*24
$GPRMC,164124.00,A,3205.542678,N,03450.027356,E,000.0,239.2,120416,,,A*59
$GPGGA,164125.00,3205.542408,N,03450.026984,E,1,10,1.6,35.9,M,19.2,M,,*52
$GPGSV,4,1,14,25,62,345,22,12,61,076,19,29,49,285,16,02,46,052,18*75
$GPGSV,4,2,14,24,30,178,17,05,19,117,31,31,14,320,22,20,10,163,15*7A
$GPGSV,4,3,14,14,07,270,24,06,05,038,10,13,01,000,,16,01,000,*76
$GPGSV,4,4,14,21,08,212,,32,03,270,*71
$GLGSV,1,1,02,66,01,000,,74,01,000,*64
$GPGSA,A,3,02,05,06,12,14,20,24,25,29,31,,,2.4,1.5,1.9*35
$GNGSA,A,3,02,05,06,12,14,20,24,25,29,31,,,2.4,1.5,1.9*2B
$GNGSA,A,3,,,,,,,,,,,,,2.4,1.5,1.9*26
$QZGSA,A,3,,,,,,,,,,,,,2.4,1.5,1.9*24
$GPRMC,164125.00,A,3205.542408,N,03450.026984,E,000.0,239.2,120416,,,A*59
$GPGGA,164126.00,3205.541774,N,03450.026430,E,1,10,1.6,35.7,M,19.2,M,,*56
$GPGSV,4,1,14,25,62,345,22,12,61,076,19,29,49,285,16,02,46,052,17*7A
$GPGSV,4,2,14,24,30,178,18,05,19,117,31,31,14,320,22,20,10,163,15*75
$GPGSV,4,3,14,14,07,270,23,06,05,038,10,13,01,000,,16,01,000,*71
$GPGSV,4,4,14,21,08,212,,32,03,270,*71
$GLGSV,1,1,02,66,01,000,,74,01,000,*64
$GPGSA,A,3,02,05,06,12,14,20,24,25,29,31,,,2.3,1.4,1.8*32
$GNGSA,A,3,02,05,06,12,14,20,24,25,29,31,,,2.3,1.4,1.8*2C
$GNGSA,A,3,,,,,,,,,,,,,2.3,1.4,1.8*21
$QZGSA,A,3,,,,,,,,,,,,,2.3,1.4,1.8*23
$GPRMC,164126.00,A,3205.541774,N,03450.026430,E,000.0,197.4,120416,,,A*52
$GPGGA,164127.00,3205.541123,N,03450.025904,E,1,10,1.6,35.5,M,19.2,M,,*58
$GPGSV,4,1,14,25,62,345,22,12,61,076,18,29,49,285,16,02,46,052,17*7B
$GPGSV,4,2,14,24,30,178,18,05,19,117,31,31,14,320,22,20,10,163,16*76
$GPGSV,4,3,14,14,07,270,23,06,05,038,10,13,01,000,,16,01,000,*71
$GPGSV,4,4,14,21,08,212,,32,03,270,*71
$GLGSV,1,1,02,66,01,000,,74,01,000,*64
$GPGSA,A,3,02,05,06,12,14,20,24,25,29,31,,,2.1,1.2,1.8*36
$GNGSA,A,3,02,05,06,12,14,20,24,25,29,31,,,2.1,1.2,1.8*28
$GNGSA,A,3,,,,,,,,,,,,,2.1,1.2,1.8*25
$QZGSA,A,3,,,,,,,,,,,,,2.1,1.2,1.8*27
$GPRMC,164127.00,A,3205.541123,N,03450.025904,E,000.0,196.3,120416,,,A*58
$GPGGA,164128.00,3205.540648,N,03450.025616,E,1,11,1.2,35.3,M,19.2,M,,*53
$GPGSV,4,1,14,25,62,345,21,12,61,076,18,29,49,285,16,02,46,052,17*78
$GPGSV,4,2,14,24,30,178,18,05,19,117,31,31,14,320,22,20,10,163,16*76
$GPGSV,4,3,14,21,08,212,14,14,07,270,23,06,05,038,11,13,01,000,*79
$GPGSV,4,4,14,16,01,000,,32,03,270,*7D
$GLGSV,1,1,02,74,01,000,,66,01,000,*64
$GPGSA,A,3,02,05,06,12,14,20,21,24,25,29,31,,2.4,1.5,1.9*36
$GNGSA,A,3,02,05,06,12,14,20,21,24,25,29,31,,2.4,1.5,1.9*28
$GNGSA,A,3,,,,,,,,,,,,,2.4,1.5,1.9*26
$QZGSA,A,3,,,,,,,,,,,,,2.4,1.5,1.9*24
$GPRMC,164128.00,A,3205.540648,N,03450.025616,E,000.0,196.2,120416,,,A*51
$GPGGA,164129.00,3205.540260,N,03450.025392,E,1,10,1.2,35.0,M,19.2,M,,*57
$GPGSV,4,1,14,25,62,345,21,12,61,076,18,29,49,285,16,02,46,052,17*78
$GPGSV,4,2,14,24,30,178,19,05,19,117,31,31,14,320,22,20,10,163,16*77
$GPGSV,4,3,14,14,07,270,23,06,05,038,11,13,01,000,,16,01,000,*70
$GPGSV,4,4,14,21,08,212,,32,03,270,*71
$GLGSV,1,1,02,66,01,000,,74,01,000,*64
$GPGSA,A,3,02,05,06,12,14,20,24,25,29,31,,,2.2,1.3,1.8*34
$GNGSA,A,3,02,05,06,12,14,20,24,25,29,31,,,2.2,1.3,1.8*2A
$GNGSA,A,3,,,,,,,,,,,,,2.2,1.3,1.8*27
$QZGSA,A,3,,,,,,,,,,,,,2.2,1.3,1.8*25
$GPRMC,164129.00,A,3205.540260,N,03450.025392,E,000.0,196.2,120416,,,A*57
$GPGGA,164130.00,3205.540260,N,03450.025391,E,1,11,1.2,34.8,M,19.2,M,,*54
$GPGSV,4,1,14,25,62,345,21,12,61,076,18,29,49,285,16,02,46,051,16*7A
$GPGSV,4,2,14,24,30,178,18,05,19,117,30,31,14,320,22,20,10,163,16*77
$GPGSV,4,3,14,14,07,270,23,06,05,038,11,32,03,270,09,13,01,000,*78
$GPGSV,4,4,14,16,01,000,,21,08,212,*70
$GLGSV,1,1,02,74,01,000,,66,01,000,*64
$GPGSA,A,3,02,05,06,12,14,20,24,25,29,31,32,,2.1,1.2,1.8*37
$GNGSA,A,3,02,05,06,12,14,20,24,25,29,31,32,,2.1,1.2,1.8*29
$GNGSA,A,3,,,,,,,,,,,,,2.1,1.2,1.8*25
$QZGSA,A,3,,,,,,,,,,,,,2.1,1.2,1.8*27
$GPRMC,164130.00,A,3205.540260,N,03450.025391,E,000.0,196.2,120416,,,A*5C
$GPGGA,164131.00,3205.540260,N,03450.025391,E,1,11,1.2,34.8,M,19.2,M,,*55
$GPGSV,4,1,14,25,62,345,21,12,61,076,17,29,49,285,16,02,46,051,16*75
$GPGSV,4,2,14,24,30,178,18,05,19,117,31,31,14,320,22,20,10,163,16*76
$GPGSV,4,3,14,14,07,270,23,06,05,038,11,32,03,270,08,13,01,000,*79
$GPGSV,4,4,14,16,01,000,,21,08,212,*70
$GLGSV,1,1,02,74,01,000,,66,01,000,*64
$GPGSA,A,3,02,05,06,12,14,20,24,25,29,31,32,,2.1,1.2,1.8*37
$GNGSA,A,3,02,05,06,12,14,20,24,25,29,31,32,,2.1,1.2,1.8*29
$GNGSA,A,3,,,,,,,,,,,,,2.1,1.2,1.8*25
$QZGSA,A,3,,,,,,,,,,,,,2.1,1.2,1.8*27
$GPRMC,164131.00,A,3205.540260,N,03450.025391,E,000.0,196.2,120416,,,A*5D
$GPGGA,164132.00,3205.539945,N,03450.024865,E,1,11,1.2,34.6,M,19.2,M,,*5B
$GPGSV,4,1,14,25,62,345,20,12,61,076,17,29,49,285,16,02,46,051,24*75
$GPGSV,4,2,14,24,30,178,26,05,19,117,31,31,14,320,22,20,10,163,16*7B
$GPGSV,4,3,14,14,07,270,24,06,05,038,11,32,03,270,08,13,01,000,*7E
$GPGSV,4,4,14,16,01,000,,21,08,212,*70
$GLGSV,1,1,02,74,01,000,,66,01,000,*64
$GPGSA,A,3,02,05,06,12,14,20,24,25,29,31,32,,2.1,1.2,1.8*37
$GNGSA,A,3,02,05,06,12,14,20,24,25,29,31,32,,2.1,1.2,1.8*29
$GNGSA,A,3,,,,,,,,,,,,,2.1,1.2,1.8*25
$QZGSA,A,3,,,,,,,,,,,,,2.1,1.2,1.8*27
$GPRMC,164132.00,A,3205.539945,N,03450.024865,E,001.9,233.5,120416,,,A*5E
$GPGGA,164133.00,3205.539829,N,03450.024171,E,1,12,1.2,34.3,M,19.2,M,,*5B
$GPGSV,4,1,16,25,62,345,21,12,61,076,17,29,49,285,16,02,46,051,24*76
$GPGSV,4,2,16,24,30,178,26,05,19,117,31,31,14,320,26,20,10,163,16*7D
$GPGSV,4,3,16,21,08,212,11,14,07,270,24,06,05,038,11,32,03,270,08*75
$GPGSV,4,4,16,07,01,000,,13,01,000,,16,01,000,,19,01,000,*74
$GLGSV,1,1,03,74,01,000,,66,01,000,,82,01,000,*5E
$GPGSA,A,3,02,05,06,12,14,20,21,24,25,29,31,32,2.1,1.2,1.8*34
$GNGSA,A,3,02,05,06,12,14,20,21,24,25,29,31,32,2.1,1.2,1.8*2A
$GNGSA,A,3,,,,,,,,,,,,,2.1,1.2,1.8*25
$QZGSA,A,3,,,,,,,,,,,,,2.1,1.2,1.8*27
$GPRMC,164133.00,A,3205.539829,N,03450.024171,E,000.0,233.5,120416,,,A*50
$GPGGA,164134.00,3205.539741,N,03450.022994,E,1,12,1.2,34.1,M,19.2,M,,*5A
$GPGSV,4,1,14,25,62,345,20,12,61,076,17,29,49,285,17,02,46,051,23*73
$GPGSV,4,2,14,24,30,178,22,05,19,117,29,31,14,320,21,20,10,163,18*7B
$GPGSV,4,3,14,21,08,212,10,14,07,270,20,06,05,038,11,32,03,270,07*7D
$GPGSV,4,4,14,07,01,000,,19,01,000,*73
$GLGSV,1,1,02,66,01,000,,82,01,000,*6D
$GPGSA,A,3,02,05,06,12,14,20,21,24,25,29,31,32,2.1,1.2,1.8*34
$GNGSA,A,3,02,05,06,12,14,20,21,24,25,29,31,32,2.1,1.2,1.8*2A
$GNGSA,A,3,,,,,,,,,,,,,2.1,1.2,1.8*25
$QZGSA,A,3,,,,,,,,,,,,,2.1,1.2,1.8*27
$GPRMC,164134.00,A,3205.539741,N,03450.022994,E,003.1,246.0,120416,,,A*56
$GPGGA,164135.00,3205.539514,N,03450.020859,E,1,10,1.2,34.0,M,19.2,M,,*58
$GPGSV,4,1,14,25,62,345,24,12,61,076,17,29,49,285,24,02,46,051,26*72
$GPGSV,4,2,14,24,30,178,22,05,19,117,31,31,14,320,25,20,10,163,19*77
$GPGSV,4,3,14,21,08,212,09,14,07,270,20,06,05,038,11,07,01,000,*73
$GPGSV,4,4,14,19,01,000,,32,03,270,*72
$GLGSV,1,1,02,82,01,000,,66,01,000,*6D
$GPGSA,A,3,02,05,06,12,14,20,24,25,29,31,,,1.7,1.0,1.4*3D
$GNGSA,A,3,02,05,06,12,14,20,24,25,29,31,,,1.7,1.0,1.4*23
$GNGSA,A,3,,,,,,,,,,,,,1.7,1.0,1.4*2E
$QZGSA,A,3,,,,,,,,,,,,,1.7,1.0,1.4*2C
$GPRMC,164135.00,A,3205.539514,N,03450.020859,E,005.3,255.3,120416,,,A*52
$GPGGA,164136.00,3205.539064,N,03450.017620,E,1,10,1.6,33.5,M,19.2,M,,*5B
$GPGSV,4,1,14,25,62,345,24,12,61,076,18,29,49,285,24,02,46,051,26*7D
$GPGSV,4,2,14,24,30,178,23,05,19,116,31,31,14,320,26,20,10,163,19*74
$GPGSV,4,3,14,21,08,212,08,14,07,270,20,06,05,038,11,07,01,000,*72
$GPGSV,4,4,14,19,01,000,,32,03,270,*72
$GLGSV,1,1,02,82,01,000,,66,01,000,*6D
$GPGSA,A,3,02,05,06,12,14,20,24,25,29,31,,,1.7,1.0,1.4*3D
$GNGSA,A,3,02,05,06,12,14,20,24,25,29,31,,,1.7,1.0,1.4*23
$GNGSA,A,3,,,,,,,,,,,,,1.7,1.0,1.4*2E
$QZGSA,A,3,,,,,,,,,,,,,1.7,1.0,1.4*2C
$GPRMC,164136.00,A,3205.539064,N,03450.017620,E,007.9,258.8,120416,,,A*59
$GPGGA,164137.00,3205.538818,N,03450.014592,E,1,10,1.6,32.8,M,19.2,M,,*5D
$GPGSV,4,1,14,25,62,345,25,12,61,076,18,29,49,285,24,02,46,051,26*7C
$GPGSV,4,2,14,24,30,178,23,05,19,116,31,31,14,320,25,20,10,163,19*77
$GPGSV,4,3,14,14,07,270,20,06,05,038,11,07,01,000,,19,01,000,*79
$GPGSV,4,4,14,21,08,212,,32,03,270,*71
$GLGSV,1,1,02,82,01,000,,66,01,000,*6D
$GPGSA,A,3,02,05,06,12,14,20,24,25,29,31,,,1.8,1.1,1.5*32
$GNGSA,A,3,02,05,06,12,14,20,24,25,29,31,,,1.8,1.1,1.5*2C
$GNGSA,A,3,,,,,,,,,,,,,1.8,1.1,1.5*21
$QZGSA,A,3,,,,,,,,,,,,,1.8,1.1,1.5*23
$GPRMC,164137.00,A,3205.538818,N,03450.014592,E,009.0,258.8,120416,,,A*54
$GPGGA,164138.00,3205.538654,N,03450.010198,E,1,10,2.4,32.7,M,19.2,M,,*50
$GPGSV,4,1,14,25,62,345,24,12,61,076,18,29,49,285,24,02,46,051,26*7D
$GPGSV,4,2,14,24,30,178,23,05,19,116,30,31,14,320,25,20,10,163,18*77
$GPGSV,4,3,14,14,07,269,20,06,05,038,11,07,01,000,,19,01,000,*71
$GPGSV,4,4,14,21,08,212,,32,03,270,*71
$GLGSV,1,1,04,84,01,000,,82,01,000,,65,01,000,,66,01,000,*64
$GPGSA,A,3,02,05,06,12,14,20,24,25,29,31,,,1.8,1.1,1.5*32
$GNGSA,A,3,02,05,06,12,14,20,24,25,29,31,,,1.8,1.1,1.5*2C
$GNGSA,A,3,,,,,,,,,,,,,1.8,1.1,1.5*21
$QZGSA,A,3,,,,,,,,,,,,,1.8,1.1,1.5*23
$GPRMC,164138.00,A,3205.538654,N,03450.010198,E,010.2,257.9,120416,,,A*53
$GPGGA,164139.00,3205.538807,N,03450.005714,E,1,10,2.4,32.5,M,19.2,M,,*5D
$GPGSV,4,1,14,25,62,345,24,12,61,076,18,29,49,285,23,02,46,051,26*7A
$GPGSV,4,2,14,24,30,178,23,05,19,116,30,31,14,320,25,20,10,163,18*77
$GPGSV,4,3,14,14,07,269,20,06,05,038,11,07,01,000,,19,01,000,*71
$GPGSV,4,4,14,21,08,212,,32,03,270,*71
$GLGSV,1,1,04,84,01,000,,82,01,000,,65,01,000,,66,01,000,*64
$GPGSA,A,3,02,05,06,12,14,20,24,25,29,31,,,1.8,1.1,1.5*32
$GNGSA,A,3,02,05,06,12,14,20,24,25,29,31,,,1.8,1.1,1.5*2C
$GNGSA,A,3,,,,,,,,,,,,,1.8,1.1,1.5*21
$QZGSA,A,3,,,,,,,,,,,,,1.8,1.1,1.5*23
$GPRMC,164139.00,A,3205.538807,N,03450.005714,E,010.8,258.8,120416,,,A*58
$GPGGA,164140.00,3205.539072,N,03450.000639,E,1,10,1.6,31.8,M,19.2,M,,*5C
$GPGSV,4,1,14,25,62,345,24,12,61,076,18,29,49,285,25,02,46,051,25*7F
$GPGSV,4,2,14,24,30,178,27,05,19,116,29,31,14,320,26,20,10,163,18*78
$GPGSV,4,3,14,14,07,269,19,06,05,038,11,07,01,000,,19,01,000,*7B
$GPGSV,4,4,14,21,08,212,,32,03,270,*71
$GLGSV,1,1,04,84,01,000,,82,01,000,,65,01,000,,66,01,000,*64
$GPGSA,A,3,02,05,06,12,14,20,24,25,29,31,,,1.8,1.1,1.5*32
$GNGSA,A,3,02,05,06,12,14,20,24,25,29,31,,,1.8,1.1,1.5*2C
$GNGSA,A,3,,,,,,,,,,,,,1.8,1.1,1.5*21
$QZGSA,A,3,,,,,,,,,,,,,1.8,1.1,1.5*23
$GPRMC,164140.00,A,3205.539072,N,03450.000639,E,011.2,258.2,120416,,,A*57
$GPGGA,164141.00,3205.539291,N,03449.995711,E,1,10,1.6,30.9,M,19.2,M,,*54
$GPGSV,4,1,14,25,62,345,24,12,61,076,17,29,49,285,25,02,46,051,25*70
$GPGSV,4,2,14,24,30,178,30,05,19,116,29,31,14,320,25,20,10,163,18*7D
$GPGSV,4,3,14,14,07,269,19,06,05,038,11,07,01,000,,19,01,000,*7B
$GPGSV,4,4,14,21,08,212,,32,03,270,*71
$GLGSV,1,1,04,84,01,000,,82,01,000,,65,01,000,,66,01,000,*64
$GPGSA,A,3,02,05,06,12,14,20,24,25,29,31,,,1.8,1.1,1.5*32
$GNGSA,A,3,02,05,06,12,14,20,24,25,29,31,,,1.8,1.1,1.5*2C
$GNGSA,A,3,,,,,,,,,,,,,1.8,1.1,1.5*21
$QZGSA,A,3,,,,,,,,,,,,,1.8,1.1,1.5*23
$GPRMC,164141.00,A,3205.539291,N,03449.995711,E,011.6,259.8,120416,,,A*50
$GPGGA,164142.00,3205.538632,N,03449.990253,E,1,10,1.6,30.0,M,19.2,M,,*54
$GPGSV,4,1,14,25,62,345,23,12,61,076,17,29,49,285,24,02,46,051,24*77
$GPGSV,4,2,14,24,29,178,29,05,19,116,28,31,14,320,25,20,10,163,26*71
$GPGSV,4,3,14,14,07,269,19,06,05,038,11,07,01,000,,19,01,000,*7B
$GPGSV,4,4,14,21,08,212,,32,03,270,*71
$GLGSV,1,1,04,84,01,000,,82,01,000,,65,01,000,,66,01,000,*64
$GPGSA,A,3,02,05,06,12,14,20,24,25,29,31,,,1.8,1.1,1.5*32
$GNGSA,A,3,02,05,06,12,14,20,24,25,29,31,,,1.8,1.1,1.5*2C
$GNGSA,A,3,,,,,,,,,,,,,1.8,1.1,1.5*21
$QZGSA,A,3,,,,,,,,,,,,,1.8,1.1,1.5*23
$GPRMC,164142.00,A,3205.538632,N,03449.990253,E,017.0,257.2,120416,,,A*5D
$GPGGA,164143.00,3205.537789,N,03449.984674,E,1,10,1.6,29.3,M,19.2,M,,*54
$GPGSV,4,1,14,25,62,345,23,12,61,076,17,29,49,285,24,02,46,051,24*77
$GPGSV,4,2,14,24,29,178,28,05,19,116,28,31,14,320,25,20,10,163,24*72
$GPGSV,4,3,14,14,07,269,19,06,05,038,11,07,01,000,,19,01,000,*7B
$GPGSV,4,4,14,21,08,212,,32,03,270,*71
$GLGSV,1,1,04,84,01,000,,82,01,000,,65,01,000,,66,01,000,*64
$GPGSA,A,3,02,05,06,12,14,20,24,25,29,31,,,1.8,1.1,1.4*33
$GNGSA,A,3,02,05,06,12,14,20,24,25,29,31,,,1.8,1.1,1.4*2D
$GNGSA,A,3,,,,,,,,,,,,,1.8,1.1,1.4*20
$QZGSA,A,3,,,,,,,,,,,,,1.8,1.1,1.4*22
$GPRMC,164143.00,A,3205.537789,N,03449.984674,E,017.0,258.0,120416,,,A*5B
$GPGGA,164144.00,3205.536113,N,03449.980202,E,1,10,1.6,29.6,M,19.2,M,,*53
$GPGSV,4,1,14,25,62,345,23,12,61,076,17,29,49,285,24,02,46,051,24*77
$GPGSV,4,2,14,24,29,178,27,05,19,116,28,31,14,320,25,20,10,163,23*7A
$GPGSV,4,3,14,14,07,269,18,06,05,038,11,07,01,000,,19,01,000,*7A
$GPGSV,4,4,14,21,08,212,,32,03,270,*71
$GLGSV,1,1,04,84,01,000,,82,01,000,,65,01,000,,66,01,000,*64
$GPGSA,A,3,02,05,06,12,14,20,24,25,29,31,,,1.8,1.1,1.4*33
$GNGSA,A,3,02,05,06,12,14,20,24,25,29,31,,,1.8,1.1,1.4*2D
$GNGSA,A,3,,,,,,,,,,,,,1.8,1.1,1.4*20
$QZGSA,A,3,,,,,,,,,,,,,1.8,1.1,1.4*22
$GPRMC,164144.00,A,3205.536113,N,03449.980202,E,016.3,257.6,120416,,,A*52
$GPGGA,164145.00,3205.534378,N,03449.976097,E,1,10,1.6,30.2,M,19.2,M,,*54
$GPGSV,4,1,14,25,62,345,23,12,61,076,17,29,49,285,24,02,46,051,23*70
$GPGSV,4,2,14,24,29,178,26,05,19,116,28,31,14,320,25,20,10,163,22*7A
$GPGSV,4,3,14,14,07,269,18,06,05,038,11,07,01,000,,19,01,000,*7A
$GPGSV,4,4,14,21,08,212,,32,03,270,*71
$GLGSV,1,1,04,84,01,000,,82,01,000,,65,01,000,,66,01,000,*64
$GPGSA,A,3,02,05,06,12,14,20,24,25,29,31,,,1.8,1.1,1.4*33
$GNGSA,A,3,02,05,06,12,14,20,24,25,29,31,,,1.8,1.1,1.4*2D
$GNGSA,A,3,,,,,,,,,,,,,1.8,1.1,1.4*20
$QZGSA,A,3,,,,,,,,,,,,,1.8,1.1,1.4*22
$GPRMC,164145.00,A,3205.534378,N,03449.976097,E,015.6,256.8,120416,,,A*50
$GPGGA,164146.00,3205.532480,N,03449.971974,E,1,10,1.6,30.8,M,19.2,M,,*58
$GPGSV,4,1,14,25,62,345,23,12,61,076,18,29,49,285,24,02,46,051,23*7F
$GPGSV,4,2,14,24,29,178,25,05,19,116,28,31,14,320,27,20,10,163,21*78
$GPGSV,4,3,14,14,07,269,18,06,05,038,11,07,01,000,,19,01,000,*7A
$GPGSV,4,4,14,21,08,212,,32,03,270,*71
$GLGSV,1,1,04,84,01,000,,82,01,000,,65,01,000,,66,01,000,*64
$GPGSA,A,3,02,05,06,12,14,20,24,25,29,31,,,1.8,1.1,1.4*33
$GNGSA,A,3,02,05,06,12,14,20,24,25,29,31,,,1.8,1.1,1.4*2D
$GNGSA,A,3,,,,,,,,,,,,,1.8,1.1,1.4*20
$QZGSA,A,3,,,,,,,,,,,,,1.8,1.1,1.4*22
$GPRMC,164146.00,A,3205.532480,N,03449.971974,E,015.5,252.9,120416,,,A*50
$GPGGA,164147.00,3205.530637,N,03449.967640,E,1,11,1.6,31.6,M,19.2,M,,*54
$GPGSV,4,1,14,25,62,345,22,12,61,076,19,29,49,285,23,02,46,051,23*78
$GPGSV,4,2,14,24,29,178,24,05,19,116,27,31,14,320,26,20,10,163,20*76
$GPGSV,4,3,14,14,07,269,18,06,05,038,11,32,03,270,07,07,01,000,*73
$GPGSV,4,4,14,19,01,000,,21,08,212,*7F
$GLGSV,1,1,04,82,01,000,,65,01,000,,84,01,000,,66,01,000,*64
$GPGSA,A,3,02,05,06,12,14,20,24,25,29,31,32,,1.8,1.1,1.4*32
$GNGSA,A,3,02,05,06,12,14,20,24,25,29,31,32,,1.8,1.1,1.4*2C
$GNGSA,A,3,,,,,,,,,,,,,1.8,1.1,1.4*20
$QZGSA,A,3,,,,,,,,,,,,,1.8,1.1,1.4*22
$GPRMC,164147.00,A,3205.530637,N,03449.967640,E,015.5,255.2,120416,,,A*5E
$GPGGA,164148.00,3205.529200,N,03449.963753,E,1,11,1.6,32.4,M,19.2,M,,*55
$GPGSV,4,1,14,25,62,345,22,12,61,076,20,29,49,285,23,02,46,051,23*72
$GPGSV,4,2,14,24,29,178,23,05,19,116,26,31,14,320,26,20,10,163,19*7A
$GPGSV,4,3,14,14,07,269,17,06,05,038,13,32,03,270,08,07,01,000,*71
$GPGSV,4,4,14,19,01,000,,21,08,212,*7F
$GLGSV,1,1,04,82,01,000,,65,01,000,,84,01,000,,66,01,000,*64
$GPGSA,A,3,02,05,06,12,14,20,24,25,29,31,32,,1.8,1.1,1.4*32
$GNGSA,A,3,02,05,06,12,14,20,24,25,29,31,32,,1.8,1.1,1.4*2C
$GNGSA,A,3,,,,,,,,,,,,,1.8,1.1,1.4*20
$QZGSA,A,3,,,,,,,,,,,,,1.8,1.1,1.4*22
$GPRMC,164148.00,A,3205.529200,N,03449.963753,E,013.1,253.3,120416,,,A*5B
$GPGGA,164149.00,3205.527945,N,03449.959885,E,1,11,1.6,32.7,M,19.2,M,,*5E
$GPGSV,4,1,14,25,62,345,22,12,61,076,20,29,49,285,23,02,46,051,25*74
$GPGSV,4,2,14,24,29,178,23,05,19,116,25,31,14,320,25,20,10,163,18*7B
$GPGSV,4,3,14,14,07,269,17,06,05,038,13,32,03,270,08,07,01,000,*71
$GPGSV,4,4,14,19,01,000,,21,08,212,*7F
$GLGSV,1,1,04,82,01,000,,65,01,000,,84,01,000,,66,01,000,*64
$GPGSA,A,3,02,05,06,12,14,20,24,25,29,31,32,,1.8,1.1,1.4*32
$GNGSA,A,3,02,05,06,12,14,20,24,25,29,31,32,,1.8,1.1,1.4*2C
$GNGSA,A,3,,,,,,,,,,,,,1.8,1.1,1.4*20
$QZGSA,A,3,,,,,,,,,,,,,1.8,1.1,1.4*22
$GPRMC,164149.00,A,3205.527945,N,03449.959885,E,013.1,254.2,120416,,,A*55
$GPGGA,164150.00,3205.527262,N,03449.956395,E,1,11,1.6,33.2,M,19.2,M,,*59
$GPGSV,4,1,14,25,63,345,22,12,61,076,20,29,49,285,23,02,46,051,25*75
$GPGSV,4,2,14,24,29,178,25,05,19,116,25,31,14,320,25,20,10,163,17*72
$GPGSV,4,3,14,14,07,269,17,06,05,038,13,32,03,270,08,07,01,000,*71
$GPGSV,4,4,14,19,01,000,,21,08,212,*7F
$GLGSV,1,1,04,82,01,000,,65,01,000,,84,01,000,,66,01,000,*64
$GPGSA,A,3,02,05,06,12,14,20,24,25,29,31,32,,2.0,1.1,1.6*3B
$GNGSA,A,3,02,05,06,12,14,20,24,25,29,31,32,,2.0,1.1,1.6*25
$GNGSA,A,3,,,,,,,,,,,,,2.0,1.1,1.6*29
$QZGSA,A,3,,,,,,,,,,,,,2.0,1.1,1.6*2B
$GPRMC,164150.00,A,3205.527262,N,03449.956395,E,011.5,259.8,120416,,,A*57
$GPGGA,164151.00,3205.526607,N,03449.953561,E,1,11,1.6,34.2,M,19.2,M,,*51
$GPGSV,4,1,14,25,63,345,22,12,61,076,20,29,49,285,22,02,46,051,25*74
$GPGSV,4,2,14,24,29,178,29,05,19,116,24,31,14,320,25,20,10,163,16*7E
$GPGSV,4,3,14,14,07,269,17,06,05,038,14,32,03,270,08,07,01,000,*76
$GPGSV,4,4,14,19,01,000,,21,08,212,*7F
$GLGSV,2,1,05,82,01,000,,73,01,000,,65,01,000,,84,01,000,*62
$GLGSV,2,2,05,66,01,000,*51
$GPGSA,A,3,02,05,06,12,14,20,24,25,29,31,32,,1.8,1.1,1.5*33
$GNGSA,A,3,02,05,06,12,14,20,24,25,29,31,32,,1.8,1.1,1.5*2D
$GNGSA,A,3,,,,,,,,,,,,,1.8,1.1,1.5*21
$QZGSA,A,3,,,,,,,,,,,,,1.8,1.1,1.5*23
$GPRMC,164151.00,A,3205.526607,N,03449.953561,E,008.3,260.2,120416,,,A*56
$GPGGA,164152.00,3205.526085,N,03449.951677,E,1,08,1.6,34.4,M,19.2,M,,*56
$GPGSV,4,1,14,25,63,345,27,12,61,076,27,29,49,285,22,02,46,051,25*76
$GPGSV,4,2,14,24,29,178,28,05,19,116,21,31,14,320,24,20,10,163,15*78
$GPGSV,4,3,14,14,07,269,17,06,05,038,12,07,01,000,,19,01,000,*76
$GPGSV,4,4,14,21,08,212,,32,03,270,*71
$GLGSV,1,1,04,82,01,000,,73,01,000,,65,01,000,,84,01,000,*60
$GPGSA,A,3,02,12,14,20,24,25,29,31,,,,,1.9,1.1,1.6*33
$GNGSA,A,3,02,12,14,20,24,25,29,31,,,,,1.9,1.1,1.6*2D
$GNGSA,A,3,,,,,,,,,,,,,1.9,1.1,1.6*23
$QZGSA,A,3,,,,,,,,,,,,,1.9,1.1,1.6*21
$GPRMC,164152.00,A,3205.526085,N,03449.951677,E,006.1,257.5,120416,,,A*50
$GPGGA,164153.00,3205.525717,N,03449.949928,E,1,06,1.6,34.4,M,19.2,M,,*5A
$GPGSV,4,1,14,25,63,345,27,12,61,076,26,29,49,285,22,02,46,051,24*76
$GPGSV,4,2,14,24,29,178,28,05,19,116,17,31,15,320,24,20,10,163,14*7D
$GPGSV,4,3,14,14,07,269,15,06,05,038,10,19,01,000,,07,01,000,*76
$GPGSV,4,4,14,21,08,212,,32,03,270,*71
$GLGSV,1,1,04,65,01,000,,84,01,000,,82,01,000,,73,01,000,*60
$GPGSA,A,3,02,12,24,25,29,31,,,,,,,2.4,1.3,2.0*3D
$GNGSA,A,3,02,12,24,25,29,31,,,,,,,2.4,1.3,2.0*23
$GNGSA,A,3,,,,,,,,,,,,,2.4,1.3,2.0*2A
$QZGSA,A,3,,,,,,,,,,,,,2.4,1.3,2.0*28
$GPRMC,164153.00,A,3205.525717,N,03449.949928,E,005.5,256.7,120416,,,A*56
$GPGGA,164154.00,3205.525717,N,03449.949928,E,1,06,1.6,34.5,M,19.2,M,,*5C
$GPGSV,4,1,14,25,63,345,26,12,61,076,26,29,49,285,22,02,46,051,24*77
$GPGSV,4,2,14,24,29,178,27,31,15,320,24,20,10,163,11,14,07,269,12*76
$GPGSV,4,3,14,05,19,116,12,19,01,000,,07,01,000,,21,08,212,*76
$GPGSV,4,4,14,06,05,038,,32,03,270,*73
$GLGSV,1,1,04,73,01,000,,65,01,000,,84,01,000,,82,01,000,*60
$GPGSA,A,3,02,12,24,25,29,31,,,,,,,2.4,1.3,2.0*3D
$GNGSA,A,3,02,12,24,25,29,31,,,,,,,2.4,1.3,2.0*23
$GNGSA,A,3,,,,,,,,,,,,,2.4,1.3,2.0*2A
$QZGSA,A,3,,,,,,,,,,,,,2.4,1.3,2.0*28
$GPRMC,164154.00,A,3205.525717,N,03449.949928,E,000.0,256.7,120416,,,A*51
$GPGGA,164155.00,3205.525717,N,03449.949928,E,1,06,1.6,34.5,M,19.2,M,,*5D
$GPGSV,4,1,14,25,63,345,26,12,61,076,25,29,49,285,26,02,46,051,24*70
$GPGSV,4,2,14,24,29,178,27,31,15,320,24,05,19,116,07,20,10,163,08*7E
$GPGSV,4,3,14,14,07,269,08,07,01,000,,19,01,000,,21,08,212,*79
$GPGSV,4,4,14,06,05,038,,32,03,270,*73
$GLGSV,1,1,04,73,01,000,,65,01,000,,84,01,000,,82,01,000,*60
$GPGSA,A,3,02,12,24,25,29,31,,,,,,,2.4,1.3,2.0*3D
$GNGSA,A,3,02,12,24,25,29,31,,,,,,,2.4,1.3,2.0*23
$GNGSA,A,3,,,,,,,,,,,,,2.4,1.3,2.0*2A
$QZGSA,A,3,,,,,,,,,,,,,2.4,1.3,2.0*28
$GPRMC,164155.00,A,3205.525717,N,03449.949928,E,000.0,256.7,120416,,,A*50
$GPGGA,164156.00,3205.524730,N,03449.946764,E,1,06,1.6,34.6,M,19.2,M,,*50
$GPGSV,4,1,14,25,63,345,26,12,61,076,24,29,49,285,25,02,46,051,24*72
$GPGSV,4,2,14,24,29,178,30,31,15,320,24,07,01,000,,19,01,000,*74
$GPGSV,4,3,14,05,19,116,,20,10,163,,21,08,212,,14,07,269,*72
$GPGSV,4,4,14,06,05,038,,32,03,270,*73
$GLGSV,1,1,04,84,01,000,,82,01,000,,73,01,000,,65,01,000,*60
$GPGSA,A,3,02,12,24,25,29,31,,,,,,,2.4,1.3,2.0*3D
$GNGSA,A,3,02,12,24,25,29,31,,,,,,,2.4,1.3,2.0*23
$GNGSA,A,3,,,,,,,,,,,,,2.4,1.3,2.0*2A
$QZGSA,A,3,,,,,,,,,,,,,2.4,1.3,2.0*28
$GPRMC,164156.00,A,3205.524730,N,03449.946764,E,005.1,254.2,120416,,,A*5D
$GPGGA,164157.00,3205.524730,N,03449.946764,E,1,06,1.6,34.6,M,19.2,M,,*51
$GPGSV,4,1,14,25,63,345,26,12,61,076,23,29,49,285,25,02,46,051,23*72
$GPGSV,4,2,14,24,29,178,30,31,15,320,24,07,01,000,,19,01,000,*74
$GPGSV,4,3,14,05,19,116,,20,10,163,,21,08,212,,14,07,269,*72
$GPGSV,4,4,14,06,05,038,,32,03,270,*73
$GLGSV,1,1,04,84,01,000,,82,01,000,,73,01,000,,65,01,000,*60
$GPGSA,A,3,02,12,24,25,29,31,,,,,,,5.3,1.9,5.0*30
$GNGSA,A,3,02,12,24,25,29,31,,,,,,,5.3,1.9,5.0*2E
$GNGSA,A,3,,,,,,,,,,,,,5.3,1.9,5.0*27
$QZGSA,A,3,,,,,,,,,,,,,5.3,1.9,5.0*25
$GPRMC,164157.00,A,3205.524730,N,03449.946764,E,000.0,254.2,120416,,,A*58
$GPGGA,164158.00,3205.524730,N,03449.946764,E,1,06,1.6,34.6,M,19.2,M,,*5E
$GPGSV,4,1,14,25,63,345,26,12,61,076,23,29,49,285,24,02,46,051,23*73
$GPGSV,4,2,14,24,29,178,31,31,15,320,25,07,01,000,,19,01,000,*74
$GPGSV,4,3,14,05,19,116,,20,10,163,,21,08,212,,14,07,269,*72
$GPGSV,4,4,14,06,05,038,,32,03,270,*73
$GLGSV,1,1,04,84,01,000,,82,01,000,,73,01,000,,65,01,000,*60
$GPGSA,A,3,02,12,24,25,29,31,,,,,,,5.3,1.9,5.0*30
$GNGSA,A,3,02,12,24,25,29,31,,,,,,,5.3,1.9,5.0*2E
$GNGSA,A,3,,,,,,,,,,,,,5.3,1.9,5.0*27
$QZGSA,A,3,,,,,,,,,,,,,5.3,1.9,5.0*25
$GPRMC,164158.00,A,3205.524730,N,03449.946764,E,000.0,254.2,120416,,,A*57
$GPGGA,164159.00,3205.524730,N,03449.946764,E,1,06,1.6,34.6,M,19.2,M,,*5F
$GPGSV,4,1,14,25,63,345,26,12,61,076,22,29,49,285,24,02,46,051,22*73
$GPGSV,4,2,14,24,29,178,33,31,15,320,25,07,01,000,,19,01,000,*76
$GPGSV,4,3,14,05,19,116,,20,10,163,,21,08,212,,14,07,269,*72
$GPGSV,4,4,14,06,05,038,,32,03,270,*73
$GLGSV,1,1,04,84,01,000,,82,01,000,,73,01,000,,65,01,000,*60
$GPGSA,A,3,02,12,24,25,29,31,,,,,,,5.3,1.9,5.0*30
$GNGSA,A,3,02,12,24,25,29,31,,,,,,,5.3,1.9,5.0*2E
$GNGSA,A,3,,,,,,,,,,,,,5.3,1.9,5.0*27
$QZGSA,A,3,,,,,,,,,,,,,5.3,1.9,5.0*25
$GPRMC,164159.00,A,3205.524730,N,03449.946764,E,000.0,254.2,120416,,,A*56
$GPGGA,164200.00,3205.524730,N,03449.946764,E,1,05,1.6,34.6,M,19.2,M,,*53
$GPGSV,4,1,14,25,63,345,27,12,61,076,20,29,49,285,23,02,46,051,22*77
$GPGSV,4,2,14,24,29,178,33,31,15,320,25,07,01,000,,19,01,000,*76
$GPGSV,4,3,14,05,19,116,,20,10,163,,21,08,212,,14,07,269,*72
$GPGSV,4,4,14,06,05,038,,32,03,270,*73
$GLGSV,1,1,04,84,01,000,,82,01,000,,73,01,000,,65,01,000,*60
$GPGSA,A,3,02,24,25,29,31,,,,,,,,2.5,1.4,2.1*39
$GNGSA,A,3,02,24,25,29,31,,,,,,,,2.5,1.4,2.1*27
$GNGSA,A,3,,,,,,,,,,,,,2.5,1.4,2.1*2D
$QZGSA,A,3,,,,,,,,,,,,,2.5,1.4,2.1*2F
$GPRMC,164200.00,A,3205.524730,N,03449.946764,E,000.0,254.2,120416,,,A*59
$GPGGA,164201.00,3205.524730,N,03449.946764,E,1,05,1.6,34.7,M,19.2,M,,*53
$GPGSV,4,1,14,25,63,345,28,12,61,076,16,29,49,285,23,02,46,051,22*7D
$GPGSV,4,2,14,24,29,178,35,31,15,320,26,07,01,000,,19,01,000,*73
$GPGSV,4,3,14,05,19,116,,20,10,163,,21,08,212,,14,07,269,*72
$GPGSV,4,4,14,06,05,038,,32,03,270,*73
$GLGSV,1,1,04,84,01,000,,82,01,000,,73,01,000,,65,01,000,*60
$GPGSA,A,3,02,24,25,29,31,,,,,,,,2.5,1.4,2.1*39
$GNGSA,A,3,02,24,25,29,31,,,,,,,,2.5,1.4,2.1*27
$GNGSA,A,3,,,,,,,,,,,,,2.5,1.4,2.1*2D
$QZGSA,A,3,,,,,,,,,,,,,2.5,1.4,2.1*2F
$GPRMC,164201.00,A,3205.524730,N,03449.946764,E,000.0,254.2,120416,,,A*58
$GPGGA,164202.00,3205.524730,N,03449.946764,E,1,05,1.6,34.8,M,19.2,M,,*5F
$GPGSV,4,1,14,25,63,345,28,29,49,286,23,02,46,051,21,24,29,178,35*7A
$GPGSV,4,2,14,31,15,320,28,12,61,076,11,07,01,000,,19,01,000,*7D
$GPGSV,4,3,14,05,19,116,,20,10,163,,21,08,212,,14,07,269,*72
$GPGSV,4,4,14,06,05,038,,32,03,270,*73
$GLGSV,1,1,04,84,01,000,,82,01,000,,73,01,000,,65,01,000,*60
$GPGSA,A,3,02,24,25,29,31,,,,,,,,2.5,1.4,2.1*39
$GNGSA,A,3,02,24,25,29,31,,,,,,,,2.5,1.4,2.1*27
$GNGSA,A,3,,,,,,,,,,,,,2.5,1.4,2.1*2D
$QZGSA,A,3,,,,,,,,,,,,,2.5,1.4,2.1*2F
$GPRMC,164202.00,A,3205.524730,N,03449.946764,E,000.0,254.2,120416,,,A*5B
$GPGGA,164203.00,3205.524730,N,03449.946764,E,1,05,1.6,34.8,M,19.2,M,,*5E
$GPGSV,4,1,14,25,63,345,28,29,49,286,22,02,46,051,21,24,29,178,34*7A
$GPGSV,4,2,14,31,15,320,28,07,01,000,,19,01,000,,12,61,076,*7D
$GPGSV,4,3,14,05,19,116,,20,10,163,,21,08,212,,14,07,269,*72
$GPGSV,4,4,14,06,05,038,,32,03,270,*73
$GLGSV,1,1,04,84,01,000,,82,01,000,,73,01,000,,65,01,000,*60
$GPGSA,A,3,02,24,25,29,31,,,,,,,,2.5,1.4,2.1*39
$GNGSA,A,3,02,24,25,29,31,,,,,,,,2.5,1.4,2.1*27
$GNGSA,A,3,,,,,,,,,,,,,2.5,1.4,2.1*2D
$QZGSA,A,3,,,,,,,,,,,,,2.5,1.4,2.1*2F
$GPRMC,164203.00,A,3205.524730,N,03449.946764,E,000.0,254.2,120416,,,A*5A
$GPGGA,164204.00,3205.524730,N,03449.946764,E,1,05,1.6,34.9,M,19.2,M,,*58
$GPGSV,4,1,14,25,63,345,28,29,49,286,22,02,46,051,21,24,29,178,34*7A
$GPGSV,4,2,14,31,15,320,28,07,01,000,,19,01,000,,12,61,076,*7D
$GPGSV,4,3,14,05,19,116,,20,10,163,,21,08,212,,14,07,269,*72
$GPGSV,4,4,14,06,05,038,,32,03,270,*73
$GLGSV,2,1,05,83,01,000,,82,01,000,,73,01,000,,65,01,000,*65
$GLGSV,2,2,05,84,01,000,*5D
$GPGSA,A,3,02,24,25,29,31,,,,,,,,2.5,1.4,2.1*39
$GNGSA,A,3,02,24,25,29,31,,,,,,,,2.5,1.4,2.1*27
$GNGSA,A,3,,,,,,,,,,,,,2.5,1.4,2.1*2D
$QZGSA,A,3,,,,,,,,,,,,,2.5,1.4,2.1*2F
$GPRMC,164204.00,A,3205.524730,N,03449.946764,E,000.0,254.2,120416,,,A*5D
$GPGGA,164205.00,3205.524730,N,03449.946764,E,1,05,1.6,34.9,M,19.2,M,,*59
$GPGSV,4,1,15,25,63,345,29,29,49,286,22,02,46,051,20,24,29,178,34*7B
$GPGSV,4,2,15,31,15,320,28,07,01,000,,09,01,000,,19,01,000,*71
$GPGSV,4,3,15,12,61,076,,05,19,116,,20,10,163,,21,08,212,*79
$GPGSV,4,4,15,14,07,269,,06,05,038,,32,03,270,*4D
$GLGSV,2,1,05,83,01,000,,73,01,000,,76,01,000,,65,01,000,*6E
$GLGSV,2,2,05,84,01,000,*5D
