@Phoenix-GPSRecorder/v1.0.2/EGM96
$GPGGA,112830,3216.85459,N,3453.77703,E,1,04,1.0,30.261353,M,000.0,M,,*4B
$GPRMC,112830,A,3216.85459,N,3453.77703,E,000.0,000.0,310316,,,A*49
$GPGGA,112846,3216.8737,N,3453.7799,E,1,04,1.0,35.914368,M,000.0,M,,*44
$GPRMC,112846,A,3216.8737,N,3453.7799,E,000.0,000.0,310316,,,A*42
$GPGGA,112902,3216.89086,N,3453.78677,E,1,04,1.0,32.827637,M,000.0,M,,*41
$GPRMC,112902,A,3216.89086,N,3453.78677,E,000.0,000.0,310316,,,A*4E
$GPGGA,112919,3217.01333,N,3453.80919,E,1,04,1.0,39.219177,M,000.0,M,,*48
$GPRMC,112919,A,3217.01333,N,3453.80919,E,000.0,000.0,310316,,,A*48
$GPGGA,112935,3217.03389,N,3453.81202,E,1,04,1.0,39.271057,M,000.0,M,,*48
$GPRMC,112935,A,3217.03389,N,3453.81202,E,000.0,000.0,310316,,,A*45
$GPGGA,112951,3217.09023,N,3453.82126,E,1,04,1.0,37.25415,M,000.0,M,,*7A
$GPRMC,112951,A,3217.09023,N,3453.82126,E,000.0,000.0,310316,,,A*48
$GPGGA,113007,3217.23726,N,3453.84975,E,1,04,1.0,41.990967,M,000.0,M,,*4D
$GPRMC,113007,A,3217.23726,N,3453.84975,E,000.0,000.0,310316,,,A*41
$GPGGA,113023,3217.43601,N,3453.88432,E,1,04,1.0,36.93512,M,000.0,M,,*7F
$GPRMC,113023,A,3217.43601,N,3453.88432,E,000.0,000.0,310316,,,A*47
$GPGGA,113039,3217.58642,N,3453.91918,E,1,04,1.0,36.67572,M,000.0,M,,*79
$GPRMC,113039,A,3217.58642,N,3453.91918,E,000.0,000.0,310316,,,A*4C
$GPGGA,113055,3217.59403,N,3453.91875,E,1,04,1.0,37.276428,M,000.0,M,,*42
$GPRMC,113055,A,3217.59403,N,3453.91875,E,000.0,000.0,310316,,,A*4A
$GPGGA,113111,3217.66379,N,3453.93104,E,1,04,1.0,40.283625,M,000.0,M,,*4D
$GPRMC,113111,A,3217.66379,N,3453.93104,E,000.0,000.0,310316,,,A*40
$GPGGA,113127,3217.82531,N,3453.96117,E,1,04,1.0,49.20077,M,000.0,M,,*7C
$GPRMC,113127,A,3217.82531,N,3453.96117,E,000.0,000.0,310316,,,A*42
$GPGGA,113143,3218.0272,N,3453.99912,E,1,04,1.0,58.572803,M,000.0,M,,*70
$GPRMC,113143,A,3218.0272,N,3453.99912,E,000.0,000.0,310316,,,A*77
$GPGGA,113159,3218.18924,N,3454.03236,E,1,04,1.0,54.587538,M,000.0,M,,*40
$GPRMC,113159,A,3218.18924,N,3454.03236,E,000.0,000.0,310316,,,A*44
$GPGGA,113216,3218.25012,N,3454.04356,E,1,04,1.0,48.639201,M,000.0,M,,*4C
$GPRMC,113216,A,3218.25012,N,3454.04356,E,000.0,000.0,310316,,,A*4E
$GPGGA,113232,3218.31001,N,3454.0551,E,1,04,1.0,44.82147,M,000.0,M,,*43
$GPRMC,113232,A,3218.31001,N,3454.0551,E,000.0,000.0,310316,,,A*7A
$GPGGA,113248,3218.34699,N,3454.06014,E,1,04,1.0,46.687453,M,000.0,M,,*4F
$GPRMC,113248,A,3218.34699,N,3454.06014,E,000.0,000.0,310316,,,A*47
$GPGGA,113304,3218.50605,N,3454.08925,E,1,04,1.0,51.942114,M,000.0,M,,*42
$GPRMC,113304,A,3218.50605,N,3454.08925,E,000.0,000.0,310316,,,A*4C
$GPGGA,113320,3218.72167,N,3454.13021,E,1,04,1.0,54.182965,M,000.0,M,,*4F
$GPRMC,113320,A,3218.72167,N,3454.13021,E,000.0,000.0,310316,,,A*4E
$GPGGA,113337,3218.96728,N,3454.17703,E,1,04,1.0,62.519129,M,000.0,M,,*4E
$GPRMC,113337,A,3218.96728,N,3454.17703,E,000.0,000.0,310316,,,A*4C
$GPGGA,113353,3219.17385,N,3454.21806,E,1,04,1.0,56.143413,M,000.0,M,,*48
$GPRMC,113353,A,3219.17385,N,3454.21806,E,000.0,000.0,310316,,,A*4A
$GPGGA,113410,3219.30811,N,3454.24529,E,1,04,1.0,47.134436,M,000.0,M,,*49
$GPRMC,113410,A,3219.30811,N,3454.24529,E,000.0,000.0,310316,,,A*4C
$GPGGA,113426,3219.32116,N,3454.2487,E,1,04,1.0,44.697861,M,000.0,M,,*72
$GPRMC,113426,A,3219.32116,N,3454.2487,E,000.0,000.0,310316,,,A*74
$GPGGA,113443,3219.35462,N,3454.25609,E,1,04,1.0,44.599527,M,000.0,M,,*43
$GPRMC,113443,A,3219.35462,N,3454.25609,E,000.0,000.0,310316,,,A*47
$GPGGA,113459,3219.39181,N,3454.2788,E,1,04,1.0,40.206014,M,000.0,M,,*71
$GPRMC,113459,A,3219.39181,N,3454.2788,E,000.0,000.0,310316,,,A*75
$GPGGA,113516,3219.37387,N,3454.27518,E,1,04,1.0,41.414983,M,000.0,M,,*4E
$GPRMC,113516,A,3219.37387,N,3454.27518,E,000.0,000.0,310316,,,A*49
$GPGGA,113532,3219.3706,N,3454.27461,E,1,04,1.0,41.366456,M,000.0,M,,*7A
$GPRMC,113532,A,3219.3706,N,3454.27461,E,000.0,000.0,310316,,,A*7A
$GPGGA,113549,3219.33692,N,3454.26215,E,1,04,1.0,44.085355,M,000.0,M,,*42
$GPRMC,113549,A,3219.33692,N,3454.26215,E,000.0,000.0,310316,,,A*4D
$GPGGA,113605,3219.33715,N,3454.25403,E,1,04,1.0,43.706935,M,000.0,M,,*42
$GPRMC,113605,A,3219.33715,N,3454.25403,E,000.0,000.0,310316,,,A*4A
$GPGGA,113622,3219.33886,N,3454.25348,E,1,04,1.0,44.049251,M,000.0,M,,*48
$GPRMC,113622,A,3219.33886,N,3454.25348,E,000.0,000.0,310316,,,A*42
$GPGGA,113638,3219.33886,N,3454.25348,E,1,04,1.0,43.992929,M,000.0,M,,*4F
$GPRMC,113638,A,3219.33886,N,3454.25348,E,000.0,000.0,310316,,,A*49
$GPGGA,113654,3219.35501,N,3454.25239,E,1,04,1.0,43.862273,M,000.0,M,,*4C
$GPRMC,113654,A,3219.35501,N,3454.25239,E,000.0,000.0,310316,,,A*40
$GPGGA,113711,3219.50384,N,3454.27626,E,1,04,1.0,45.790327,M,000.0,M,,*48
$GPRMC,113711,A,3219.50384,N,3454.27626,E,000.0,000.0,310316,,,A*40
$GPGGA,113727,3219.72263,N,3454.3176,E,1,04,1.0,45.611282,M,000.0,M,,*77
$GPRMC,113727,A,3219.72263,N,3454.3176,E,000.0,000.0,310316,,,A*79
$GPGGA,113744,3219.93453,N,3454.35814,E,1,04,1.0,48.771051,M,000.0,M,,*46
$GPRMC,113744,A,3219.93453,N,3454.35814,E,000.0,000.0,310316,,,A*4E
$GPGGA,113800,3220.14048,N,3454.39898,E,1,04,1.0,37.099708,M,000.0,M,,*48
$GPRMC,113800,A,3220.14048,N,3454.39898,E,000.0,000.0,310316,,,A*42
$GPGGA,113817,3220.35441,N,3454.43892,E,1,04,1.0,28.988271,M,000.0,M,,*4B
$GPRMC,113817,A,3220.35441,N,3454.43892,E,000.0,000.0,310316,,,A*4D
$GPGGA,113833,3220.53567,N,3454.46692,E,1,04,1.0,25.742811,M,000.0,M,,*4A
$GPRMC,113833,A,3220.53567,N,3454.46692,E,000.0,000.0,310316,,,A*45
$GPGGA,113850,3220.62626,N,3454.47535,E,1,04,1.0,22.029143,M,000.0,M,,*47
$GPRMC,113850,A,3220.62626,N,3454.47535,E,000.0,000.0,310316,,,A*4B
$GPGGA,113906,3220.72586,N,3454.48941,E,1,04,1.0,19.10901,M,000.0,M,,*71
$GPRMC,113906,A,3220.72586,N,3454.48941,E,000.0,000.0,310316,,,A*41
$GPGGA,113922,3220.72579,N,3454.48871,E,1,04,1.0,17.847131,M,000.0,M,,*4A
$GPRMC,113922,A,3220.72579,N,3454.48871,E,000.0,000.0,310316,,,A*45
$GPGGA,113939,3220.77727,N,3454.49227,E,1,04,1.0,19.985239,M,000.0,M,,*4E
$GPRMC,113939,A,3220.77727,N,3454.49227,E,000.0,000.0,310316,,,A*4B
$GPGGA,113955,3220.94028,N,3454.49743,E,1,04,1.0,25.402717,M,000.0,M,,*42
$GPRMC,113955,A,3220.94028,N,3454.49743,E,000.0,000.0,310316,,,A*43
$GPGGA,114012,3221.1644,N,3454.49438,E,1,04,1.0,23.90013,M,000.0,M,,*4B
$GPRMC,114012,A,3221.1644,N,3454.49438,E,000.0,000.0,310316,,,A*70
$GPGGA,114028,3221.27763,N,3454.49705,E,1,04,1.0,17.071568,M,000.0,M,,*4E
$GPRMC,114028,A,3221.27763,N,3454.49705,E,000.0,000.0,310316,,,A*44
$GPGGA,114044,3221.28148,N,3454.49701,E,1,04,1.0,13.363163,M,000.0,M,,*4B
$GPRMC,114044,A,3221.28148,N,3454.49701,E,000.0,000.0,310316,,,A*4A
$GPGGA,114101,3221.3717,N,3454.50645,E,1,04,1.0,15.926455,M,000.0,M,,*7A
$GPRMC,114101,A,3221.3717,N,3454.50645,E,000.0,000.0,310316,,,A*76
$GPGGA,114117,3221.42094,N,3454.51076,E,1,04,1.0,14.063348,M,000.0,M,,*41
$GPRMC,114117,A,3221.42094,N,3454.51076,E,000.0,000.0,310316,,,A*4F
$GPGGA,114133,3221.47843,N,3454.52219,E,1,04,1.0,14.372088,M,000.0,M,,*44
$GPRMC,114133,A,3221.47843,N,3454.52219,E,000.0,000.0,310316,,,A*46
$GPGGA,114149,3221.61332,N,3454.54615,E,1,04,1.0,15.480742,M,000.0,M,,*44
$GPRMC,114149,A,3221.61332,N,3454.54615,E,000.0,000.0,310316,,,A*4C
$GPGGA,114205,3221.77064,N,3454.56875,E,1,04,1.0,15.999057,M,000.0,M,,*44
$GPRMC,114205,A,3221.77064,N,3454.56875,E,000.0,000.0,310316,,,A*4A