$PGLOR,0,RID,BCD,3,19,204,208124*40
$GPGGA,190806.35,,,,,0,00,333.9,,M,,M,,*6C
$PGLOR,1,STA,190806.35,0.000,0.000,-345,301,3339,0,P,F,L,1,C,0,S,0000,0,2,R,33F4*4D
$PGLOR,1,SAT*31
$PGLOR,1,SIO,TxERR,0,RxERR,0,TxCNT,0,RxCNT,0,DTMS,1102,DTIN,1,1,DTOUT,201,1066,HATMD,0*31
$PGLOR,0,HLA,190806.35,L,,Al,,A,,H,,,M,,Ac,0,Gr,0,S,,,Sx,,,T,0,Tr,,Mn,0*06
$PGLOR,1,PWR,AvgP,0.000000,RFTm,0,RunT,0,OscTm,0,SlpTm,0,MeasTm,0*2F
$PGLOR,0,PPS,040416,190806.354,,,000.000,0,0,0,*0A
$GPGSV,3,1,10,25,60,144,,29,58,018,,21,53,244,,20,49,122,*7C
$GPGSV,3,2,10,31,31,272,,05,28,060,,12,23,139,,26,19,318,*78
$GPGSV,3,3,10,18,18,182,,02,04,049,*78
$GPGSA,A,1,,,,,,,,,,,,,140.0,99.0,99.0*35
$GNGSA,A,1,,,,,,,,,,,,,140.0,99.0,99.0*2B
$GNGSA,A,1,,,,,,,,,,,,,140.0,99.0,99.0*2B
$QZGSA,A,1,,,,,,,,,,,,,140.0,99.0,99.0*29
$GPRMC,190806.35,V,,,,,,,040416,,,N*7A
$GPGGA,190807.25,,,,,0,00,333.9,,M,,M,,*6C
$PGLOR,1,STA,190807.25,0.000,0.000,-345,301,3339,0,P,F,L,1,C,0,S,0000,0,2,R,33F4*4D
$PGLOR,1,SAT*31
$PGLOR,1,SIO,TxERR,0,RxERR,0,TxCNT,2428,RxCNT,984,DTMS,871,DTIN,0,0,DTOUT,269,1713,HATMD,-28*28
$PGLOR,0,HLA,190807.25,L,,Al,,A,,H,,,M,0,Ac,0,Gr,0,S,,,Sx,,,T,0,Tr,,Mn,0*36
$PGLOR,1,PWR,AvgP,105.320007,RFTm,1000,RunT,1000,OscTm,1000,SlpTm,0,MeasTm,1000*2D
$PGLOR,0,PPS,040416,190807.254,,,000.000,0,0,0,*0A
$GPGSV,4,1,14,07,01,000,,17,01,000,,24,01,000,,30,01,000,*7D
$GPGSV,4,2,14,25,60,144,,29,58,018,,21,53,244,,20,49,122,*7C
$GPGSV,4,3,14,31,31,272,,05,28,060,,12,23,139,,26,19,318,*7A
$GPGSV,4,4,14,18,18,182,,02,04,049,*7C
$GLGSV,1,1,02,66,01,000,,74,01,000,*64
$GPGSA,A,1,,,,,,,,,,,,,140.0,99.0,99.0*35
$GNGSA,A,1,,,,,,,,,,,,,140.0,99.0,99.0*2B
$GNGSA,A,1,,,,,,,,,,,,,140.0,99.0,99.0*2B
$QZGSA,A,1,,,,,,,,,,,,,140.0,99.0,99.0*29
$GPRMC,190807.25,V,,,,,,,040416,,,N*7A
$GPGGA,190808.25,,,,,0,00,333.9,,M,,M,,*63
$PGLOR,1,STA,190808.25,0.000,0.000,-345,301,3339,0,P,F,L,1,C,0,S,0000,0,2,R,33F4*42
$PGLOR,1,SAT,G25,030,11,G29,037,11*3A
$PGLOR,1,SIO,TxERR,0,RxERR,0,TxCNT,320,RxCNT,2440,DTMS,1000,DTIN,1,4,DTOUT,250,991,HATMD,-10*2C
$PGLOR,0,HLA,190808.25,L,,Al,,A,,H,,,M,0,Ac,0,Gr,0,S,,,Sx,,,T,0,Tr,,Mn,0*39
$PGLOR,1,PWR,AvgP,105.320007,RFTm,1000,RunT,1000,OscTm,1000,SlpTm,0,MeasTm,1000*2D
$PGLOR,0,PPS,040416,190808.254,,,000.000,0,0,0,*05
$GPGSV,4,1,14,25,60,144,30,29,58,018,37,07,01,000,,17,01,000,*70
$GPGSV,4,2,14,24,01,000,,30,01,000,,21,53,244,,20,49,122,*76
$GPGSV,4,3,14,31,31,272,,05,28,060,,12,23,139,,26,19,318,*7A
$GPGSV,4,4,14,18,18,182,,02,04,049,*7C
$GLGSV,1,1,02,66,01,000,,74,01,000,*64
$GPGSA,A,1,,,,,,,,,,,,,140.0,99.0,99.0*35
$GNGSA,A,1,,,,,,,,,,,,,140.0,99.0,99.0*2B
$GNGSA,A,1,,,,,,,,,,,,,140.0,99.0,99.0*2B
$QZGSA,A,1,,,,,,,,,,,,,140.0,99.0,99.0*29
$GPRMC,190808.25,V,,,,,,,040416,,,N*75
$GPGGA,190809.25,,,,,0,00,333.9,,M,,M,,*62
$PGLOR,1,STA,190809.25,0.000,0.000,-345,301,3339,0,P,F,L,1,C,0,S,0000,0,2,R,33F4*43
$PGLOR,1,SAT,G25,028,11,G29,032,13*34
$PGLOR,1,SIO,TxERR,0,RxERR,0,TxCNT,296,RxCNT,1784,DTMS,983,DTIN,4,5,DTOUT,199,953,HATMD,-26*12
$PGLOR,0,HLA,190809.25,L,,Al,,A,,H,,,M,0,Ac,0,Gr,0,S,,,Sx,,,T,0,Tr,,Mn,0*38
$PGLOR,1,PWR,AvgP,105.320007,RFTm,1000,RunT,1000,OscTm,1000,SlpTm,0,MeasTm,1000*2D
$PGLOR,0,PPS,040416,190809.254,,,000.000,0,0,0,*04
$GPGSV,4,1,14,25,60,144,29,29,58,018,36,07,01,000,,17,01,000,*79
$GPGSV,4,2,14,24,01,000,,30,01,000,,21,53,244,,20,49,122,*76
$GPGSV,4,3,14,31,31,272,,05,28,060,,12,23,139,,26,19,318,*7A
$GPGSV,4,4,14,18,18,182,,02,04,049,*7C
$GLGSV,1,1,02,66,01,000,,74,01,000,*64
$GPGSA,A,1,,,,,,,,,,,,,140.0,99.0,99.0*35
$GNGSA,A,1,,,,,,,,,,,,,140.0,99.0,99.0*2B
$GNGSA,A,1,,,,,,,,,,,,,140.0,99.0,99.0*2B
$QZGSA,A,1,,,,,,,,,,,,,140.0,99.0,99.0*29
$GPRMC,190809.25,V,,,,,,,040416,,,N*74
$GPGGA,190810.22,,,,,0,06,12.8,,M,,M,,*5A
$PGLOR,1,STA,190810.22,0.030,0.056,-345,301,128,0,P,F,L,1,C,1,S,0002,0,2,R,33F4*7E
$PGLOR,1,SAT,G25,030,11,G29,042,13,G20,033,11,G05,030,11,G12,028,11,G18,025,11*39
$PGLOR,1,SIO,TxERR,0,RxERR,0,TxCNT,992,RxCNT,2816,DTMS,1023,DTIN,6,11,DTOUT,183,885,HATMD,-3*29
$PGLOR,0,HLA,190810.22,L,,Al,,A,,H,,,M,0,Ac,0,Gr,0,S,,,Sx,,,T,0,Tr,,Mn,0*37
$PGLOR,1,PWR,AvgP,105.320007,RFTm,1000,RunT,1000,OscTm,1000,SlpTm,0,MeasTm,1000*2D
$PGLOR,0,PPS,040416,190810.223,,,000.000,0,0,0,*0C
$GPGSV,4,1,14,25,60,144,30,29,58,018,42,20,49,122,33,05,28,060,30*77
$GPGSV,4,2,14,12,23,139,28,18,18,182,25,07,01,000,,17,01,000,*74
$GPGSV,4,3,14,24,01,000,,30,01,000,,21,53,244,,31,31,272,*7E
$GPGSV,4,4,14,26,19,318,,02,04,049,*71
$GLGSV,1,1,02,66,01,000,,74,01,000,*64
$GPGSA,A,1,,,,,,,,,,,,,3.1,2.2,2.2*32
$GNGSA,A,1,,,,,,,,,,,,,3.1,2.2,2.2*2C
$GNGSA,A,1,,,,,,,,,,,,,3.1,2.2,2.2*2C
$QZGSA,A,1,,,,,,,,,,,,,3.1,2.2,2.2*2E
$GPRMC,190810.22,V,,,,,,,040416,,,N*7B
$GPGGA,190811.22,,,,,0,00,12.8,,M,,M,,*5D
$PGLOR,1,STA,190811.22,0.030,0.056,-345,301,128,0,P,F,L,1,C,1,S,0000,0,2,R,33F4*7D
$PGLOR,1,SAT,G25,033,13,G20,035,13,G05,033,13,G12,030,13,G18,026,13*63
$PGLOR,1,SIO,TxERR,0,RxERR,0,TxCNT,1448,RxCNT,2176,DTMS,975,DTIN,1,9,DTOUT,183,841,HATMD,-27*26
$PGLOR,0,HLA,190811.22,L,,Al,,A,586,H,,,M,0,Ac,0,Gr,0,S,,,Sx,,,T,0,Tr,,Mn,0*0D
$PGLOR,1,PWR,AvgP,105.320007,RFTm,1000,RunT,1000,OscTm,1000,SlpTm,0,MeasTm,1000*2D
$PGLOR,0,PPS,040416,190811.223,,,000.000,0,0,0,*0D
$GPGSV,5,1,17,25,59,144,33,29,58,018,38,20,49,122,35,05,28,060,33*74
$GPGSV,5,2,17,12,23,139,30,18,18,182,26,24,01,000,,06,01,000,*7D
$GPGSV,5,3,17,07,01,000,,15,01,000,,16,01,000,,17,01,000,*7B
$GPGSV,5,4,17,30,01,000,,21,53,244,,31,31,272,,26,19,318,*7A
$GPGSV,5,5,17,02,04,049,*44
$GLGSV,2,1,07,65,01,000,,82,01,000,,73,01,000,,76,01,000,*6D
$GLGSV,2,2,07,75,01,000,,74,01,000,,66,01,000,*52
$GPGSA,A,1,,,,,,,,,,,,,3.1,2.2,2.2*32
$GNGSA,A,1,,,,,,,,,,,,,3.1,2.2,2.2*2C
$GNGSA,A,1,,,,,,,,,,,,,3.1,2.2,2.2*2C
$QZGSA,A,1,,,,,,,,,,,,,3.1,2.2,2.2*2E
$GPRMC,190811.22,V,,,,,,,040416,,,N*7A
$GPGGA,190812.22,3206.282598,N,03510.545581,E,1,08,3.2,553.3,M,19.0,M,,*6A
$PGLOR,1,STA,190812.22,0.038,0.008,-345,301,32,0,P,F,L,0,C,2,S,0012,0,2,R,33F4*46
$PGLOR,1,SAT,G25,028,17,G29,036,17,G21,020,11,G20,033,17,G05,030,17,G12,025,17,G26,018,11,G18,027,17*32
$PGLOR,1,SIO,TxERR,0,RxERR,0,TxCNT,500,RxCNT,1904,DTMS,1000,DTIN,1,4,DTOUT,211,990,HATMD,-19*2B
$PGLOR,0,HLA,190812.22,L,,Al,,A,583,H,,,M,0,Ac,0,Gr,0,S,,,Sx,,,T,0,Tr,,Mn,0*0B
$PGLOR,1,PWR,AvgP,105.320007,RFTm,1000,RunT,1000,OscTm,1000,SlpTm,0,MeasTm,1000*2D
$PGLOR,0,PPS,040416,190812.215,,,000.000,0,0,0,*0B
$GPGSV,4,1,13,25,59,144,32,29,58,018,38,21,53,244,20,20,49,122,34*7D
$GPGSV,4,2,13,05,28,060,33,12,23,139,29,26,19,318,18,18,18,182,27*77
$GPGSV,4,3,13,06,01,000,,15,01,000,,16,01,000,,31,31,272,*7F
$GPGSV,4,4,13,02,04,049,*40
$GLGSV,2,1,05,65,01,000,,76,01,000,,75,01,000,,82,01,000,*69
$GLGSV,2,2,05,73,01,000,*55
$GPGSA,A,3,05,12,18,20,21,25,26,29,,,,,3.1,2.2,2.1*35
$GNGSA,A,3,05,12,18,20,21,25,26,29,,,,,3.1,2.2,2.1*2B
$GNGSA,A,3,,,,,,,,,,,,,3.1,2.2,2.1*2D
$QZGSA,A,3,,,,,,,,,,,,,3.1,2.2,2.1*2F
$PGLOR,1,FIX,7.0,6.0*21
$GPRMC,190812.22,A,3206.282598,N,03510.545581,E,000.0,,040416,,,A*70
$GPGGA,190813.22,3206.282598,N,03510.545581,E,1,06,3.2,564.0,M,19.0,M,,*62
$PGLOR,1,STA,190813.22,0.037,0.005,-345,301,32,0,P,F,L,0,C,2,S,0012,0,2,R,33F4*45
$PGLOR,1,SAT,G25,029,17,G29,037,17,G20,034,17,G05,032,17,G12,028,17,G18,030,17*30
$PGLOR,1,SIO,TxERR,0,RxERR,0,TxCNT,236,RxCNT,1608,DTMS,991,DTIN,1,2,DTOUT,287,936,HATMD,-21*14
$PGLOR,0,HLA,190813.22,L,,Al,,A,583,H,,,M,0,Ac,0,Gr,0,S,,,Sx,,,T,0,Tr,,Mn,0*0A
$PGLOR,1,PWR,AvgP,105.320007,RFTm,1000,RunT,1000,OscTm,1000,SlpTm,0,MeasTm,1000*2D
$PGLOR,0,PPS,040416,190813.216,,,000.000,0,0,0,*09
$GPGSV,4,1,13,25,59,144,32,29,58,018,38,21,53,244,18,20,49,122,34*76
$GPGSV,4,2,13,05,28,060,33,12,23,139,29,26,19,318,16,18,18,182,30*7F
$GPGSV,4,3,13,06,01,000,,15,01,000,,16,01,000,,31,31,272,*7F
$GPGSV,4,4,13,02,04,049,*40
$GLGSV,2,1,05,65,01,000,,76,01,000,,75,01,000,,82,01,000,*69
$GLGSV,2,2,05,73,01,000,*55
$GPGSA,A,3,05,12,18,20,25,29,,,,,,,3.1,2.2,2.1*32
$GNGSA,A,3,05,12,18,20,25,29,,,,,,,3.1,2.2,2.1*2C
$GNGSA,A,3,,,,,,,,,,,,,3.1,2.2,2.1*2D
$QZGSA,A,3,,,,,,,,,,,,,3.1,2.2,2.1*2F
$PGLOR,1,FIX,1.0,1.0*20
$GPRMC,190813.22,A,3206.282598,N,03510.545581,E,000.0,,040416,,,A*71
$GPGGA,190814.22,3206.282598,N,03510.545581,E,1,09,3.2,566.3,M,19.0,M,,*6B
$PGLOR,1,STA,190814.22,0.037,0.004,-345,301,32,0,P,F,L,0,C,2,S,0012,0,2,R,33F4*43
$PGLOR,1,SAT,G25,025,17,G29,037,17,G21,026,17,G20,034,17,G31,016,11,G05,031,17,G12,029,17,G26,018,17,G18,032,17*68
$PGLOR,1,SIO,TxERR,0,RxERR,0,TxCNT,340,RxCNT,1600,DTMS,993,DTIN,1,3,DTOUT,287,928,HATMD,-18*1A
$PGLOR,0,HLA,190814.22,L,,Al,,A,583,H,,,M,0,Ac,0,Gr,0,S,,,Sx,,,T,0,Tr,,Mn,0*0D
$PGLOR,1,PWR,AvgP,105.320007,RFTm,1000,RunT,1000,OscTm,1000,SlpTm,0,MeasTm,1000*2D
$PGLOR,0,PPS,040416,190814.216,,,000.000,0,0,0,*0E
$GPGSV,4,1,13,25,59,144,31,29,58,018,38,21,53,244,26,20,49,122,34*78
$GPGSV,4,2,13,31,31,272,16,05,28,060,32,12,23,139,29,26,19,318,18*78
$GPGSV,4,3,13,18,18,182,32,06,01,000,,15,01,000,,16,01,000,*72
$GPGSV,4,4,13,02,04,049,*40
$GLGSV,2,1,05,65,01,000,,82,01,000,,73,01,000,,76,01,000,*6F
$GLGSV,2,2,05,75,01,000,*53
$GPGSA,A,3,05,12,18,20,21,25,26,29,31,,,,2.0,1.2,1.6*30
$GNGSA,A,3,05,12,18,20,21,25,26,29,31,,,,2.0,1.2,1.6*2E
$GNGSA,A,3,,,,,,,,,,,,,2.0,1.2,1.6*2A
$QZGSA,A,3,,,,,,,,,,,,,2.0,1.2,1.6*28
$PGLOR,1,FIX,1.0,1.0*20
$GPRMC,190814.22,A,3206.282598,N,03510.545581,E,000.0,,040416,,,A*76
$GPGGA,190815.22,3206.282598,N,03510.545581,E,1,09,3.2,564.3,M,19.0,M,,*68
$PGLOR,1,STA,190815.22,0.036,0.003,-345,301,32,0,P,F,L,0,C,2,S,0012,0,2,R,33F4*44
$PGLOR,1,SAT,G25,031,17,G29,035,17,G21,027,17,G20,032,17,G31,025,17,G05,027,17,G12,032,17,G26,021,17,G18,031,17*6A
$PGLOR,1,SIO,TxERR,0,RxERR,0,TxCNT,228,RxCNT,1584,DTMS,990,DTIN,1,1,DTOUT,284,934,HATMD,-23*1D
$PGLOR,0,HLA,190815.22,L,,Al,,A,583,H,,,M,0,Ac,0,Gr,0,S,,,Sx,,,T,0,Tr,,Mn,0*0C
$PGLOR,1,PWR,AvgP,105.320007,RFTm,1000,RunT,1000,OscTm,1000,SlpTm,0,MeasTm,1000*2D
$PGLOR,0,PPS,040416,190815.217,,,000.000,0,0,0,*0E
$GPGSV,4,1,13,25,59,144,31,29,58,018,37,21,53,244,27,20,49,122,34*76
$GPGSV,4,2,13,31,31,272,25,05,28,060,32,12,23,139,32,26,19,318,21*78
$GPGSV,4,3,13,18,18,182,32,06,01,000,,15,01,000,,16,01,000,*72
$GPGSV,4,4,13,02,04,049,*40
$GLGSV,2,1,05,65,01,000,,82,01,000,,73,01,000,,76,01,000,*6F
$GLGSV,2,2,05,75,01,000,*53
$GPGSA,A,3,05,12,18,20,21,25,26,29,31,,,,1.8,0.9,1.6*31
$GNGSA,A,3,05,12,18,20,21,25,26,29,31,,,,1.8,0.9,1.6*2F
$GNGSA,A,3,,,,,,,,,,,,,1.8,0.9,1.6*2B
$QZGSA,A,3,,,,,,,,,,,,,1.8,0.9,1.6*29
$PGLOR,1,FIX,1.0,1.0*20
$GPRMC,190815.22,A,3206.282598,N,03510.545581,E,000.0,,040416,,,A*77
$GPGGA,190816.22,3206.282598,N,03510.545581,E,1,09,1.6,562.2,M,19.0,M,,*6A
$PGLOR,1,STA,190816.22,0.036,0.003,-345,301,16,0,P,F,L,0,C,2,S,0012,0,2,R,33F4*41
$PGLOR,1,SAT,G25,033,17,G29,039,17,G21,031,17,G20,029,17,G31,025,17,G05,033,17,G12,029,17,G26,028,17,G18,027,17*68
$PGLOR,1,SIO,TxERR,0,RxERR,0,TxCNT,424,RxCNT,1928,DTMS,995,DTIN,3,11,DTOUT,239,970,HATMD,-17*2A
$PGLOR,0,HLA,190816.22,L,,Al,,A,583,H,,,M,0,Ac,0,Gr,0,S,,,Sx,,,T,0,Tr,,Mn,0*0F
$PGLOR,1,PWR,AvgP,105.320007,RFTm,1000,RunT,1000,OscTm,1000,SlpTm,0,MeasTm,1000*2D
$PGLOR,0,PPS,040416,190816.217,,,000.000,0,0,0,*0D
$GPGSV,5,1,17,25,59,144,33,29,58,018,39,21,53,244,31,20,49,122,34*78
$GPGSV,5,2,17,31,31,272,25,05,28,060,33,12,23,139,31,26,19,318,28*76
$GPGSV,5,3,17,18,18,182,31,03,01,000,,06,01,000,,08,01,000,*7C
$GPGSV,5,4,17,13,01,000,,15,01,000,,16,01,000,,19,01,000,*77
$GPGSV,5,5,17,02,04,049,*44
$GLGSV,3,1,09,73,01,000,,76,01,000,,75,01,000,,65,01,000,*6A
$GLGSV,3,2,09,84,01,000,,83,01,000,,81,01,000,,67,01,000,*62
$GLGSV,3,3,09,82,01,000,*57
$GPGSA,A,3,05,12,18,20,21,25,26,29,31,,,,1.8,0.9,1.6*31
$GNGSA,A,3,05,12,18,20,21,25,26,29,31,,,,1.8,0.9,1.6*2F
$GNGSA,A,3,,,,,,,,,,,,,1.8,0.9,1.6*2B
$QZGSA,A,3,,,,,,,,,,,,,1.8,0.9,1.6*29
$PGLOR,1,FIX,1.0,1.0*20
$GPRMC,190816.22,A,3206.282598,N,03510.545581,E,000.0,,040416,,,A*74
$GPGGA,190817.22,3206.281551,N,03510.555254,E,1,09,0.8,562.1,M,19.0,M,,*6F
$PGLOR,1,STA,190817.22,0.035,0.000,-345,301,8,0,P,F,L,0,C,3,S,0012,15,2,R,33F4*4A
$PGLOR,1,SAT,G25,034,17,G29,033,17,G21,031,17,G20,032,17,G31,022,17,G05,024,17,G12,032,17,G26,023,17,G18,027,17*6F
$PGLOR,1,SIO,TxERR,0,RxERR,0,TxCNT,244,RxCNT,1592,DTMS,989,DTIN,1,3,DTOUT,278,945,HATMD,-18*17
$PGLOR,0,HLA,190817.22,L,,Al,,A,583,H,,,M,0,Ac,0,Gr,0,S,,,Sx,,,T,0,Tr,,Mn,0*0E
$PGLOR,1,PWR,AvgP,105.320007,RFTm,1000,RunT,1000,OscTm,1000,SlpTm,0,MeasTm,1000*2D
$PGLOR,0,PPS,040416,190817.218,,,000.000,0,0,0,*03
$GPGSV,4,1,14,25,59,144,34,29,58,018,39,21,53,244,31,20,49,122,33*7A
$GPGSV,4,2,14,31,31,272,25,05,28,060,32,12,23,139,32,26,19,318,27*79
$GPGSV,4,3,14,18,18,182,31,03,01,000,,08,01,000,,13,01,000,*7A
$GPGSV,4,4,14,19,01,000,,02,04,049,*7E
$GLGSV,1,1,04,67,01,000,,84,01,000,,83,01,000,,81,01,000,*6E
$GPGSA,A,3,05,12,18,20,21,25,26,29,31,,,,1.8,0.9,1.6*31
$GNGSA,A,3,05,12,18,20,21,25,26,29,31,,,,1.8,0.9,1.6*2F
$GNGSA,A,3,,,,,,,,,,,,,1.8,0.9,1.6*2B
$QZGSA,A,3,,,,,,,,,,,,,1.8,0.9,1.6*29
$PGLOR,1,FIX,1.0,1.0*20
$GPRMC,190817.22,A,3206.281551,N,03510.555254,E,000.0,,040416,,,A*7D
$GPGGA,190818.00,3206.281551,N,03510.555254,E,1,09,0.8,567.3,M,19.0,M,,*67
$PGLOR,1,STA,190818.00,0.035,0.000,-345,301,8,0,P,F,L,0,C,3,S,0012,15,2,R,33F4*45
$PGLOR,1,SAT,G25,031,17,G29,029,17,G21,030,17,G20,034,17,G31,022,17,G05,026,17,G12,034,17,G26,023,17,G18,022,17*67
$PGLOR,1,SIO,TxERR,0,RxERR,0,TxCNT,296,RxCNT,1600,DTMS,990,DTIN,1,2,DTOUT,279,934,HATMD,196*04
$PGLOR,0,HLA,190818.00,L,,Al,,A,583,H,,,M,0,Ac,0,Gr,0,S,,,Sx,,,T,0,Tr,,Mn,0*01
$PGLOR,1,PWR,AvgP,105.320007,RFTm,1000,RunT,1000,OscTm,1000,SlpTm,0,MeasTm,1000*2D
$PGLOR,0,PPS,040416,190817.999,,,000.000,0,0,0,*01
$GPGSV,4,1,14,25,59,144,34,29,58,018,38,21,53,244,31,20,49,122,34*7C
$GPGSV,4,2,14,31,31,272,25,05,28,060,31,12,23,139,34,26,19,318,27*7C
$GPGSV,4,3,14,18,18,182,30,03,01,000,,08,01,000,,13,01,000,*7B
$GPGSV,4,4,14,19,01,000,,02,04,049,*7E
$GLGSV,1,1,04,67,01,000,,84,01,000,,83,01,000,,81,01,000,*6E
$GPGSA,A,3,05,12,18,20,21,25,26,29,31,,,,1.8,0.9,1.6*31
$GNGSA,A,3,05,12,18,20,21,25,26,29,31,,,,1.8,0.9,1.6*2F
$GNGSA,A,3,,,,,,,,,,,,,1.8,0.9,1.6*2B
$QZGSA,A,3,,,,,,,,,,,,,1.8,0.9,1.6*29
$PGLOR,1,FIX,0.8,0.8*20
$GPRMC,190818.00,A,3206.281551,N,03510.555254,E,000.0,,040416,,,A*72
$GPGGA,190819.00,3206.281551,N,03510.555254,E,1,09,0.8,562.6,M,19.0,M,,*66
$PGLOR,1,STA,190819.00,0.035,0.000,-345,301,8,0,P,F,L,0,C,3,S,0012,15,2,R,33F4*44
$PGLOR,1,SAT,G25,035,17,G29,034,17,G21,033,17,G20,031,17,G31,025,17,G05,026,17,G12,034,17,G26,022,17,G18,022,13*6B
$PGLOR,1,SIO,TxERR,0,RxERR,0,TxCNT,256,RxCNT,1592,DTMS,995,DTIN,1,4,DTOUT,282,936,HATMD,196*05
$PGLOR,0,HLA,190819.00,L,,Al,,A,584,H,,,M,0,Ac,0,Gr,0,S,,,Sx,,,T,0,Tr,,Mn,0*07
$PGLOR,1,PWR,AvgP,105.320007,RFTm,1000,RunT,1000,OscTm,1000,SlpTm,0,MeasTm,1000*2D
$PGLOR,0,PPS,040416,190818.999,,,000.000,0,0,0,*0E
$GPGSV,4,1,14,25,59,144,35,29,58,018,37,21,53,244,33,20,49,122,33*77
$GPGSV,4,2,14,31,31,272,25,05,28,060,31,12,23,139,34,26,19,318,27*7C
$GPGSV,4,3,14,18,18,182,29,03,01,000,,08,01,000,,13,01,000,*73
$GPGSV,4,4,14,19,01,000,,02,04,049,*7E
$GLGSV,1,1,04,67,01,000,,84,01,000,,83,01,000,,81,01,000,*6E
$GPGSA,A,3,05,12,18,20,21,25,26,29,31,,,,2.1,1.0,1.8*3D
$GNGSA,A,3,05,12,18,20,21,25,26,29,31,,,,2.1,1.0,1.8*23
$GNGSA,A,3,,,,,,,,,,,,,2.1,1.0,1.8*27
$QZGSA,A,3,,,,,,,,,,,,,2.1,1.0,1.8*25
$PGLOR,1,FIX,1.0,1.0*20
$GPRMC,190819.00,A,3206.281551,N,03510.555254,E,000.0,,040416,,,A*73
$GPGGA,190820.00,3206.281551,N,03510.555254,E,1,09,0.8,560.3,M,19.0,M,,*6B
$PGLOR,1,STA,190820.00,0.035,0.000,-345,301,8,0,P,F,L,0,C,3,S,0012,15,2,R,33F4*4E
$PGLOR,1,SAT,G25,035,17,G29,034,17,G21,033,17,G20,031,17,G31,025,17,G05,026,17,G12,034,17,G26,022,17,G18,022,13*6B
$PGLOR,1,SIO,TxERR,0,RxERR,0,TxCNT,80,RxCNT,712,DTMS,771,DTIN,1,2,DTOUT,268,632,HATMD,-28*13
$PGLOR,0,HLA,190820.00,L,,Al,,A,584,H,,,M,0,Ac,0,Gr,0,S,,,Sx,,,T,0,Tr,,Mn,0*0D
$PGLOR,1,PWR,AvgP,105.320007,RFTm,1000,RunT,1000,OscTm,1000,SlpTm,0,MeasTm,1000*2D
$PGLOR,0,PPS,040416,190819.999,,,000.000,0,0,0,*0F
$GPGSV,4,1,14,25,59,144,35,29,58,018,37,21,53,244,33,20,49,122,33*77
$GPGSV,4,2,14,31,31,272,25,05,28,060,30,12,23,139,34,26,19,318,26*7C
$GPGSV,4,3,14,18,18,182,29,03,01,000,,08,01,000,,13,01,000,*73
$GPGSV,4,4,14,19,01,000,,02,04,049,*7E
$GLGSV,1,1,04,67,01,000,,84,01,000,,83,01,000,,81,01,000,*6E
$GPGSA,A,3,05,12,18,20,21,25,26,29,31,,,,2.1,1.0,1.8*3D
$GNGSA,A,3,05,12,18,20,21,25,26,29,31,,,,2.1,1.0,1.8*23
$GNGSA,A,3,,,,,,,,,,,,,2.1,1.0,1.8*27
$QZGSA,A,3,,,,,,,,,,,,,2.1,1.0,1.8*25
$PGLOR,1,FIX,1.0,1.0*20
$GPRMC,190820.00,A,3206.281551,N,03510.555254,E,000.0,,040416,,,A*79
$GPGGA,190821.00,3206.284290,N,03510.559629,E,1,09,0.6,562.7,M,19.0,M,,*6F
$PGLOR,1,STA,190821.00,0.035,0.000,-260,1,6,1,P,F,L,0,C,3,S,0012,23,2,R,33F4*40
$PGLOR,1,SAT,G25,033,1F,G29,036,17,G21,033,1F,G20,032,1F,G31,020,1F,G05,025,17,G12,031,1F,G26,021,1F,G18,022,1F*19
$PGLOR,1,SIO,TxERR,0,RxERR,0,TxCNT,508,RxCNT,1792,DTMS,995,DTIN,1,4,DTOUT,293,824,HATMD,-8*22
$PGLOR,0,HLA,190821.00,L,,Al,,A,584,H,,,M,0,Ac,0,Gr,0,S,,,Sx,,,T,0,Tr,,Mn,0*0C
$PGLOR,1,PWR,AvgP,105.320007,RFTm,1000,RunT,1000,OscTm,1000,SlpTm,0,MeasTm,1000*2D
$PGLOR,0,PPS,040416,190820.999,,,000.000,0,0,0,*05
$GPGSV,6,1,21,25,59,144,35,29,58,018,37,21,53,244,33,20,49,122,33*73
$GPGSV,6,2,21,31,31,272,24,05,28,060,30,12,23,139,34,26,19,318,26*79
$GPGSV,6,3,21,18,18,182,28,22,01,000,,27,01,000,,28,01,000,*70
$GPGSV,6,4,21,01,01,000,,03,01,000,,08,01,000,,10,01,000,*73
$GPGSV,6,5,21,11,01,000,,13,01,000,,14,01,000,,19,01,000,*76
$GPGSV,6,6,21,02,04,049,*41
$GLGSV,2,1,05,84,01,000,,83,01,000,,81,01,000,,67,01,000,*6C
$GLGSV,2,2,05,68,01,000,*5F
$GPGSA,A,3,05,12,18,20,21,25,26,29,31,,,,1.8,0.9,1.5*32
$GNGSA,A,3,05,12,18,20,21,25,26,29,31,,,,1.8,0.9,1.5*2C
$GNGSA,A,3,,,,,,,,,,,,,1.8,0.9,1.5*28
$QZGSA,A,3,,,,,,,,,,,,,1.8,0.9,1.5*2A
$PGLOR,1,FIX,1.0,1.0*20
$GPRMC,190821.00,A,3206.284290,N,03510.559629,E,003.4,,040416,,,A*72
$GPGGA,190822.00,3206.285224,N,03510.560854,E,1,09,0.8,563.2,M,19.0,M,,*66
$PGLOR,1,STA,190822.00,0.035,0.000,-261,1,8,1,P,F,L,0,C,3,S,0012,26,2,R,33F4*49
$PGLOR,1,SAT,G25,028,1F,G29,031,1F,G21,028,1F,G20,026,1F,G31,027,1F,G05,029,1F,G12,028,1B,G26,020,1F,G18,022,17*6C
$PGLOR,1,SIO,TxERR,0,RxERR,0,TxCNT,256,RxCNT,1592,DTMS,975,DTIN,1,2,DTOUT,292,798,HATMD,-6*23
$PGLOR,0,HLA,190822.00,L,,Al,,A,581,H,,,M,0,Ac,0,Gr,0,S,,,Sx,,,T,0,Tr,,Mn,0*0A
$PGLOR,1,PWR,AvgP,105.320007,RFTm,1000,RunT,1000,OscTm,1000,SlpTm,0,MeasTm,1000*2D
$PGLOR,0,PPS,040416,190821.999,,,000.000,0,0,0,*04
$GPGSV,5,1,17,25,59,144,34,29,58,018,36,21,53,244,33,20,49,122,32*74
$GPGSV,5,2,17,31,31,272,27,05,28,060,30,12,23,139,33,26,19,318,25*78
$GPGSV,5,3,17,18,18,182,27,01,01,000,,10,01,000,,11,01,000,*76
$GPGSV,5,4,17,14,01,000,,22,01,000,,27,01,000,,28,01,000,*74
$GPGSV,5,5,17,02,04,049,*44
$GLGSV,1,1,01,68,01,000,*5B
$GPGSA,A,3,05,12,18,20,21,25,26,29,31,,,,1.9,1.0,1.7*39
$GNGSA,A,3,05,12,18,20,21,25,26,29,31,,,,1.9,1.0,1.7*27
$GNGSA,A,3,,,,,,,,,,,,,1.9,1.0,1.7*23
$QZGSA,A,3,,,,,,,,,,,,,1.9,1.0,1.7*21
$PGLOR,1,FIX,1.0,1.0*20
$GPRMC,190822.00,A,3206.285224,N,03510.560854,E,003.0,,040416,,,A*75
$GPGGA,190823.00,3206.286163,N,03510.562121,E,1,09,0.8,564.8,M,19.0,M,,*60
$PGLOR,1,STA,190823.00,0.035,0.000,-261,1,8,1,P,F,L,0,C,3,S,0012,29,2,R,33F4*47
$PGLOR,1,SAT,G25,027,1F,G29,026,1F,G21,028,1F,G20,024,1F,G31,025,1F,G05,025,1F,G12,030,1F,G26,018,1F,G18,022,17*6F
$PGLOR,1,SIO,TxERR,0,RxERR,0,TxCNT,244,RxCNT,1752,DTMS,973,DTIN,1,2,DTOUT,291,932,HATMD,-11*13
$PGLOR,0,HLA,190823.00,L,,Al,,A,581,H,,,M,0,Ac,0,Gr,0,S,,,Sx,,,T,0,Tr,,Mn,0*0B
$PGLOR,1,PWR,AvgP,105.320007,RFTm,1000,RunT,1000,OscTm,1000,SlpTm,0,MeasTm,1000*2D
$PGLOR,0,PPS,040416,190822.999,,,000.000,0,0,0,*07
$GPGSV,5,1,17,25,59,144,33,29,58,018,35,21,53,244,32,20,49,122,32*71
$GPGSV,5,2,17,31,31,272,27,05,28,060,29,12,23,139,33,26,19,318,24*71
$GPGSV,5,3,17,18,18,182,27,01,01,000,,10,01,000,,11,01,000,*76
$GPGSV,5,4,17,14,01,000,,22,01,000,,27,01,000,,28,01,000,*74
$GPGSV,5,5,17,02,04,049,*44
$GLGSV,1,1,01,68,01,000,*5B
$GPGSA,A,3,05,12,18,20,21,25,26,29,31,,,,1.8,0.9,1.5*32
$GNGSA,A,3,05,12,18,20,21,25,26,29,31,,,,1.8,0.9,1.5*2C
$GNGSA,A,3,,,,,,,,,,,,,1.8,0.9,1.5*28
$QZGSA,A,3,,,,,,,,,,,,,1.8,0.9,1.5*2A
$PGLOR,1,FIX,1.0,1.0*20
$GPRMC,190823.00,A,3206.286163,N,03510.562121,E,003.2,,040416,,,A*7C
$GPGGA,190824.00,3206.286930,N,03510.563267,E,1,09,0.8,564.7,M,19.0,M,,*66
$PGLOR,1,STA,190824.00,0.035,0.000,-261,1,8,1,P,F,L,0,C,3,S,0012,31,2,R,33F4*49
$PGLOR,1,SAT,G25,033,1F,G29,033,1F,G21,032,1F,G20,031,1F,G31,022,1F,G05,026,1F,G12,024,17,G26,018,1F,G18,026,1F*64
$PGLOR,1,SIO,TxERR,0,RxERR,0,TxCNT,280,RxCNT,1592,DTMS,978,DTIN,1,1,DTOUT,254,856,HATMD,-23*16
$PGLOR,0,HLA,190824.00,L,,Al,,A,581,H,,,M,0,Ac,0,Gr,0,S,,,Sx,,,T,0,Tr,,Mn,0*0C
$PGLOR,1,PWR,AvgP,105.320007,RFTm,1000,RunT,1000,OscTm,1000,SlpTm,0,MeasTm,1000*2D
$PGLOR,0,PPS,040416,190823.999,,,000.000,0,0,0,*06
$GPGSV,5,1,17,25,59,144,33,29,58,018,35,21,53,244,32,20,49,121,32*72
$GPGSV,5,2,17,31,31,272,26,05,28,060,29,12,23,139,32,26,19,318,24*71
$GPGSV,5,3,17,18,18,182,27,01,01,000,,10,01,000,,11,01,000,*76
$GPGSV,5,4,17,14,01,000,,22,01,000,,27,01,000,,28,01,000,*74
$GPGSV,5,5,17,02,04,049,*44
$GLGSV,1,1,01,68,01,000,*5B
$GPGSA,A,3,05,12,18,20,21,25,26,29,31,,,,1.8,0.9,1.5*32
$GNGSA,A,3,05,12,18,20,21,25,26,29,31,,,,1.8,0.9,1.5*2C
$GNGSA,A,3,,,,,,,,,,,,,1.8,0.9,1.5*28
$QZGSA,A,3,,,,,,,,,,,,,1.8,0.9,1.5*2A
$PGLOR,1,FIX,1.0,1.0*20
$GPRMC,190824.00,A,3206.286930,N,03510.563267,E,003.6,054.4,040416,,,A*5A
$GPGGA,190825.00,3206.287565,N,03510.564622,E,1,09,0.8,564.4,M,19.0,M,,*6B
$PGLOR,1,STA,190825.00,0.035,0.000,-261,1,8,1,P,F,L,0,C,3,S,0012,33,2,R,33F4*4A
$PGLOR,1,SAT,G25,030,1F,G29,037,1F,G21,031,1F,G20,031,1F,G31,022,1F,G05,026,1F,G12,024,1F,G26,017,17,G18,023,1F*6A
$PGLOR,1,SIO,TxERR,0,RxERR,0,TxCNT,560,RxCNT,1800,DTMS,990,DTIN,1,8,DTOUT,284,811,HATMD,-23*18
$PGLOR,0,HLA,190825.00,L,,Al,,A,581,H,,,M,0,Ac,0,Gr,0,S,,,Sx,,,T,0,Tr,,Mn,0*0D
$PGLOR,1,PWR,AvgP,105.320007,RFTm,1000,RunT,1000,OscTm,1000,SlpTm,0,MeasTm,1000*2D
$PGLOR,0,PPS,040416,190824.999,,,000.000,0,0,0,*01
$GPGSV,6,1,21,25,59,144,33,29,58,018,37,21,53,244,32,20,50,121,31*7D
$GPGSV,6,2,21,31,31,272,26,05,28,060,29,12,23,139,31,26,19,318,23*73
$GPGSV,6,3,21,18,18,182,26,27,01,000,,28,01,000,,32,01,000,*7F
$GPGSV,6,4,21,01,01,000,,04,01,000,,09,01,000,,10,01,000,*75
$GPGSV,6,5,21,11,01,000,,14,01,000,,22,01,000,,23,01,000,*7D
$GPGSV,6,6,21,02,04,049,*41
$GLGSV,1,1,01,68,01,000,*5B
$QZGSV,1,1,04,01,01,000,,02,01,000,,03,01,000,,04,01,000,*65
$GPGSA,A,3,05,12,18,20,21,25,26,29,31,,,,1.8,0.9,1.5*32
$GNGSA,A,3,05,12,18,20,21,25,26,29,31,,,,1.8,0.9,1.5*2C
$GNGSA,A,3,,,,,,,,,,,,,1.8,0.9,1.5*28
$QZGSA,A,3,,,,,,,,,,,,,1.8,0.9,1.5*2A
$PGLOR,1,FIX,1.0,1.0*20
$GPRMC,190825.00,A,3206.287565,N,03510.564622,E,003.9,071.5,040416,,,A*5D
$GPGGA,190826.00,3206.287679,N,03510.566149,E,1,09,0.6,562.8,M,19.0,M,,*6A
$PGLOR,1,STA,190826.00,0.035,0.000,-262,1,6,1,P,F,L,0,C,3,S,0012,35,2,R,33F4*42
$PGLOR,1,SAT,G25,030,1F,G29,036,1F,G21,027,1F,G20,034,1F,G31,022,17,G05,031,1F,G12,028,1F,G26,017,1F,G18,028,1F*68
$PGLOR,1,SIO,TxERR,0,RxERR,0,TxCNT,256,RxCNT,1592,DTMS,990,DTIN,1,2,DTOUT,273,817,HATMD,-7*2E
$PGLOR,0,HLA,190826.00,L,,Al,,A,583,H,,,M,0,Ac,0,Gr,0,S,,,Sx,,,T,0,Tr,,Mn,0*0C
$PGLOR,1,PWR,AvgP,105.320007,RFTm,1000,RunT,1000,OscTm,1000,SlpTm,0,MeasTm,1000*2D
$PGLOR,0,PPS,040416,190825.999,,,000.000,0,0,0,*00
$GPGSV,4,1,14,25,59,144,33,29,58,019,37,21,53,244,32,20,50,121,34*7D
$GPGSV,4,2,14,31,31,272,26,05,28,060,31,12,23,139,31,26,19,318,22*7F
$GPGSV,4,3,14,18,18,182,28,04,01,000,,09,01,000,,23,01,000,*77
$GPGSV,4,4,14,32,01,000,,02,04,049,*77
$QZGSV,1,1,04,04,01,000,,01,01,000,,02,01,000,,03,01,000,*65
$GPGSA,A,3,05,12,18,20,21,25,26,29,31,,,,1.8,0.9,1.5*32
$GNGSA,A,3,05,12,18,20,21,25,26,29,31,,,,1.8,0.9,1.5*2C
$GNGSA,A,3,,,,,,,,,,,,,1.8,0.9,1.5*28
$QZGSA,A,3,,,,,,,,,,,,,1.8,0.9,1.5*2A
$PGLOR,1,FIX,1.0,1.0*20
$GPRMC,190826.00,A,3206.287679,N,03510.566149,E,005.3,096.8,040416,,,A*50
$GPGGA,190827.00,3206.287676,N,03510.567880,E,1,09,0.6,564.9,M,19.0,M,,*6E
$PGLOR,1,STA,190827.00,0.035,0.000,-262,1,6,3,P,F,L,0,C,3,S,0012,38,2,R,33F4*4C
$PGLOR,1,SAT,G25,028,1F,G29,038,1F,G21,026,1B,G20,036,1F,G31,021,1F,G05,032,1F,G12,030,1F,G26,017,17,G18,031,1F*69
$PGLOR,1,SIO,TxERR,0,RxERR,0,TxCNT,256,RxCNT,1752,DTMS,974,DTIN,1,5,DTOUT,271,927,HATMD,-22*1A
$PGLOR,0,HLA,190827.00,L,,Al,,A,581,H,,,M,0,Ac,0,Gr,0,S,,,Sx,,,T,0,Tr,,Mn,0*0F
$PGLOR,1,PWR,AvgP,105.320007,RFTm,1000,RunT,1000,OscTm,1000,SlpTm,0,MeasTm,1000*2D
$PGLOR,0,PPS,040416,190826.999,,,000.000,0,0,0,*03
$GPGSV,4,1,14,25,59,144,32,29,58,019,38,21,53,244,31,20,50,121,36*72
$GPGSV,4,2,14,31,31,272,25,05,28,060,32,12,23,139,31,26,19,318,22*7F
$GPGSV,4,3,14,18,18,182,31,04,01,000,,09,01,000,,23,01,000,*7F
$GPGSV,4,4,14,32,01,000,,02,04,049,*77
$QZGSV,1,1,04,04,01,000,,01,01,000,,02,01,000,,03,01,000,*65
$GPGSA,A,3,05,12,18,20,21,25,26,29,31,,,,2.0,1.0,1.7*33
$GNGSA,A,3,05,12,18,20,21,25,26,29,31,,,,2.0,1.0,1.7*2D
$GNGSA,A,3,,,,,,,,,,,,,2.0,1.0,1.7*29
$QZGSA,A,3,,,,,,,,,,,,,2.0,1.0,1.7*2B
$PGLOR,1,FIX,1.0,1.0*20
$GPRMC,190827.00,A,3206.287676,N,03510.567880,E,006.2,097.6,040416,,,A*5E
$GPGGA,190828.00,3206.287502,N,03510.571040,E,1,09,0.6,564.9,M,19.0,M,,*62
$PGLOR,1,STA,190828.00,0.035,0.000,-262,1,6,3,P,F,L,0,C,3,S,0012,43,2,R,33F4*4F
$PGLOR,1,SAT,G25,029,1F,G29,038,1F,G21,028,1F,G20,037,1F,G31,021,1F,G05,033,1F,G12,029,1F,G26,017,17,G18,029,1F*63
$PGLOR,1,SIO,TxERR,0,RxERR,0,TxCNT,244,RxCNT,1592,DTMS,989,DTIN,1,3,DTOUT,255,863,HATMD,-23*15
$PGLOR,0,HLA,190828.00,L,,Al,,A,583,H,,,M,0,Ac,0,Gr,0,S,,,Sx,,,T,0,Tr,,Mn,0*02
$PGLOR,1,PWR,AvgP,105.320007,RFTm,1000,RunT,1000,OscTm,1000,SlpTm,0,MeasTm,1000*2D
$PGLOR,0,PPS,040416,190827.999,,,000.000,0,0,0,*02
$GPGSV,4,1,14,25,59,144,32,29,58,019,38,21,53,244,31,20,50,121,37*73
$GPGSV,4,2,14,31,31,272,25,05,28,060,33,12,23,139,31,26,20,318,21*77
$GPGSV,4,3,14,18,18,182,30,04,01,000,,09,01,000,,23,01,000,*7E
$GPGSV,4,4,14,32,01,000,,02,04,049,*77
$QZGSV,1,1,04,04,01,000,,01,01,000,,02,01,000,,03,01,000,*65
$GPGSA,A,3,05,12,18,20,21,25,26,29,31,,,,1.8,0.9,1.5*32
$GNGSA,A,3,05,12,18,20,21,25,26,29,31,,,,1.8,0.9,1.5*2C
$GNGSA,A,3,,,,,,,,,,,,,1.8,0.9,1.5*28
$QZGSA,A,3,,,,,,,,,,,,,1.8,0.9,1.5*2A
$PGLOR,1,FIX,1.0,1.0*20
$GPRMC,190828.00,A,3206.287502,N,03510.571040,E,008.0,098.2,040416,,,A*55
$GPGGA,190829.00,3206.287171,N,03510.574978,E,1,09,0.8,565.0,M,19.0,M,,*62
$PGLOR,1,STA,190829.00,0.035,0.000,-261,1,8,3,P,F,L,0,C,3,S,0012,49,2,R,33F4*49
$PGLOR,1,SAT,G25,029,1F,G29,036,1F,G21,024,1B,G20,037,1F,G31,025,1F,G05,034,1F,G12,030,1F,G26,017,17,G18,029,1F*6E
$PGLOR,1,SIO,TxERR,0,RxERR,0,TxCNT,228,RxCNT,1584,DTMS,990,DTIN,1,2,DTOUT,266,816,HATMD,-29*19
$PGLOR,0,HLA,190829.00,L,,Al,,A,583,H,,,M,0,Ac,0,Gr,0,S,,,Sx,,,T,0,Tr,,Mn,0*03
$PGLOR,1,PWR,AvgP,105.320007,RFTm,1000,RunT,1000,OscTm,1000,SlpTm,0,MeasTm,1000*2D
$PGLOR,0,PPS,040416,190828.999,,,000.000,0,0,0,*0D
$GPGSV,4,1,14,25,59,144,32,29,58,019,37,21,53,244,30,20,50,121,37*7D
$GPGSV,4,2,14,31,31,272,25,05,28,060,34,12,23,139,30,26,20,318,21*71
$GPGSV,4,3,14,18,18,182,30,04,01,000,,09,01,000,,23,01,000,*7E
$GPGSV,4,4,14,32,01,000,,02,04,049,*77
$QZGSV,1,1,04,04,01,000,,01,01,000,,02,01,000,,03,01,000,*65
$GPGSA,A,3,05,12,18,20,21,25,26,29,31,,,,2.0,1.0,1.7*33
$GNGSA,A,3,05,12,18,20,21,25,26,29,31,,,,2.0,1.0,1.7*2D
$GNGSA,A,3,,,,,,,,,,,,,2.0,1.0,1.7*29
$QZGSA,A,3,,,,,,,,,,,,,2.0,1.0,1.7*2B
$PGLOR,1,FIX,1.0,1.0*20
$GPRMC,190829.00,A,3206.287171,N,03510.574978,E,010.0,098.4,040416,,,A*5C
$GPGGA,190830.00,3206.286695,N,03510.579320,E,1,09,0.8,565.1,M,19.0,M,,*6D
$PGLOR,1,STA,190830.00,0.035,0.000,-261,1,8,3,P,F,L,0,C,3,S,0012,56,2,R,33F4*4F
$PGLOR,1,SAT,G25,026,1F,G29,038,1F,G21,025,1B,G20,037,1F,G31,019,17,G05,035,1F,G12,031,1F,G26,019,17,G18,029,1F*1E
$PGLOR,1,SIO,TxERR,0,RxERR,0,TxCNT,532,RxCNT,1664,DTMS,996,DTIN,3,11,DTOUT,267,980,HATMD,-10*2B
$PGLOR,0,HLA,190830.00,L,,Al,,A,584,H,,,M,0,Ac,0,Gr,0,S,,,Sx,,,T,0,Tr,,Mn,0*0C
$PGLOR,1,PWR,AvgP,105.320007,RFTm,1000,RunT,1000,OscTm,1000,SlpTm,0,MeasTm,1000*2D
$PGLOR,0,PPS,040416,190829.999,,,000.000,0,0,0,*0C
$GPGSV,5,1,18,25,59,144,31,29,58,019,38,21,53,244,30,20,50,121,37*7C
$GPGSV,5,2,18,31,31,272,24,05,28,060,35,12,23,139,31,26,20,318,21*7D
$GPGSV,5,3,18,18,18,182,30,04,01,000,,07,01,000,,09,01,000,*75
$GPGSV,5,4,18,17,01,000,,23,01,000,,24,01,000,,30,01,000,*73
$GPGSV,5,5,18,32,01,000,,02,04,049,*7B
$GLGSV,1,1,01,74,01,000,*56
$QZGSV,2,1,05,01,01,000,,02,01,000,,03,01,000,,04,01,000,*67
$QZGSV,2,2,05,05,01,000,*54
$GPGSA,A,3,05,12,18,20,21,25,26,29,31,,,,2.0,1.0,1.7*33
$GNGSA,A,3,05,12,18,20,21,25,26,29,31,,,,2.0,1.0,1.7*2D
$GNGSA,A,3,,,,,,,,,,,,,2.0,1.0,1.7*29
$QZGSA,A,3,,,,,,,,,,,,,2.0,1.0,1.7*2B
$PGLOR,1,FIX,1.0,1.0*20
$GPRMC,190830.00,A,3206.286695,N,03510.579320,E,011.2,098.9,040416,,,A*5C
$GPGGA,190831.00,3206.286121,N,03510.583563,E,1,09,1.2,564.8,M,19.0,M,,*63
$PGLOR,1,STA,190831.00,0.035,0.000,-260,1,12,3,P,F,L,0,C,3,S,0012,63,2,R,33F4*72
$PGLOR,1,SAT,G25,027,1F,G29,038,1F,G21,022,1B,G20,037,1F,G31,020,1F,G05,032,1F,G12,028,1F,G26,019,17,G18,023,1F*66
$PGLOR,1,SIO,TxERR,0,RxERR,0,TxCNT,300,RxCNT,1328,DTMS,977,DTIN,1,1,DTOUT,226,880,HATMD,-29*13
$PGLOR,0,HLA,190831.00,L,,Al,,A,583,H,,,M,0,Ac,0,Gr,0,S,,,Sx,,,T,0,Tr,,Mn,0*0A
$PGLOR,1,PWR,AvgP,105.320007,RFTm,1000,RunT,1000,OscTm,1000,SlpTm,0,MeasTm,1000*2D
$PGLOR,0,PPS,040416,190830.999,,,000.000,0,0,0,*04
$GPGSV,4,1,14,25,59,144,31,29,58,019,38,21,53,244,29,20,50,121,37*79
$GPGSV,4,2,14,31,31,272,24,05,28,060,35,12,23,139,31,26,20,318,20*71
$GPGSV,4,3,14,18,18,182,30,24,01,000,,30,01,000,,07,01,000,*70
$GPGSV,4,4,14,17,01,000,,02,04,049,*70
$GLGSV,1,1,01,74,01,000,*56
$QZGSV,1,1,01,05,01,000,*50
$GPGSA,A,3,05,12,18,20,21,25,26,29,31,,,,2.0,1.0,1.7*33
$GNGSA,A,3,05,12,18,20,21,25,26,29,31,,,,2.0,1.0,1.7*2D
$GNGSA,A,3,,,,,,,,,,,,,2.0,1.0,1.7*29
$QZGSA,A,3,,,,,,,,,,,,,2.0,1.0,1.7*2B
$PGLOR,1,FIX,1.0,1.0*20
$GPRMC,190831.00,A,3206.286121,N,03510.583563,E,011.8,098.0,040416,,,A*52
$GPGGA,190832.00,3206.285529,N,03510.587943,E,1,09,1.2,564.3,M,19.0,M,,*6E
$PGLOR,1,STA,190832.00,0.035,0.000,-261,1,12,3,P,F,L,0,C,3,S,0012,70,2,R,33F4*72
$PGLOR,1,SAT,G25,028,1F,G29,038,1F,G21,021,1B,G20,037,1F,G31,021,1F,G05,024,1F,G12,024,1F,G26,018,17,G18,029,1F*6B
$PGLOR,1,SIO,TxERR,0,RxERR,0,TxCNT,272,RxCNT,1320,DTMS,997,DTIN,1,3,DTOUT,304,824,HATMD,-7*20
$PGLOR,0,HLA,190832.00,L,,Al,,A,584,H,,,M,0,Ac,0,Gr,0,S,,,Sx,,,T,0,Tr,,Mn,0*0E
$PGLOR,1,PWR,AvgP,105.320007,RFTm,1000,RunT,1000,OscTm,1000,SlpTm,0,MeasTm,1000*2D
$PGLOR,0,PPS,040416,190831.999,,,000.000,0,0,0,*05
$GPGSV,4,1,14,25,59,144,30,29,58,019,38,21,53,244,28,20,50,121,37*79
$GPGSV,4,2,14,31,31,272,23,05,28,060,33,12,23,139,30,26,20,318,20*71
$GPGSV,4,3,14,18,18,182,30,24,01,000,,30,01,000,,07,01,000,*70
$GPGSV,4,4,14,17,01,000,,02,04,049,*70
$GLGSV,1,1,01,74,01,000,*56
$QZGSV,1,1,01,05,01,000,*50
$GPGSA,A,3,05,12,18,20,21,25,26,29,31,,,,2.0,1.0,1.7*33
$GNGSA,A,3,05,12,18,20,21,25,26,29,31,,,,2.0,1.0,1.7*2D
$GNGSA,A,3,,,,,,,,,,,,,2.0,1.0,1.7*29
$QZGSA,A,3,,,,,,,,,,,,,2.0,1.0,1.7*2B
$PGLOR,1,FIX,1.0,1.0*20
$GPRMC,190832.00,A,3206.285529,N,03510.587943,E,012.8,097.4,040416,,,A*5C
$GPGGA,190833.00,3206.285007,N,03510.592156,E,1,09,1.2,565.1,M,19.0,M,,*6D
$PGLOR,1,STA,190833.00,0.035,0.000,-261,1,12,3,P,F,L,0,C,3,S,0012,76,2,R,33F4*75
$PGLOR,1,SAT,G25,030,1F,G29,039,1F,G21,022,1B,G20,037,1F,G31,022,17,G05,035,1F,G12,027,1F,G26,018,17,G18,024,1F*1C
$PGLOR,1,SIO,TxERR,0,RxERR,0,TxCNT,272,RxCNT,1320,DTMS,975,DTIN,1,5,DTOUT,285,795,HATMD,-15*14
$PGLOR,0,HLA,190833.00,L,,Al,,A,584,H,,,M,0,Ac,0,Gr,0,S,,,Sx,,,T,0,Tr,,Mn,0*0F
$PGLOR,1,PWR,AvgP,105.320007,RFTm,1000,RunT,1000,OscTm,1000,SlpTm,0,MeasTm,1000*2D
$PGLOR,0,PPS,040416,190832.999,,,000.000,0,0,0,*06
$GPGSV,4,1,14,25,59,144,30,29,58,019,39,21,53,244,28,20,50,121,37*78
$GPGSV,4,2,14,31,31,272,23,05,28,060,35,12,23,139,30,26,20,318,20*77
$GPGSV,4,3,14,18,18,182,29,24,01,000,,30,01,000,,07,01,000,*78
$GPGSV,4,4,14,17,01,000,,02,04,049,*70
$GLGSV,1,1,01,74,01,000,*56
$QZGSV,1,1,01,05,01,000,*50
$GPGSA,A,3,05,12,18,20,21,25,26,29,31,,,,2.0,1.0,1.7*33
$GNGSA,A,3,05,12,18,20,21,25,26,29,31,,,,2.0,1.0,1.7*2D
$GNGSA,A,3,,,,,,,,,,,,,2.0,1.0,1.7*29
$QZGSA,A,3,,,,,,,,,,,,,2.0,1.0,1.7*2B
$PGLOR,1,FIX,1.0,1.0*20
$GPRMC,190833.00,A,3206.285007,N,03510.592156,E,013.0,096.1,040416,,,A*51
$GPGGA,190834.00,3206.284499,N,03510.596247,E,1,09,0.8,565.8,M,19.0,M,,*6D
$PGLOR,1,STA,190834.00,0.035,0.000,-261,1,8,3,P,F,L,0,C,3,S,0012,83,2,R,33F4*43
$PGLOR,1,SAT,G25,032,1F,G29,037,1F,G21,025,1B,G20,037,1F,G31,022,17,G05,034,1F,G12,029,1F,G26,018,1F,G18,025,1F*68
$PGLOR,1,SIO,TxERR,0,RxERR,0,TxCNT,296,RxCNT,1356,DTMS,983,DTIN,1,2,DTOUT,196,939,HATMD,-22*1C
$PGLOR,0,HLA,190834.00,L,,Al,,A,584,H,,,M,0,Ac,0,Gr,0,S,,,Sx,,,T,0,Tr,,Mn,0*08
$PGLOR,1,PWR,AvgP,105.320007,RFTm,1000,RunT,1000,OscTm,1000,SlpTm,0,MeasTm,1000*2D
$PGLOR,0,PPS,040416,190833.999,,,000.000,0,0,0,*07
$GPGSV,4,1,14,25,59,144,32,29,58,019,39,21,53,244,27,20,50,121,37*75
$GPGSV,4,2,14,31,31,272,23,05,28,060,35,12,23,139,30,26,20,318,20*77
$GPGSV,4,3,14,18,18,182,29,24,01,000,,30,01,000,,07,01,000,*78
$GPGSV,4,4,14,17,01,000,,02,04,049,*70
$GLGSV,1,1,02,74,01,000,,66,01,000,*64
$QZGSV,1,1,01,05,01,000,*50
$GPGSA,A,3,05,12,18,20,21,25,26,29,31,,,,2.0,1.0,1.7*33
$GNGSA,A,3,05,12,18,20,21,25,26,29,31,,,,2.0,1.0,1.7*2D
$GNGSA,A,3,,,,,,,,,,,,,2.0,1.0,1.7*29
$QZGSA,A,3,,,,,,,,,,,,,2.0,1.0,1.7*2B
$PGLOR,1,FIX,1.0,1.0*20
$GPRMC,190834.00,A,3206.284499,N,03510.596247,E,013.2,095.2,040416,,,A*51
$GPGGA,190835.00,3206.284152,N,03510.600832,E,1,09,0.8,566.1,M,19.0,M,,*60
$PGLOR,1,STA,190835.00,0.035,0.000,-261,1,8,3,P,F,L,0,C,3,S,0012,90,2,R,33F4*40
$PGLOR,1,SAT,G25,032,1F,G29,037,1F,G21,024,1B,G20,037,1F,G31,025,1F,G05,034,1F,G12,032,1F,G26,018,17,G18,028,1F*69
$PGLOR,1,SIO,TxERR,0,RxERR,0,TxCNT,216,RxCNT,1264,DTMS,990,DTIN,1,3,DTOUT,376,962,HATMD,-25*12
$PGLOR,0,HLA,190835.00,L,,Al,,A,584,H,,,M,0,Ac,0,Gr,0,S,,,Sx,,,T,0,Tr,,Mn,0*09
$PGLOR,1,PWR,AvgP,105.320007,RFTm,1000,RunT,1000,OscTm,1000,SlpTm,0,MeasTm,1000*2D
$PGLOR,0,PPS,040416,190834.999,,,000.000,0,0,0,*00
$GPGSV,4,1,14,25,59,144,32,29,58,019,38,21,53,244,27,20,50,121,37*74
$GPGSV,4,2,14,31,31,272,25,05,28,060,35,12,23,139,32,26,20,318,20*73
$GPGSV,4,3,14,18,18,182,28,24,01,000,,30,01,000,,07,01,000,*79
$GPGSV,4,4,14,17,01,000,,02,04,049,*70
$GLGSV,1,1,02,74,01,000,,66,01,000,*64
$GPGSA,A,3,05,12,18,20,21,25,26,29,31,,,,2.0,1.0,1.7*33
$GNGSA,A,3,05,12,18,20,21,25,26,29,31,,,,2.0,1.0,1.7*2D
$GNGSA,A,3,,,,,,,,,,,,,2.0,1.0,1.7*29
$QZGSA,A,3,,,,,,,,,,,,,2.0,1.0,1.7*2B
$PGLOR,1,FIX,1.0,1.0*20
$GPRMC,190835.00,A,3206.284152,N,03510.600832,E,014.0,094.7,040416,,,A*57
$GPGGA,190836.00,3206.283832,N,03510.605792,E,1,09,0.8,565.2,M,19.0,M,,*6B
$PGLOR,1,STA,190836.00,0.035,0.000,-262,1,8,3,P,F,L,0,C,3,S,0012,98,2,R,33F4*48
$PGLOR,1,SAT,G25,031,1F,G29,037,1F,G21,024,1B,G20,037,1F,G31,022,1B,G05,029,1F,G12,031,1F,G26,018,17,G18,023,1F*6D
$PGLOR,1,SIO,TxERR,0,RxERR,0,TxCNT,300,RxCNT,1288,DTMS,993,DTIN,1,3,DTOUT,373,969,HATMD,-21*1F
$PGLOR,0,HLA,190836.00,L,,Al,,A,585,H,,,M,0,Ac,0,Gr,0,S,,,Sx,,,T,0,Tr,,Mn,0*0B
$PGLOR,1,PWR,AvgP,105.320007,RFTm,1000,RunT,1000,OscTm,1000,SlpTm,0,MeasTm,1000*2D
$PGLOR,0,PPS,040416,190835.999,,,000.000,0,0,0,*01
$GPGSV,4,1,14,25,59,144,32,29,58,019,38,21,53,244,27,20,50,121,37*74
$GPGSV,4,2,14,31,31,272,25,05,28,060,34,12,23,139,32,26,20,318,19*78
$GPGSV,4,3,14,18,18,182,28,24,01,000,,30,01,000,,07,01,000,*79
$GPGSV,4,4,14,17,01,000,,02,04,049,*70
$GLGSV,1,1,02,74,01,000,,66,01,000,*64
$GPGSA,A,3,05,12,18,20,21,25,26,29,31,,,,2.1,1.2,1.8*3F
$GNGSA,A,3,05,12,18,20,21,25,26,29,31,,,,2.1,1.2,1.8*21
$GNGSA,A,3,,,,,,,,,,,,,2.1,1.2,1.8*25
$QZGSA,A,3,,,,,,,,,,,,,2.1,1.2,1.8*27
$PGLOR,1,FIX,1.0,1.0*20
$GPRMC,190836.00,A,3206.283832,N,03510.605792,E,014.8,095.3,040416,,,A*51
$GPGGA,190837.00,3206.283594,N,03510.611252,E,1,09,0.8,563.8,M,19.0,M,,*6B
$PGLOR,1,STA,190837.00,0.035,0.000,-261,1,8,3,P,F,L,0,C,3,S,0012,106,2,R,33F4*7C
$PGLOR,1,SAT,G25,032,1F,G29,036,1F,G21,025,1F,G20,037,1F,G31,025,1F,G05,027,1F,G12,031,1F,G26,018,13,G18,026,1F*66
$PGLOR,1,SIO,TxERR,0,RxERR,0,TxCNT,216,RxCNT,1264,DTMS,989,DTIN,1,1,DTOUT,370,968,HATMD,-7*24
$PGLOR,0,HLA,190837.00,L,,Al,,A,585,H,,,M,0,Ac,0,Gr,0,S,,,Sx,,,T,0,Tr,,Mn,0*0A
$PGLOR,1,PWR,AvgP,105.320007,RFTm,1000,RunT,1000,OscTm,1000,SlpTm,0,MeasTm,1000*2D
$PGLOR,0,PPS,040416,190836.999,,,000.000,0,0,0,*02
$GPGSV,4,1,14,25,59,144,32,29,58,019,38,21,53,244,27,20,50,121,37*74
$GPGSV,4,2,14,31,31,272,25,05,28,060,33,12,23,139,32,26,20,318,19*7F
$GPGSV,4,3,14,18,18,182,28,24,01,000,,30,01,000,,07,01,000,*79
$GPGSV,4,4,14,17,01,000,,02,04,049,*70
$GLGSV,1,1,02,74,01,000,,66,01,000,*64
$GPGSA,A,3,05,12,18,20,21,25,26,29,31,,,,2.1,1.0,1.8*3D
$GNGSA,A,3,05,12,18,20,21,25,26,29,31,,,,2.1,1.0,1.8*23
$GNGSA,A,3,,,,,,,,,,,,,2.1,1.0,1.8*27
$QZGSA,A,3,,,,,,,,,,,,,2.1,1.0,1.8*25
$PGLOR,1,FIX,1.0,1.0*20
$GPRMC,190837.00,A,3206.283594,N,03510.611252,E,014.9,094.6,040416,,,A*58
$GPGGA,190838.00,3206.283540,N,03510.616714,E,1,09,0.6,562.9,M,19.0,M,,*63
$PGLOR,1,STA,190838.00,0.035,0.000,-261,1,6,3,P,F,L,0,C,3,S,0012,115,2,R,33F4*7F
$PGLOR,1,SAT,G25,032,1F,G29,035,1F,G21,027,1F,G20,034,1F,G31,026,1F,G05,024,1F,G12,033,1F,G26,017,13,G18,024,17*1A
$PGLOR,1,SIO,TxERR,0,RxERR,0,TxCNT,268,RxCNT,1272,DTMS,975,DTIN,1,1,DTOUT,367,955,HATMD,-26*12
$PGLOR,0,HLA,190838.00,L,,Al,,A,585,H,,,M,0,Ac,0,Gr,0,S,,,Sx,,,T,0,Tr,,Mn,0*05
$PGLOR,1,PWR,AvgP,105.320007,RFTm,1000,RunT,1000,OscTm,1000,SlpTm,0,MeasTm,1000*2D
$PGLOR,0,PPS,040416,190837.999,,,000.000,0,0,0,*03
$GPGSV,4,1,14,25,59,144,32,29,58,019,38,21,53,244,27,20,50,121,37*74
$GPGSV,4,2,14,31,31,272,26,05,28,060,32,12,23,139,33,26,20,318,19*7C
$GPGSV,4,3,14,18,18,182,27,24,01,000,,30,01,000,,07,01,000,*76
$GPGSV,4,4,14,17,01,000,,02,04,049,*70
$GLGSV,1,1,02,74,01,000,,66,01,000,*64
$GPGSA,A,3,05,12,18,20,21,25,26,29,31,,,,2.1,1.0,1.8*3D
$GNGSA,A,3,05,12,18,20,21,25,26,29,31,,,,2.1,1.0,1.8*23
$GNGSA,A,3,,,,,,,,,,,,,2.1,1.0,1.8*27
$QZGSA,A,3,,,,,,,,,,,,,2.1,1.0,1.8*25
$PGLOR,1,FIX,1.0,1.0*20
$GPRMC,190838.00,A,3206.283540,N,03510.616714,E,014.9,093.6,040416,,,A*59
$GPGGA,190839.00,3206.283673,N,03510.622766,E,1,09,0.6,562.0,M,19.0,M,,*6A
$PGLOR,1,STA,190839.00,0.035,0.000,-261,1,6,3,P,F,L,0,C,3,S,0012,124,2,R,33F4*7C
$PGLOR,1,SAT,G25,031,1F,G29,035,1F,G21,029,1F,G20,032,1F,G31,023,1F,G05,023,1F,G12,031,1F,G26,017,13,G18,024,1F*60
$PGLOR,1,SIO,TxERR,0,RxERR,0,TxCNT,296,RxCNT,1280,DTMS,994,DTIN,1,2,DTOUT,364,979,HATMD,-18*12
$PGLOR,0,HLA,190839.00,L,,Al,,A,585,H,,,M,0,Ac,0,Gr,0,S,,,Sx,,,T,0,Tr,,Mn,0*04
$PGLOR,1,PWR,AvgP,105.320007,RFTm,1000,RunT,1000,OscTm,1000,SlpTm,0,MeasTm,1000*2D
$PGLOR,0,PPS,040416,190838.999,,,000.000,0,0,0,*0C
$GPGSV,4,1,14,25,59,144,32,29,58,019,37,21,54,244,29,20,50,121,36*73
$GPGSV,4,2,14,31,31,272,25,05,28,060,32,12,23,139,32,26,20,318,19*7E
$GPGSV,4,3,14,18,18,182,27,24,01,000,,30,01,000,,07,01,000,*76
$GPGSV,4,4,14,17,01,000,,02,04,049,*70
$GLGSV,1,1,02,74,01,000,,66,01,000,*64
$GPGSA,A,3,05,12,18,20,21,25,26,29,31,,,,2.1,1.0,1.8*3D
$GNGSA,A,3,05,12,18,20,21,25,26,29,31,,,,2.1,1.0,1.8*23
$GNGSA,A,3,,,,,,,,,,,,,2.1,1.0,1.8*27
$QZGSA,A,3,,,,,,,,,,,,,2.1,1.0,1.8*25
$PGLOR,1,FIX,1.0,1.0*20
$GPRMC,190839.00,A,3206.283673,N,03510.622766,E,016.2,091.8,040416,,,A*5C
$GPGGA,190840.00,3206.283819,N,03510.628216,E,1,09,0.6,561.7,M,19.0,M,,*6A
$PGLOR,1,STA,190840.00,0.035,0.000,-262,1,6,3,P,F,L,0,C,3,S,0012,133,2,R,33F4*77
$PGLOR,1,SAT,G25,032,1F,G29,034,1F,G21,029,1B,G20,031,1F,G31,022,1F,G05,026,1F,G12,031,1F,G26,017,13,G18,025,1F*60
$PGLOR,1,SIO,TxERR,0,RxERR,0,TxCNT,244,RxCNT,1272,DTMS,986,DTIN,0,0,DTOUT,362,976,HATMD,-22*10
$PGLOR,0,HLA,190840.00,L,,Al,,A,585,H,,,M,0,Ac,0,Gr,0,S,,,Sx,,,T,0,Tr,,Mn,0*0A
$PGLOR,1,PWR,AvgP,105.320007,RFTm,1000,RunT,1000,OscTm,1000,SlpTm,0,MeasTm,1000*2D
$PGLOR,0,PPS,040416,190839.999,,,000.000,0,0,0,*0D
$GPGSV,4,1,14,25,59,144,32,29,58,019,37,21,54,244,29,20,50,121,36*73
$GPGSV,4,2,14,31,31,272,25,05,28,060,31,12,23,139,32,26,20,318,19*7D
$GPGSV,4,3,14,18,18,182,27,24,01,000,,30,01,000,,07,01,000,*76
$GPGSV,4,4,14,17,01,000,,02,04,049,*70
$GLGSV,1,1,02,74,01,000,,66,01,000,*64
$GPGSA,A,3,05,12,18,20,21,25,26,29,31,,,,2.3,1.1,2.0*35
$GNGSA,A,3,05,12,18,20,21,25,26,29,31,,,,2.3,1.1,2.0*2B
$GNGSA,A,3,,,,,,,,,,,,,2.3,1.1,2.0*2F
$QZGSA,A,3,,,,,,,,,,,,,2.3,1.1,2.0*2D
$PGLOR,1,FIX,1.0,1.0*20
$GPRMC,190840.00,A,3206.283819,N,03510.628216,E,015.4,090.8,040416,,,A*5C
$GPGGA,190841.00,3206.284127,N,03510.634449,E,1,09,0.6,561.8,M,19.0,M,,*66
$PGLOR,1,STA,190841.00,0.035,0.000,-262,1,6,3,P,F,L,0,C,3,S,0012,143,2,R,33F4*71
$PGLOR,1,SAT,G25,031,1F,G29,034,1F,G21,028,1F,G20,031,1F,G31,023,17,G05,027,1F,G12,032,1F,G26,017,17,G18,024,1F*11
$PGLOR,1,SIO,TxERR,0,RxERR,0,TxCNT,376,RxCNT,1296,DTMS,991,DTIN,2,3,DTOUT,417,979,HATMD,-9*2E
$PGLOR,0,HLA,190841.00,L,,Al,,A,585,H,,,M,0,Ac,0,Gr,0,S,,,Sx,,,T,0,Tr,,Mn,0*0B
$PGLOR,1,PWR,AvgP,105.320007,RFTm,1000,RunT,1000,OscTm,1000,SlpTm,0,MeasTm,1000*2D
$PGLOR,0,PPS,040416,190840.999,,,000.000,0,0,0,*03
$GPGSV,4,1,14,25,59,144,32,29,58,019,37,21,54,244,29,20,50,121,35*70
$GPGSV,4,2,14,31,31,272,25,05,28,060,31,12,23,139,32,26,20,318,18*7C
$GPGSV,4,3,14,18,18,182,27,24,01,000,,30,01,000,,07,01,000,*76
$GPGSV,4,4,14,17,01,000,,02,04,049,*70
$GLGSV,1,1,02,74,01,000,,66,01,000,*64
$GPGSA,A,3,05,12,18,20,21,25,26,29,31,,,,1.8,0.9,1.5*32
$GNGSA,A,3,05,12,18,20,21,25,26,29,31,,,,1.8,0.9,1.5*2C
$GNGSA,A,3,,,,,,,,,,,,,1.8,0.9,1.5*28
$QZGSA,A,3,,,,,,,,,,,,,1.8,0.9,1.5*2A
$PGLOR,1,FIX,1.0,1.0*20
$GPRMC,190841.00,A,3206.284127,N,03510.634449,E,015.7,089.7,040416,,,A*5B
$GPGGA,190842.00,3206.284610,N,03510.641348,E,1,09,0.6,561.8,M,19.0,M,,*62
$PGLOR,1,STA,190842.00,0.035,0.000,-261,1,6,3,P,F,L,0,C,3,S,0012,154,2,R,33F4*77
$PGLOR,1,SAT,G25,031,1F,G29,035,1F,G21,029,1F,G20,031,1F,G31,027,1F,G05,029,1F,G12,033,1F,G26,017,13,G18,020,1B,G02,011,$PGLOR,1,SIO,TxERR,0,RxERR,0,TxCNT,256,RxCNT,1264,DTMS,977,DTIN,1,1,DTOUT,419,967,HATMD,-25*16
$PGLOR,0,HLA,190842.00,L,,Al,,A,586,H,,,M,0,Ac,0,Gr,0,S,,,Sx,,,T,0,Tr,,Mn,0*0B
$PGLOR,1,PWR,AvgP,105.320007,RFTm,1000,RunT,1000,OscTm,1000,SlpTm,0,MeasTm,1000*2D
$PGLOR,0,PPS,040416,190841.999,,,000.000,0,0,0,*02
$GPGSV,4,1,14,25,59,144,32,29,58,019,37,21,54,244,29,20,50,121,35*70
$GPGSV,4,2,14,31,31,272,27,05,28,060,30,12,23,139,33,26,20,318,18*7E
$GPGSV,4,3,14,18,18,182,26,02,04,049,11,07,01,000,,17,01,000,*7E
$GPGSV,4,4,14,24,01,000,,30,01,000,*79
$GLGSV,1,1,02,74,01,000,,66,01,000,*64
$GPGSA,A,3,05,12,18,20,21,25,26,29,31,,,,2.4,1.1,2.1*33
$GNGSA,A,3,05,12,18,20,21,25,26,29,31,,,,2.4,1.1,2.1*2D
$GNGSA,A,3,,,,,,,,,,,,,2.4,1.1,2.1*29
$QZGSA,A,3,,,,,,,,,,,,,2.4,1.1,2.1*2B
$PGLOR,1,FIX,1.0,1.0*20
$GPRMC,190842.00,A,3206.284610,N,03510.641348,E,016.8,088.6,040416,,,A*53
$GPGGA,190843.00,3206.285178,N,03510.647500,E,1,09,0.6,561.5,M,19.0,M,,*6A
$PGLOR,1,STA,190843.00,0.035,0.000,-261,1,6,3,P,F,L,0,C,3,S,0012,163,2,R,33F4*72
$PGLOR,1,SAT,G25,032,1F,G29,036,1F,G21,028,1F,G20,029,1F,G31,027,1F,G05,032,1F,G12,035,1F,G26,017,17,G18,021,17,G02,011,$PGLOR,1,SIO,TxERR,0,RxERR,0,TxCNT,280,RxCNT,1252,DTMS,994,DTIN,1,1,DTOUT,417,891,HATMD,-8*2C
$PGLOR,0,HLA,190843.00,L,,Al,,A,586,H,,,M,0,Ac,0,Gr,0,S,,,Sx,,,T,0,Tr,,Mn,0*0A
$PGLOR,1,PWR,AvgP,105.320007,RFTm,1000,RunT,1000,OscTm,1000,SlpTm,0,MeasTm,1000*2D
$PGLOR,0,PPS,040416,190842.999,,,000.000,0,0,0,*01
$GPGSV,4,1,14,25,59,144,32,29,58,019,37,21,54,244,29,20,50,121,34*71
$GPGSV,4,2,14,31,31,272,27,05,28,060,32,12,23,139,35,26,20,318,18*7A
$GPGSV,4,3,14,18,18,182,25,02,04,049,11,07,01,000,,17,01,000,*7D
$GPGSV,4,4,14,24,01,000,,30,01,000,*79
$GLGSV,1,1,02,74,01,000,,66,01,000,*64
$GPGSA,A,3,05,12,18,20,21,25,26,29,31,,,,1.8,0.9,1.5*32
$GNGSA,A,3,05,12,18,20,21,25,26,29,31,,,,1.8,0.9,1.5*2C
$GNGSA,A,3,,,,,,,,,,,,,1.8,0.9,1.5*28
$QZGSA,A,3,,,,,,,,,,,,,1.8,0.9,1.5*2A
$PGLOR,1,FIX,1.0,1.0*20
$GPRMC,190843.00,A,3206.285178,N,03510.647500,E,017.5,086.9,040416,,,A*5B
$GPGGA,190844.00,3206.285904,N,03510.654020,E,1,09,0.6,561.6,M,19.0,M,,*68
$PGLOR,1,STA,190844.00,0.035,0.000,-261,1,6,3,P,F,L,0,C,3,S,0012,174,2,R,33F4*73
$PGLOR,1,SAT,G25,030,1F,G29,037,1F,G21,029,1F,G20,030,1F,G31,029,1F,G05,034,1F,G12,033,1F,G26,016,1F,G18,020,17,G02,010,$PGLOR,1,SIO,TxERR,0,RxERR,0,TxCNT,256,RxCNT,1256,DTMS,977,DTIN,1,2,DTOUT,414,869,HATMD,-4*25
$PGLOR,0,HLA,190844.00,L,,Al,,A,580,H,,,M,0,Ac,0,Gr,0,S,,,Sx,,,T,0,Tr,,Mn,0*0B
$PGLOR,1,PWR,AvgP,105.320007,RFTm,1000,RunT,1000,OscTm,1000,SlpTm,0,MeasTm,1000*2D
$PGLOR,0,PPS,040416,190843.999,,,000.000,0,0,0,*00
$GPGSV,4,1,14,25,59,144,32,29,58,019,37,21,54,244,29,20,50,121,34*71
$GPGSV,4,2,14,31,31,271,29,05,28,060,34,12,23,139,35,26,20,318,18*71
$GPGSV,4,3,14,18,18,182,25,02,04,049,11,07,01,000,,17,01,000,*7D
$GPGSV,4,4,14,24,01,000,,30,01,000,*79
$GLGSV,1,1,02,74,01,000,,66,01,000,*64
$GPGSA,A,3,05,12,18,20,21,25,26,29,31,,,,1.8,0.9,1.5*32
$GNGSA,A,3,05,12,18,20,21,25,26,29,31,,,,1.8,0.9,1.5*2C
$GNGSA,A,3,,,,,,,,,,,,,1.8,0.9,1.5*28
$QZGSA,A,3,,,,,,,,,,,,,1.8,0.9,1.5*2A
$PGLOR,1,FIX,1.0,1.0*20
$GPRMC,190844.00,A,3206.285904,N,03510.654020,E,017.6,085.6,040416,,,A*55
$GPGGA,190845.00,3206.286866,N,03510.660377,E,1,09,0.6,562.1,M,19.0,M,,*6D
$PGLOR,1,STA,190845.00,0.035,0.000,-261,1,6,3,P,F,L,0,C,3,S,0012,184,2,R,33F4*7D
$PGLOR,1,SAT,G25,031,1F,G29,037,1F,G21,033,1F,G20,033,1F,G31,030,1F,G05,033,1F,G12,036,1F,G26,016,17,G18,026,1F,G02,010,$PGLOR,1,SIO,TxERR,0,RxERR,0,TxCNT,240,RxCNT,1256,DTMS,973,DTIN,1,3,DTOUT,410,861,HATMD,-21*1C
$PGLOR,0,HLA,190845.00,L,,Al,,A,580,H,,,M,0,Ac,0,Gr,0,S,,,Sx,,,T,0,Tr,,Mn,0*0A
$PGLOR,1,PWR,AvgP,105.320007,RFTm,1000,RunT,1000,OscTm,1000,SlpTm,0,MeasTm,1000*2D
$PGLOR,0,PPS,040416,190844.999,,,000.000,0,0,0,*07
$GPGSV,4,1,14,25,59,144,32,29,58,019,37,21,54,244,33,20,50,121,34*7A
$GPGSV,4,2,14,31,31,271,30,05,28,060,33,12,23,139,36,26,20,318,18*7D
$GPGSV,4,3,14,18,18,182,26,02,04,049,11,07,01,000,,17,01,000,*7E
$GPGSV,4,4,14,24,01,000,,30,01,000,*79
$GLGSV,1,1,02,74,01,000,,66,01,000,*64
$GPGSA,A,3,05,12,18,20,21,25,26,29,31,,,,1.8,0.9,1.5*32
$GNGSA,A,3,05,12,18,20,21,25,26,29,31,,,,1.8,0.9,1.5*2C
$GNGSA,A,3,,,,,,,,,,,,,1.8,0.9,1.5*28
$QZGSA,A,3,,,,,,,,,,,,,1.8,0.9,1.5*2A
$PGLOR,1,FIX,1.0,1.0*20
$GPRMC,190845.00,A,3206.286866,N,03510.660377,E,018.0,084.4,040416,,,A*5E
$GPGGA,190846.00,3206.287863,N,03510.666597,E,1,09,0.4,562.8,M,19.0,M,,*6F
$PGLOR,1,STA,190846.00,0.035,0.000,-261,1,4,3,P,F,L,0,C,3,S,0012,194,2,R,33F4*7D
$PGLOR,1,SAT,G25,027,1F,G29,037,1F,G21,034,1F,G20,034,1F,G31,028,1F,G05,031,1F,G12,035,1F,G26,016,17,G18,019,1F,G02,010,$PGLOR,1,SIO,TxERR,0,RxERR,0,TxCNT,268,RxCNT,1264,DTMS,990,DTIN,1,3,DTOUT,407,884,HATMD,-21*17
$PGLOR,0,HLA,190846.00,L,,Al,,A,580,H,,,M,0,Ac,0,Gr,0,S,,,Sx,,,T,0,Tr,,Mn,0*09
$PGLOR,1,PWR,AvgP,105.320007,RFTm,1000,RunT,1000,OscTm,1000,SlpTm,0,MeasTm,1000*2D
$PGLOR,0,PPS,040416,190845.999,,,000.000,0,0,0,*06
$GPGSV,4,1,14,25,59,144,31,29,58,019,37,21,54,244,34,20,50,121,34*7E
$GPGSV,4,2,14,31,31,271,30,05,28,060,33,12,23,139,36,26,20,318,18*7D
$GPGSV,4,3,14,18,18,182,26,02,04,049,11,07,01,000,,17,01,000,*7E
$GPGSV,4,4,14,24,01,000,,30,01,000,*79
$GLGSV,1,1,02,74,01,000,,66,01,000,*64
$GPGSA,A,3,05,12,18,20,21,25,26,29,31,,,,1.8,0.9,1.5*32
$GNGSA,A,3,05,12,18,20,21,25,26,29,31,,,,1.8,0.9,1.5*2C
$GNGSA,A,3,,,,,,,,,,,,,1.8,0.9,1.5*28
$QZGSA,A,3,,,,,,,,,,,,,1.8,0.9,1.5*2A
$PGLOR,1,FIX,1.0,1.0*20
$GPRMC,190846.00,A,3206.287863,N,03510.666597,E,018.4,083.2,040416,,,A*52
$GPGGA,190847.00,3206.288949,N,03510.673213,E,1,10,0.4,563.7,M,19.0,M,,*61
$PGLOR,1,STA,190847.00,0.035,0.000,-261,1,4,3,P,F,L,0,C,3,S,0012,204,2,R,33F4*76
$PGLOR,1,SAT,G25,025,1F,G29,038,1F,G21,035,1F,G20,035,1F,G31,024,1F,G05,030,1F,G12,024,1F,G26,016,17,G18,027,1F,G02,010,$PGLOR,1,SIO,TxERR,0,RxERR,0,TxCNT,280,RxCNT,1264,DTMS,990,DTIN,1,1,DTOUT,404,885,HATMD,-21*11
$PGLOR,0,HLA,190847.00,L,,Al,,A,581,H,,,M,0,Ac,0,Gr,0,S,,,Sx,,,T,0,Tr,,Mn,0*09
$PGLOR,1,PWR,AvgP,105.320007,RFTm,1000,RunT,1000,OscTm,1000,SlpTm,0,MeasTm,1000*2D
$PGLOR,0,PPS,040416,190846.999,,,000.000,0,0,0,*05
$GPGSV,4,1,14,25,59,144,31,29,58,019,38,21,54,244,35,20,50,121,35*71
$GPGSV,4,2,14,31,31,271,29,05,28,060,33,12,23,139,35,26,20,318,17*79
$GPGSV,4,3,14,18,18,182,27,02,04,049,11,07,01,000,,17,01,000,*7F
$GPGSV,4,4,14,24,01,000,,30,01,000,*79
$GLGSV,1,1,02,74,01,000,,66,01,000,*64
$GPGSA,A,3,02,05,12,18,20,21,25,26,29,31,,,1.8,0.9,1.5*30
$GNGSA,A,3,02,05,12,18,20,21,25,26,29,31,,,1.8,0.9,1.5*2E
$GNGSA,A,3,,,,,,,,,,,,,1.8,0.9,1.5*28
$QZGSA,A,3,,,,,,,,,,,,,1.8,0.9,1.5*2A
$PGLOR,1,FIX,1.0,1.0*20
$GPRMC,190847.00,A,3206.288949,N,03510.673213,E,018.5,081.8,040416,,,A*53
$GPGGA,190848.00,3206.290185,N,03510.679961,E,1,10,0.6,564.4,M,19.0,M,,*6D
$PGLOR,1,STA,190848.00,0.035,0.000,-261,1,6,3,P,F,L,0,C,3,S,0012,215,2,R,33F4*7B
$PGLOR,1,SAT,G25,027,1F,G29,038,1F,G21,035,1F,G20,033,1F,G31,019,1F,G05,028,1F,G12,029,1B,G26,015,13,G18,020,17,G02,009,$PGLOR,1,SIO,TxERR,0,RxERR,0,TxCNT,308,RxCNT,1272,DTMS,990,DTIN,1,1,DTOUT,401,884,HATMD,-8*28
$PGLOR,0,HLA,190848.00,L,,Al,,A,582,H,,,M,0,Ac,0,Gr,0,S,,,Sx,,,T,0,Tr,,Mn,0*05
$PGLOR,1,PWR,AvgP,105.320007,RFTm,1000,RunT,1000,OscTm,1000,SlpTm,0,MeasTm,1000*2D
$PGLOR,0,PPS,040416,190847.999,,,000.000,0,0,0,*04
$GPGSV,4,1,14,25,59,144,30,29,58,019,38,21,54,244,35,20,50,121,35*70
$GPGSV,4,2,14,31,31,271,28,05,28,060,32,12,23,139,34,26,20,318,17*78
$GPGSV,4,3,14,18,18,182,26,02,03,049,11,07,01,000,,17,01,000,*79
$GPGSV,4,4,14,24,01,000,,30,01,000,*79
$GLGSV,1,1,02,74,01,000,,66,01,000,*64
$GPGSA,A,3,02,05,12,18,20,21,25,26,29,31,,,2.2,1.1,1.9*3C
$GNGSA,A,3,02,05,12,18,20,21,25,26,29,31,,,2.2,1.1,1.9*22
$GNGSA,A,3,,,,,,,,,,,,,2.2,1.1,1.9*24
$QZGSA,A,3,,,,,,,,,,,,,2.2,1.1,1.9*26
$PGLOR,1,FIX,1.0,1.0*20
$GPRMC,190848.00,A,3206.290185,N,03510.679961,E,019.1,080.2,040416,,,A*57
$GPGGA,190849.00,3206.291596,N,03510.686347,E,1,09,0.6,564.4,M,19.0,M,,*6D
$PGLOR,1,STA,190849.00,0.035,0.000,-261,1,6,3,P,F,L,0,C,3,S,0012,225,2,R,33F4*79
$PGLOR,1,SAT,G25,029,1F,G29,039,1F,G21,035,1F,G20,035,1F,G31,027,1F,G05,024,1F,G12,031,1F,G26,015,13,G18,021,1F*6B
$PGLOR,1,SIO,TxERR,0,RxERR,0,TxCNT,308,RxCNT,1272,DTMS,977,DTIN,1,2,DTOUT,399,868,HATMD,-6*28
$PGLOR,0,HLA,190849.00,L,,Al,,A,583,H,,,M,0,Ac,0,Gr,0,S,,,Sx,,,T,0,Tr,,Mn,0*05
$PGLOR,1,PWR,AvgP,105.320007,RFTm,1000,RunT,1000,OscTm,1000,SlpTm,0,MeasTm,1000*2D
$PGLOR,0,PPS,040416,190848.999,,,000.000,0,0,0,*0B
$GPGSV,4,1,14,25,59,144,30,29,58,019,39,21,54,244,35,20,50,121,35*71
$GPGSV,4,2,14,31,31,271,28,05,28,060,31,12,23,139,34,26,20,318,17*7B
$GPGSV,4,3,14,18,18,182,26,02,03,049,10,30,01,000,,07,01,000,*7D
$GPGSV,4,4,14,17,01,000,,24,01,000,*7C
$GLGSV,1,1,02,74,01,000,,66,01,000,*64
$GPGSA,A,3,05,12,18,20,21,25,26,29,31,,,,2.1,1.0,1.8*3D
$GNGSA,A,3,05,12,18,20,21,25,26,29,31,,,,2.1,1.0,1.8*23
$GNGSA,A,3,,,,,,,,,,,,,2.1,1.0,1.8*27
$QZGSA,A,3,,,,,,,,,,,,,2.1,1.0,1.8*25
$PGLOR,1,FIX,1.0,1.0*20
$GPRMC,190849.00,A,3206.291596,N,03510.686347,E,019.3,078.6,040416,,,A*5E
$GPGGA,190850.00,3206.293256,N,03510.693020,E,1,09,0.6,564.3,M,19.0,M,,*6D
$PGLOR,1,STA,190850.00,0.035,0.000,-261,1,6,3,P,F,L,0,C,3,S,0012,236,2,R,33F4*73
$PGLOR,1,SAT,G25,031,1F,G29,039,1F,G21,036,1F,G20,035,1F,G31,031,1F,G05,026,1F,G12,028,1F,G26,015,13,G18,022,1F*6F
$PGLOR,1,SIO,TxERR,0,RxERR,0,TxCNT,280,RxCNT,1264,DTMS,975,DTIN,1,1,DTOUT,394,865,HATMD,-27*1C
$PGLOR,0,HLA,190850.00,L,,Al,,A,583,H,,,M,0,Ac,0,Gr,0,S,,,Sx,,,T,0,Tr,,Mn,0*0D
$PGLOR,1,PWR,AvgP,105.320007,RFTm,1000,RunT,1000,OscTm,1000,SlpTm,0,MeasTm,1000*2D
$PGLOR,0,PPS,040416,190849.999,,,000.000,0,0,0,*0A
$GPGSV,4,1,14,25,59,144,31,29,58,019,39,21,54,244,36,20,50,121,35*73
$GPGSV,4,2,14,31,31,271,31,05,28,060,31,12,23,139,33,26,20,318,17*74
$GPGSV,4,3,14,18,18,182,25,02,03,049,08,30,01,000,,07,01,000,*77
$GPGSV,4,4,14,17,01,000,,24,01,000,*7C
$GLGSV,1,1,02,74,01,000,,66,01,000,*64
$GPGSA,A,3,05,12,18,20,21,25,26,29,31,,,,2.1,1.0,1.8*3D
$GNGSA,A,3,05,12,18,20,21,25,26,29,31,,,,2.1,1.0,1.8*23
$GNGSA,A,3,,,,,,,,,,,,,2.1,1.0,1.8*27
$QZGSA,A,3,,,,,,,,,,,,,2.1,1.0,1.8*25
$PGLOR,1,FIX,1.0,1.0*20
$GPRMC,190850.00,A,3206.293256,N,03510.693020,E,019.3,077.1,040416,,,A*51
$GPGGA,190851.00,3206.295042,N,03510.699343,E,1,09,0.6,564.4,M,19.0,M,,*66
$PGLOR,1,STA,190851.00,0.035,0.000,-261,1,6,3,P,F,L,0,C,3,S,0012,247,2,R,33F4*74
$PGLOR,1,SAT,G25,029,1F,G29,038,1F,G21,035,1F,G20,031,1F,G31,030,1F,G05,025,1F,G12,026,1F,G26,015,13,G18,024,1F*6A
$PGLOR,1,SIO,TxERR,0,RxERR,0,TxCNT,252,RxCNT,1256,DTMS,996,DTIN,0,0,DTOUT,390,894,HATMD,-6*26
$PGLOR,0,HLA,190851.00,L,,Al,,A,583,H,,,M,0,Ac,0,Gr,0,S,,,Sx,,,T,0,Tr,,Mn,0*0C
$PGLOR,1,PWR,AvgP,105.320007,RFTm,1000,RunT,1000,OscTm,1000,SlpTm,0,MeasTm,1000*2D
$PGLOR,0,PPS,040416,190850.999,,,000.000,0,0,0,*02
$GPGSV,4,1,14,25,59,144,30,29,58,019,39,21,54,244,36,20,50,121,35*72
$GPGSV,4,2,14,31,31,271,31,05,28,060,30,12,23,139,33,26,20,318,17*75
$GPGSV,4,3,14,18,18,182,25,24,01,000,,30,01,000,,07,01,000,*74
$GPGSV,4,4,14,17,01,000,,02,03,049,*77
$GLGSV,1,1,02,74,01,000,,66,01,000,*64
$GPGSA,A,3,05,12,18,20,21,25,26,29,31,,,,2.1,1.0,1.8*3D
$GNGSA,A,3,05,12,18,20,21,25,26,29,31,,,,2.1,1.0,1.8*23
$GNGSA,A,3,,,,,,,,,,,,,2.1,1.0,1.8*27
$QZGSA,A,3,,,,,,,,,,,,,2.1,1.0,1.8*25
$PGLOR,1,FIX,1.0,1.0*20
$GPRMC,190851.00,A,3206.295042,N,03510.699343,E,018.7,075.5,040416,,,A*5E
$GPGGA,190852.00,3206.296781,N,03510.705196,E,1,09,0.6,564.5,M,19.0,M,,*61
$PGLOR,1,STA,190852.00,0.035,0.000,-261,1,6,3,P,F,L,0,C,3,S,0012,257,5,R,33F4*71
$PGLOR,1,SAT,G25,030,1F,G29,039,1F,G21,035,1F,G20,032,1F,G31,032,1F,G05,026,1F,G12,023,1F,G26,015,13,G18,028,1F*68
$PGLOR,1,SIO,TxERR,0,RxERR,0,TxCNT,292,RxCNT,1264,DTMS,975,DTIN,1,1,DTOUT,386,868,HATMD,-5*21
$PGLOR,0,HLA,190852.00,L,,Al,,A,582,H,,,M,0,Ac,0,Gr,0,S,,,Sx,,,T,0,Tr,,Mn,0*0E
$PGLOR,1,PWR,AvgP,105.320007,RFTm,1000,RunT,1000,OscTm,1000,SlpTm,0,MeasTm,1000*2D
$PGLOR,0,PPS,040416,190851.999,,,000.000,0,0,0,*03
$GPGSV,4,1,14,25,59,144,30,29,58,019,39,21,54,244,36,20,50,121,34*73
$GPGSV,4,2,14,31,31,271,32,05,28,060,30,12,23,139,32,26,20,318,17*77
$GPGSV,4,3,14,18,18,182,28,24,01,000,,30,01,000,,07,01,000,*79
$GPGSV,4,4,14,17,01,000,,02,03,049,*77
$GLGSV,1,1,02,74,01,000,,66,01,000,*64
$GPGSA,A,3,05,12,18,20,21,25,26,29,31,,,,2.1,1.0,1.8*3D
$GNGSA,A,3,05,12,18,20,21,25,26,29,31,,,,2.1,1.0,1.8*23
$GNGSA,A,3,,,,,,,,,,,,,2.1,1.0,1.8*27
$QZGSA,A,3,,,,,,,,,,,,,2.1,1.0,1.8*25
$PGLOR,1,FIX,1.0,1.0*20
$GPRMC,190852.00,A,3206.296781,N,03510.705196,E,017.0,074.4,040416,,,A*50
$GPGGA,190853.00,3206.298432,N,03510.709945,E,1,09,0.6,564.4,M,19.0,M,,*6E
$PGLOR,1,STA,190853.00,0.035,0.000,-261,1,6,3,P,F,L,0,C,3,S,0012,265,5,R,33F4*71
$PGLOR,1,SAT,G25,032,1F,G29,040,1F,G21,034,1F,G20,030,1F,G31,032,1F,G05,028,1F,G12,023,1F,G26,015,13,G18,030,1F*60
$PGLOR,1,SIO,TxERR,0,RxERR,0,TxCNT,292,RxCNT,1264,DTMS,975,DTIN,1,2,DTOUT,383,865,HATMD,-5*2A
$PGLOR,0,HLA,190853.00,L,,Al,,A,582,H,,,M,0,Ac,0,Gr,0,S,,,Sx,,,T,0,Tr,,Mn,0*0F
$PGLOR,1,PWR,AvgP,105.320007,RFTm,1000,RunT,1000,OscTm,1000,SlpTm,0,MeasTm,1000*2D
$PGLOR,0,PPS,040416,190852.999,,,000.000,0,0,0,*00
$GPGSV,4,1,14,25,59,144,32,29,58,019,40,21,54,244,35,20,50,121,34*7C
$GPGSV,4,2,14,31,31,271,32,05,28,060,30,12,23,139,31,26,20,318,16*75
$GPGSV,4,3,14,18,18,182,30,24,01,000,,30,01,000,,07,01,000,*70
$GPGSV,4,4,14,17,01,000,,02,03,049,*77
$GLGSV,1,1,02,74,01,000,,66,01,000,*64
$GPGSA,A,3,05,12,18,20,21,25,26,29,31,,,,2.1,1.0,1.8*3D
$GNGSA,A,3,05,12,18,20,21,25,26,29,31,,,,2.1,1.0,1.8*23
$GNGSA,A,3,,,,,,,,,,,,,2.1,1.0,1.8*27
$QZGSA,A,3,,,,,,,,,,,,,2.1,1.0,1.8*25
$PGLOR,1,FIX,1.0,1.0*20
$GPRMC,190853.00,A,3206.298432,N,03510.709945,E,014.8,072.7,040416,,,A*50
$GPGGA,190854.00,3206.299948,N,03510.714355,E,1,09,0.6,564.3,M,19.0,M,,*68
$PGLOR,1,STA,190854.00,0.035,0.000,-262,1,6,3,P,F,L,0,C,3,S,0012,272,5,R,33F4*73
$PGLOR,1,SAT,G25,033,1F,G29,041,1F,G21,031,1F,G20,029,1F,G31,030,1F,G05,030,1F,G12,025,1F,G26,015,13,G18,021,1F*60
$PGLOR,1,SIO,TxERR,0,RxERR,0,TxCNT,268,RxCNT,1264,DTMS,974,DTIN,1,2,DTOUT,378,865,HATMD,-20*1D
$PGLOR,0,HLA,190854.00,L,,Al,,A,583,H,,,M,0,Ac,0,Gr,0,S,,,Sx,,,T,0,Tr,,Mn,0*09
$PGLOR,1,PWR,AvgP,105.320007,RFTm,1000,RunT,1000,OscTm,1000,SlpTm,0,MeasTm,1000*2D
$PGLOR,0,PPS,040416,190853.999,,,000.000,0,0,0,*01
$GPGSV,4,1,14,25,59,144,33,29,58,019,41,21,54,244,35,20,50,121,34*7C
$GPGSV,4,2,14,31,31,271,32,05,28,060,30,12,23,139,30,26,20,318,16*74
$GPGSV,4,3,14,18,18,182,29,24,01,000,,30,01,000,,07,01,000,*78
$GPGSV,4,4,14,17,01,000,,02,03,049,*77
$GLGSV,1,1,02,74,01,000,,66,01,000,*64
$GPGSA,A,3,05,12,18,20,21,25,26,29,31,,,,2.1,1.0,1.8*3D
$GNGSA,A,3,05,12,18,20,21,25,26,29,31,,,,2.1,1.0,1.8*23
$GNGSA,A,3,,,,,,,,,,,,,2.1,1.0,1.8*27
$QZGSA,A,3,,,,,,,,,,,,,2.1,1.0,1.8*25
$PGLOR,1,FIX,1.0,1.0*20
$GPRMC,190854.00,A,3206.299948,N,03510.714355,E,014.5,071.1,040416,,,A*59
$GPGGA,190855.00,3206.301583,N,03510.719112,E,1,10,0.6,563.9,M,19.0,M,,*6B
$PGLOR,1,STA,190855.00,0.035,0.000,-262,1,6,3,P,F,L,0,C,3,S,0012,280,5,R,33F4*7F
$PGLOR,1,SAT,G25,030,1F,G29,040,1F,G21,031,1F,G20,028,1F,G31,030,1F,G05,031,1F,G12,023,13,G26,015,13,G18,031,1F,G02,007,$PGLOR,1,SIO,TxERR,0,RxERR,0,TxCNT,268,RxCNT,1264,DTMS,990,DTIN,0,0,DTOUT,374,885,HATMD,-24*12
$PGLOR,0,HLA,190855.00,L,,Al,,A,583,H,,,M,0,Ac,0,Gr,0,S,,,Sx,,,T,0,Tr,,Mn,0*08
$PGLOR,1,PWR,AvgP,105.320007,RFTm,1000,RunT,1000,OscTm,1000,SlpTm,0,MeasTm,1000*2D
$PGLOR,0,PPS,040416,190854.999,,,000.000,0,0,0,*06
$GPGSV,4,1,14,25,59,144,33,29,58,019,41,21,54,244,35,20,50,121,33*7B
$GPGSV,4,2,14,31,31,271,32,05,28,060,31,12,23,139,30,26,20,318,16*75
$GPGSV,4,3,14,18,18,182,31,02,03,049,07,07,01,000,,17,01,000,*78
$GPGSV,4,4,14,24,01,000,,30,01,000,*79
$GLGSV,1,1,02,74,01,000,,66,01,000,*64
$GPGSA,A,3,02,05,12,18,20,21,25,26,29,31,,,2.2,1.1,1.9*3C
$GNGSA,A,3,02,05,12,18,20,21,25,26,29,31,,,2.2,1.1,1.9*22
$GNGSA,A,3,,,,,,,,,,,,,2.2,1.1,1.9*24
$QZGSA,A,3,,,,,,,,,,,,,2.2,1.1,1.9*26
$PGLOR,1,FIX,1.0,1.0*20
$GPRMC,190855.00,A,3206.301583,N,03510.719112,E,014.8,070.1,040416,,,A*53
$GPGGA,190856.00,3206.303314,N,03510.723736,E,1,10,0.6,563.3,M,19.0,M,,*61
$PGLOR,1,STA,190856.00,0.035,0.000,-262,1,6,3,P,F,L,0,C,3,S,0012,288,5,R,33F4*74
$PGLOR,1,SAT,G25,033,1F,G29,040,1F,G21,030,1F,G20,032,1F,G31,027,1F,G05,031,1F,G12,023,13,G26,016,13,G18,022,1F,G02,008,$PGLOR,1,SIO,TxERR,0,RxERR,0,TxCNT,284,RxCNT,1272,DTMS,994,DTIN,0,0,DTOUT,371,891,HATMD,-7*22
$PGLOR,0,HLA,190856.00,L,,Al,,A,583,H,,,M,0,Ac,0,Gr,0,S,,,Sx,,,T,0,Tr,,Mn,0*0B
$PGLOR,1,PWR,AvgP,105.320007,RFTm,1000,RunT,1000,OscTm,1000,SlpTm,0,MeasTm,1000*2D
$PGLOR,0,PPS,040416,190855.999,,,000.000,0,0,0,*07
$GPGSV,4,1,14,25,59,144,33,29,58,019,40,21,54,244,34,20,50,121,33*7B
$GPGSV,4,2,14,31,31,271,32,05,28,060,31,12,23,139,29,26,20,318,16*7D
$GPGSV,4,3,14,18,18,182,30,02,03,049,08,07,01,000,,17,01,000,*76
$GPGSV,4,4,14,24,01,000,,30,01,000,*79
$GLGSV,1,1,02,74,01,000,,66,01,000,*64
$GPGSA,A,3,02,05,12,18,20,21,25,26,29,31,,,2.2,1.1,1.9*3C
$GNGSA,A,3,02,05,12,18,20,21,25,26,29,31,,,2.2,1.1,1.9*22
$GNGSA,A,3,,,,,,,,,,,,,2.2,1.1,1.9*24
$QZGSA,A,3,,,,,,,,,,,,,2.2,1.1,1.9*26
$PGLOR,1,FIX,1.0,1.0*20
$GPRMC,190856.00,A,3206.303314,N,03510.723736,E,015.6,069.5,040416,,,A*50
$GPGGA,190857.00,3206.305432,N,03510.728860,E,1,09,0.6,563.1,M,19.0,M,,*68
$PGLOR,1,STA,190857.00,0.035,0.000,-262,1,6,3,P,F,L,0,C,3,S,0012,297,5,R,33F4*7B
$PGLOR,1,SAT,G25,033,1F,G29,041,1F,G21,031,1F,G20,033,1F,G31,028,1F,G05,031,1F,G12,023,17,G26,016,1F,G18,028,1F*6B
$PGLOR,1,SIO,TxERR,0,RxERR,0,TxCNT,268,RxCNT,1264,DTMS,977,DTIN,1,1,DTOUT,367,869,HATMD,-5*28
$PGLOR,0,HLA,190857.00,L,,Al,,A,583,H,,,M,0,Ac,0,Gr,0,S,,,Sx,,,T,0,Tr,,Mn,0*0A
$PGLOR,1,PWR,AvgP,105.320007,RFTm,1000,RunT,1000,OscTm,1000,SlpTm,0,MeasTm,1000*2D
$PGLOR,0,PPS,040416,190856.999,,,000.000,0,0,0,*04
$GPGSV,4,1,14,25,59,144,33,29,58,019,41,21,54,244,34,20,50,121,33*7A
$GPGSV,4,2,14,31,31,271,31,05,28,060,31,12,23,139,28,26,20,318,16*7F
$GPGSV,4,3,14,18,18,182,30,24,01,000,,30,01,000,,07,01,000,*70
