$GNGGA,153432.000,3204.9072,N,03453.8140,E,1,8,1.03,19.6,M,17.0,M,,*77
$GPGSA,A,3,24,14,12,29,06,,,,,,,,1.34,1.03,0.86*05
$GLGSA,A,3,74,85,86,,,,,,,,,,1.34,1.03,0.86*14
$GPGSV,3,1,11,24,63,183,22.4,12,60,005,27.2,02,59,099,16.5,25,38,315,26.7*75
$GPGSV,3,2,11,29,31,249,24.4,06,29,049,11.2,19,14,048,,14,13,298,24.8*6B
$GPGSV,3,3,11,32,10,298,13.4,15,04,196,,05,02,141,*5F
$GLGSV,2,1,5,75,74,009,,85,64,009,22.7,86,51,234,28.9,74,39,132,17.1*46
$GLGSV,2,2,5,84,15,032,*69
$GNRMC,153432.000,A,3204.9072,N,03453.8140,E,0.000,306.74,120416,,,A*41
$GNVTG,306.74,T,,M,0.000,N,0.000,K,A*25
$GNGGA,153433.000,3204.9079,N,03453.8135,E,1,8,1.03,19.7,M,17.0,M,,*7E
$GPGSA,A,3,24,14,12,29,06,,,,,,,,1.34,1.03,0.86*05
$GLGSA,A,3,74,85,86,,,,,,,,,,1.34,1.03,0.86*14
$GPGSV,3,1,11,24,63,183,20.7,12,60,005,24.5,02,59,099,16.5,25,38,315,23.9*7B
$GPGSV,3,2,11,29,31,249,22.5,06,29,049,12.2,19,14,048,,14,13,298,25.9*6F
$GPGSV,3,3,11,32,10,298,13.4,15,04,196,,05,02,141,*5F
$GLGSV,2,1,5,75,74,009,,85,64,009,20.2,86,51,234,26.2,74,39,132,17.1*44
$GLGSV,2,2,5,84,15,032,*69
$GNRMC,153433.000,A,3204.9079,N,03453.8135,E,0.000,306.74,120416,,,A*49
$GNVTG,306.74,T,,M,0.000,N,0.000,K,A*25
$GNGGA,153434.000,3204.9089,N,03453.8132,E,1,8,1.03,19.8,M,17.0,M,,*7E
$GPGSA,A,3,24,14,12,29,06,,,,,,,,1.34,1.03,0.86*05
$GLGSA,A,3,74,85,86,,,,,,,,,,1.34,1.03,0.86*14
$GPGSV,3,1,11,24,63,183,28.3,12,60,005,27.8,02,59,099,14.6,25,38,315,24.4*72
$GPGSV,3,2,11,29,31,249,24.7,06,29,049,12.2,19,14,048,,14,13,298,25.7*65
$GPGSV,3,3,11,32,10,298,28.0,15,04,196,,05,02,141,*53
$GLGSV,2,1,5,75,74,009,,85,64,009,23.5,86,51,234,33.2,74,39,132,17.1*44
$GLGSV,2,2,5,84,15,032,*69
$GNRMC,153434.000,A,3204.9089,N,03453.8132,E,2.618,323.27,120416,,,A*4A
$GNVTG,323.27,T,,M,2.618,N,4.852,K,A*22
$GNGGA,153435.000,3204.9097,N,03453.8129,E,1,8,1.03,19.9,M,17.0,M,,*7B
$GPGSA,A,3,24,14,12,29,06,,,,,,,,1.34,1.03,0.86*05
$GLGSA,A,3,74,85,86,,,,,,,,,,1.34,1.03,0.86*14
$GPGSV,3,1,11,24,63,183,23.3,12,60,005,26.3,02,59,099,14.6,25,38,315,25.0*76
$GPGSV,3,2,11,29,31,249,24.8,06,29,049,21.9,19,14,048,,14,13,298,24.8*6F
$GPGSV,3,3,11,32,10,298,23.8,15,04,196,,05,02,141,*50
$GLGSV,2,1,5,75,74,009,,85,64,009,20.2,86,51,234,27.3,74,39,132,15.4*43
$GLGSV,2,2,5,84,15,032,*69
$GNRMC,153435.000,A,3204.9097,N,03453.8129,E,0.000,323.27,120416,,,A*43
$GNVTG,323.27,T,,M,0.000,N,0.000,K,A*24
$GNGGA,153436.000,3204.9106,N,03453.8126,E,1,8,1.03,20.0,M,17.0,M,,*7D
$GPGSA,A,3,24,14,12,29,06,,,,,,,,1.34,1.03,0.86*05
$GLGSA,A,3,74,85,86,,,,,,,,,,1.34,1.03,0.86*14
$GPGSV,3,1,11,24,63,183,24.1,12,60,005,26.0,02,59,099,14.6,25,38,315,23.9*7F
$GPGSV,3,2,11,29,31,249,22.2,06,29,049,24.1,19,14,048,,14,13,298,21.7*64
$GPGSV,3,3,11,32,10,298,19.7,15,04,196,,05,02,141,*56
$GLGSV,2,1,5,75,74,009,,85,64,009,21.5,86,51,234,22.8,74,39,132,15.4*4B
$GLGSV,2,2,5,84,15,032,*69
$GNRMC,153436.000,A,3204.9106,N,03453.8126,E,2.664,330.71,120416,,,A*41
$GNVTG,330.71,T,,M,2.664,N,4.936,K,A*2B
$GNGGA,153437.000,3204.9115,N,03453.8124,E,1,8,1.03,20.2,M,17.0,M,,*7E
$GPGSA,A,3,24,14,12,29,06,,,,,,,,1.34,1.03,0.86*05
$GLGSA,A,3,74,85,86,,,,,,,,,,1.34,1.03,0.86*14
$GPGSV,3,1,11,24,63,183,21.3,12,60,005,23.4,02,59,099,10.3,25,38,315,21.0*73
$GPGSV,3,2,11,29,31,249,22.2,06,29,049,24.2,19,14,048,,14,13,298,21.7*67
$GPGSV,3,3,11,32,10,298,17.3,15,04,196,,05,02,141,*5C
$GLGSV,2,1,5,75,74,009,,85,64,009,23.5,86,51,234,22.7,74,38,132,15.4*47
$GLGSV,2,2,5,84,15,032,*69
$GNRMC,153437.000,A,3204.9115,N,03453.8124,E,2.705,334.38,120416,,,A*4F
$GNVTG,334.38,T,,M,2.705,N,5.013,K,A*2B
$GNGGA,153438.000,3204.9124,N,03453.8126,E,1,8,1.03,20.3,M,17.0,M,,*70
$GPGSA,A,3,24,14,12,29,06,,,,,,,,1.34,1.03,0.86*05
$GLGSA,A,3,74,85,86,,,,,,,,,,1.34,1.03,0.86*14
$GPGSV,3,1,11,24,63,183,22.5,12,60,005,20.2,02,59,099,10.3,25,38,315,19.0*78
$GPGSV,3,2,11,29,31,249,18.5,06,29,049,24.3,19,14,048,,14,13,298,17.3*69
$GPGSV,3,3,11,32,10,298,15.1,15,04,196,,05,02,141,*5C
$GLGSV,2,1,5,75,74,010,,85,64,009,23.5,86,51,234,23.9,74,38,132,14.4*41
$GLGSV,2,2,5,84,15,032,*69
$GNRMC,153438.000,A,3204.9124,N,03453.8126,E,2.735,340.02,120416,,,A*49
$GNVTG,340.02,T,,M,2.735,N,5.069,K,A*2F
$GNGGA,153439.000,3204.9133,N,03453.8131,E,1,8,1.03,20.4,M,17.0,M,,*76
$GPGSA,A,3,24,14,12,29,06,,,,,,,,1.34,1.03,0.86*05
$GLGSA,A,3,74,85,86,,,,,,,,,,1.34,1.03,0.86*14
$GPGSV,3,1,11,24,63,183,19.5,12,60,005,21.7,02,59,099,10.3,25,38,315,18.5*70
$GPGSV,3,2,11,29,31,249,26.3,06,29,049,25.7,19,14,048,,14,13,298,17.3*67
$GPGSV,3,3,11,32,10,298,16.2,15,04,196,,05,02,141,*5C
$GLGSV,2,1,5,75,74,010,,85,64,009,19.4,86,51,234,25.0,74,38,132,14.4*46
$GLGSV,2,2,5,84,15,032,*69
$GNRMC,153439.000,A,3204.9133,N,03453.8131,E,2.757,348.33,120416,,,A*46
$GNVTG,348.33,T,,M,2.757,N,5.109,K,A*26
$GNGGA,153440.000,3204.9144,N,03453.8135,E,1,8,1.03,20.5,M,17.0,M,,*7D
$GPGSA,A,3,24,14,12,29,06,,,,,,,,1.34,1.03,0.86*05
$GLGSA,A,3,74,85,86,,,,,,,,,,1.34,1.03,0.86*14
$GPGSV,3,1,11,24,63,183,19.5,12,60,005,21.6,02,59,099,14.2,25,38,315,18.9*78
$GPGSV,3,2,11,29,31,249,20.2,06,29,049,25.2,19,14,048,,14,13,298,17.3*65
$GPGSV,3,3,11,32,10,298,16.2,15,04,196,,05,02,141,*5C
$GLGSV,2,1,5,75,74,010,,85,64,009,21.9,86,51,234,23.5,74,38,132,11.2*40
$GLGSV,2,2,5,84,15,032,*69
$GNRMC,153440.000,A,3204.9144,N,03453.8135,E,2.811,354.44,120416,,,A*4C
$GNVTG,354.44,T,,M,2.811,N,5.209,K,A*25
$GNGGA,153441.000,3204.9153,N,03453.8136,E,1,8,1.03,20.6,M,17.0,M,,*7A
$GPGSA,A,3,24,14,12,29,06,,,,,,,,1.34,1.03,0.86*05
$GLGSA,A,3,74,85,86,,,,,,,,,,1.34,1.03,0.86*14
$GPGSV,3,1,11,24,63,183,16.6,12,60,005,16.3,02,59,099,14.2,25,38,315,16.2*70
$GPGSV,3,2,11,29,31,249,22.7,06,29,049,24.0,19,14,048,,14,13,298,13.7*61
$GPGSV,3,3,11,32,10,298,12.8,15,04,196,,05,02,141,*52
$GLGSV,2,1,5,75,74,010,,85,64,009,17.6,86,51,234,23.1,74,38,132,11.2*4E
$GLGSV,2,2,5,84,15,032,*69
$GNRMC,153441.000,A,3204.9153,N,03453.8136,E,2.867,356.74,120416,,,A*48
$GNVTG,356.74,T,,M,2.867,N,5.313,K,A*2F
$GNGGA,153442.000,3204.9161,N,03453.8136,E,1,8,1.03,20.7,M,17.0,M,,*79
$GPGSA,A,3,24,14,12,29,06,,,,,,,,1.34,1.03,0.86*05
$GLGSA,A,3,74,85,86,,,,,,,,,,1.34,1.03,0.86*14
$GPGSV,3,1,11,24,63,183,16.6,12,60,005,16.3,02,59,099,19.8,25,38,315,15.8*7E
$GPGSV,3,2,11,29,31,249,24.0,06,29,049,21.6,19,14,048,,14,13,298,13.7*63
$GPGSV,3,3,11,32,10,298,12.8,15,04,196,,05,02,141,*52
$GLGSV,2,1,5,75,74,010,,85,64,009,17.6,86,51,234,24.5,74,38,132,11.2*4D
$GLGSV,2,2,5,84,15,032,*69
$GNRMC,153442.000,A,3204.9161,N,03453.8136,E,2.898,358.86,120416,,,A*49
$GNVTG,358.86,T,,M,2.898,N,5.369,K,A*21
$GNGGA,153443.000,3204.9166,N,03453.8132,E,1,8,1.03,20.8,M,17.0,M,,*74
$GPGSA,A,3,24,14,12,29,06,,,,,,,,1.34,1.03,0.86*05
$GLGSA,A,3,74,85,86,,,,,,,,,,1.34,1.03,0.86*14
$GPGSV,3,1,11,24,63,183,13.7,12,60,005,28.2,02,59,099,20.3,25,38,315,17.9*74
$GPGSV,3,2,11,29,31,249,20.1,06,29,049,27.0,19,14,048,,14,13,298,13.7*66
$GPGSV,3,3,11,32,10,298,15.6,15,04,196,,05,02,141,*5B
$GLGSV,2,1,5,75,74,010,,85,64,009,17.6,86,51,234,24.5,74,38,132,11.2*4D
$GLGSV,2,2,5,84,15,032,*69
$GNRMC,153443.000,A,3204.9166,N,03453.8132,E,2.140,348.85,120416,,,A*45
$GNVTG,348.85,T,,M,2.140,N,3.965,K,A*2F
$GNGGA,153444.000,3204.9171,N,03453.8133,E,1,8,1.03,20.9,M,17.0,M,,*75
$GPGSA,A,3,24,14,12,29,06,,,,,,,,1.34,1.03,0.86*05
$GLGSA,A,3,74,85,86,,,,,,,,,,1.34,1.03,0.86*14
$GPGSV,3,1,11,24,63,183,13.7,12,60,005,23.3,02,59,099,,25,38,315,16.8*61
$GPGSV,3,2,11,29,31,249,19.3,06,29,049,21.1,19,14,048,17.1,14,13,298,12.8*7E
$GPGSV,3,3,11,32,10,298,15.6,15,04,196,,05,02,141,*5B
$GLGSV,2,1,5,75,74,010,,85,64,009,19.6,86,51,234,19.3,74,38,132,11.2*4B
$GLGSV,2,2,5,84,15,032,*69
$GNRMC,153444.000,A,3204.9171,N,03453.8133,E,0.000,5.70,120416,,,A*42
$GNVTG,5.70,T,,M,0.000,N,0.000,K,A*21
$GNGGA,153445.000,3204.9170,N,03453.8134,E,1,8,1.03,21.0,M,17.0,M,,*7A
$GPGSA,A,3,24,14,12,29,06,,,,,,,,1.34,1.03,0.86*05
$GLGSA,A,3,74,85,86,,,,,,,,,,1.34,1.03,0.86*14
$GPGSV,3,1,11,24,63,183,13.7,12,60,005,25.9,02,59,099,,25,38,315,20.9*69
$GPGSV,3,2,11,29,31,249,19.2,06,29,049,25.2,19,14,048,17.4,14,13,298,12.8*7D
$GPGSV,3,3,11,32,10,298,15.6,15,04,196,,05,02,141,*5B
$GLGSV,2,1,5,75,74,010,,85,64,009,21.0,86,51,234,19.3,74,38,132,13.8*4E
$GLGSV,2,2,5,84,15,032,*69
$GNRMC,153445.000,A,3204.9170,N,03453.8134,E,0.000,5.70,120416,,,A*45
$GNVTG,5.70,T,,M,0.000,N,0.000,K,A*21
$GNGGA,153446.000,3204.9169,N,03453.8139,E,1,8,1.03,21.1,M,17.0,M,,*7D
$GPGSA,A,3,24,14,12,29,06,,,,,,,,1.34,1.03,0.86*05
$GLGSA,A,3,74,85,86,,,,,,,,,,1.34,1.03,0.86*14
$GPGSV,3,1,11,24,63,183,12.4,12,60,005,24.5,02,59,099,,25,38,315,20.3*6C
$GPGSV,3,2,11,29,31,249,19.2,06,29,049,23.1,19,14,048,19.6,14,13,298,17.2*7B
$GPGSV,3,3,11,32,10,298,17.5,15,04,196,,05,02,141,*5A
$GLGSV,2,1,5,75,74,010,,85,64,009,20.6,86,51,234,19.2,74,38,132,13.8*48
$GLGSV,2,2,5,84,15,032,*69
$GNRMC,153446.000,A,3204.9169,N,03453.8139,E,0.000,132.94,120416,,,A*4C
$GNVTG,132.94,T,,M,0.000,N,0.000,K,A*2E
$GNGGA,153447.000,3204.9169,N,03453.8139,E,1,8,1.03,21.1,M,17.0,M,,*7C
$GPGSA,A,3,24,14,12,29,06,,,,,,,,1.34,1.03,0.86*05
$GLGSA,A,3,74,85,86,,,,,,,,,,1.34,1.03,0.86*14
$GPGSV,3,1,11,24,63,183,12.4,12,60,005,23.6,02,59,099,11.2,25,38,315,18.7*7B
$GPGSV,3,2,11,29,31,249,18.3,06,29,049,25.9,19,14,048,18.9,14,13,298,17.2*7B
$GPGSV,3,3,11,32,10,298,17.5,15,04,196,,05,02,141,*5A
$GLGSV,2,1,5,75,74,010,,85,64,009,18.9,86,51,234,22.8,74,38,132,13.8*4E
$GLGSV,2,2,5,84,15,032,*69
$GNRMC,153447.000,A,3204.9169,N,03453.8139,E,0.000,132.94,120416,,,A*4D
$GNVTG,132.94,T,,M,0.000,N,0.000,K,A*2E
$GNGGA,153448.000,3204.9169,N,03453.8139,E,1,8,1.03,21.1,M,17.0,M,,*73
$GPGSA,A,3,24,14,12,29,06,,,,,,,,1.34,1.03,0.86*05
$GLGSA,A,3,74,85,86,,,,,,,,,,1.34,1.03,0.86*14
$GPGSV,3,1,11,24,63,183,14.1,12,60,005,25.6,02,59,099,11.2,25,38,315,19.9*71
$GPGSV,3,2,11,29,31,249,19.2,06,29,049,27.3,19,14,048,19.7,14,13,298,17.2*7C
$GPGSV,3,3,11,32,10,298,18.7,15,04,196,,05,02,141,*57
$GLGSV,2,1,5,75,74,010,,85,64,010,22.3,86,51,234,24.8,74,38,132,12.4*4E
$GLGSV,2,2,5,84,15,032,*69
$GNRMC,153448.000,A,3204.9169,N,03453.8139,E,0.000,132.94,120416,,,A*42
$GNVTG,132.94,T,,M,0.000,N,0.000,K,A*2E
$GNGGA,153449.000,3204.9188,N,03453.8136,E,1,8,1.03,21.2,M,17.0,M,,*71
$GPGSA,A,3,24,14,12,29,06,,,,,,,,1.34,1.03,0.86*05
$GLGSA,A,3,74,85,86,,,,,,,,,,1.34,1.03,0.86*14
$GPGSV,3,1,11,24,63,183,14.1,12,60,005,23.3,02,59,099,11.7,25,38,315,18.5*7A
$GPGSV,3,2,11,29,31,249,22.7,06,29,049,25.9,19,14,048,18.6,14,13,298,13.3*7C
$GPGSV,3,3,11,32,10,298,19.8,15,04,196,,05,02,141,*59
$GLGSV,2,1,5,75,74,010,,85,64,010,22.3,86,52,235,22.8,74,38,132,12.4*4A
$GLGSV,2,2,5,84,15,032,*69
$GNRMC,153449.000,A,3204.9188,N,03453.8136,E,0.000,132.94,120416,,,A*43
$GNVTG,132.94,T,,M,0.000,N,0.000,K,A*2E
$GNGGA,153450.000,3204.9187,N,03453.8140,E,1,7,1.32,20.4,M,17.0,M,,*7D
$GPGSA,A,3,24,14,12,29,06,,,,,,,,1.60,1.32,0.89*09
$GLGSA,A,3,85,86,,,,,,,,,,,1.60,1.32,0.89*1B
$GPGSV,3,1,11,24,63,183,14.1,12,60,005,23.3,02,59,099,11.7,25,38,315,18.0*7F
$GPGSV,3,2,11,29,31,249,23.2,06,29,049,24.2,19,14,048,16.1,14,13,298,13.3*7B
$GPGSV,3,3,11,32,10,298,18.0,15,04,196,,05,02,141,*50
$GLGSV,2,1,5,75,74,010,,85,64,010,19.6,86,52,235,26.2,74,38,132,*50
$GLGSV,2,2,5,84,15,032,*69
$GNRMC,153450.000,A,3204.9187,N,03453.8140,E,0.000,132.94,120416,,,A*45
$GNVTG,132.94,T,,M,0.000,N,0.000,K,A*2E
$GNGGA,153451.000,3204.9177,N,03453.8139,E,1,7,1.32,19.4,M,17.0,M,,*77
$GPGSA,A,3,24,14,12,29,06,,,,,,,,1.60,1.32,0.89*09
$GLGSA,A,3,85,86,,,,,,,,,,,1.60,1.32,0.89*1B
$GPGSV,3,1,11,24,63,183,15.1,12,60,005,27.1,02,59,099,11.7,25,38,315,18.3*7B
$GPGSV,3,2,11,29,31,249,22.8,06,29,049,29.6,19,14,048,16.1,14,13,298,12.8*73
$GPGSV,3,3,11,32,10,298,16.3,15,04,196,,05,02,141,*5D
$GLGSV,2,1,5,75,74,010,,85,64,010,22.7,86,52,235,25.7,74,38,132,*5F
$GLGSV,2,2,5,84,15,032,*69
$GNRMC,153451.000,A,3204.9177,N,03453.8139,E,0.000,132.94,120416,,,A*45
$GNVTG,132.94,T,,M,0.000,N,0.000,K,A*2E
$GNGGA,153452.000,3204.9161,N,03453.8156,E,1,7,1.32,18.4,M,17.0,M,,*7B
$GPGSA,A,3,24,14,12,29,06,,,,,,,,1.60,1.32,0.89*09
$GLGSA,A,3,85,86,,,,,,,,,,,1.60,1.32,0.89*1B
$GPGSV,3,1,11,24,63,183,15.1,12,60,005,22.5,02,59,099,13.3,25,38,315,18.3*7C
$GPGSV,3,2,11,29,31,249,19.7,06,29,049,22.8,19,14,048,17.5,14,13,298,12.8*74
$GPGSV,3,3,11,32,10,298,13.7,15,04,196,,05,02,141,*5C
$GLGSV,2,1,5,75,74,010,,85,64,010,22.7,86,52,235,23.8,74,38,132,*56
$GLGSV,2,2,5,84,15,032,*69
$GNRMC,153452.000,A,3204.9161,N,03453.8156,E,0.000,132.94,120416,,,A*48
$GNVTG,132.94,T,,M,0.000,N,0.000,K,A*2E
$GNGGA,153453.000,3204.9143,N,03453.8186,E,1,7,1.32,17.3,M,17.0,M,,*7F
$GPGSA,A,3,24,14,12,29,06,,,,,,,,1.60,1.32,0.89*09
$GLGSA,A,3,85,86,,,,,,,,,,,1.60,1.32,0.89*1B
$GPGSV,3,1,11,24,63,183,15.1,12,60,005,24.7,02,59,097,13.3,25,38,315,17.1*7B
$GPGSV,3,2,11,29,31,249,20.0,06,29,049,22.8,19,14,048,15.6,14,13,298,12.8*78
$GPGSV,3,3,11,32,10,298,21.4,15,04,196,,05,02,141,*5E
$GLGSV,2,1,5,75,74,010,,85,64,010,18.7,86,52,235,26.3,74,38,132,*51
$GLGSV,2,2,5,84,15,032,*69
$GNRMC,153453.000,A,3204.9143,N,03453.8186,E,9.241,138.88,120416,,,A*4D
$GNVTG,138.88,T,,M,9.241,N,17.124,K,A*16
$GNGGA,153454.000,3204.9133,N,03453.8214,E,1,7,1.32,16.3,M,17.0,M,,*76
$GPGSA,A,3,24,14,12,29,06,,,,,,,,1.60,1.32,0.89*09
$GLGSA,A,3,85,86,,,,,,,,,,,1.60,1.32,0.89*1B
$GPGSV,3,1,11,24,63,183,10.2,12,60,005,25.2,02,59,097,13.3,25,38,315,22.1*7F
$GPGSV,3,2,11,29,31,249,22.9,06,29,049,16.7,19,14,048,12.3,14,13,298,19.5*7F
$GPGSV,3,3,11,32,10,298,19.4,15,04,196,,05,02,141,*55
$GLGSV,2,1,5,75,74,010,,85,64,010,18.7,86,52,235,26.6,74,38,132,*54
$GLGSV,2,2,5,84,15,032,*69
$GNRMC,153454.000,A,3204.9133,N,03453.8214,E,9.952,129.10,120416,,,A*4D
$GNVTG,129.10,T,,M,9.952,N,18.442,K,A*14
$GNGGA,153455.000,3204.9134,N,03453.8223,E,1,7,1.32,15.2,M,17.0,M,,*76
$GPGSA,A,3,24,14,12,29,06,,,,,,,,1.60,1.32,0.89*09
$GLGSA,A,3,85,86,,,,,,,,,,,1.60,1.32,0.89*1B
$GPGSV,3,1,11,24,63,183,10.2,12,60,005,22.7,02,59,097,13.0,25,38,315,20.1*7C
$GPGSV,3,2,11,29,31,249,24.6,06,29,049,16.7,19,14,048,12.3,14,13,298,19.9*7A
$GPGSV,3,3,11,32,10,298,18.5,15,04,196,,05,02,141,*55
$GLGSV,2,1,5,75,74,010,,85,64,010,18.7,86,52,235,27.0,74,38,132,*53
$GLGSV,2,2,5,84,15,032,*69
$GNRMC,153455.000,A,3204.9134,N,03453.8223,E,8.506,130.07,120416,,,A*4D
$GNVTG,130.07,T,,M,8.506,N,15.762,K,A*1A
$GNGGA,153456.000,3204.9115,N,03453.8242,E,1,7,1.32,14.1,M,17.0,M,,*73
$GPGSA,A,3,24,14,12,29,06,,,,,,,,1.60,1.32,0.89*09
$GLGSA,A,3,85,86,,,,,,,,,,,1.60,1.32,0.89*1B
$GPGSV,3,1,11,24,63,183,11.2,12,60,005,26.7,02,59,097,13.0,25,38,315,27.2*7D
$GPGSV,3,2,11,29,31,249,22.9,06,29,049,17.2,19,14,048,12.3,14,13,298,18.6*79
$GPGSV,3,3,11,32,10,298,17.9,15,04,196,,05,02,140,*57
$GLGSV,2,1,5,75,74,010,,85,64,010,18.0,86,52,235,23.1,74,38,132,*51
$GLGSV,2,2,5,84,15,032,*69
$GNRMC,153456.000,A,3204.9115,N,03453.8242,E,8.861,134.66,120416,,,A*45
$GNVTG,134.66,T,,M,8.861,N,16.419,K,A*19
$GNGGA,153457.000,3204.9102,N,03453.8258,E,1,7,1.32,13.0,M,17.0,M,,*79
$GPGSA,A,3,24,14,12,29,06,,,,,,,,1.60,1.32,0.89*09
$GLGSA,A,3,85,86,,,,,,,,,,,1.60,1.32,0.89*1B
$GPGSV,3,1,11,24,63,183,11.2,12,60,005,25.7,02,59,097,13.2,25,38,315,25.4*78
$GPGSV,3,2,11,29,31,249,22.9,06,28,049,17.2,19,14,048,12.9,14,13,298,18.2*76
$GPGSV,3,3,11,32,10,298,17.9,15,04,196,,05,02,140,*57
$GLGSV,2,1,5,75,74,010,,85,64,010,19.7,86,52,235,21.3,74,38,132,*57
$GLGSV,2,2,5,84,15,032,*69
$GNRMC,153457.000,A,3204.9102,N,03453.8258,E,8.915,133.79,120416,,,A*42
$GNVTG,133.79,T,,M,8.915,N,16.520,K,A*19
$GNGGA,153458.000,3204.9093,N,03453.8282,E,1,7,1.32,11.9,M,17.0,M,,*73
$GPGSA,A,3,24,14,12,29,06,,,,,,,,1.60,1.32,0.89*09
$GLGSA,A,3,85,86,,,,,,,,,,,1.60,1.32,0.89*1B
$GPGSV,3,1,11,24,63,183,11.2,12,60,005,18.6,02,59,097,13.2,25,38,315,24.2*70
$GPGSV,3,2,11,29,31,249,22.9,06,28,049,12.5,19,14,048,12.9,14,13,298,18.2*74
$GPGSV,3,3,11,32,10,298,20.0,15,04,196,,05,02,140,*5A
$GLGSV,2,1,5,75,74,010,,85,64,010,19.7,86,52,235,21.9,74,38,132,*5D
$GLGSV,2,2,5,84,15,032,*69
$GNRMC,153458.000,A,3204.9093,N,03453.8282,E,8.959,126.18,120416,,,A*48
$GNVTG,126.18,T,,M,8.959,N,16.601,K,A*12
$GNGGA,153459.000,3204.9077,N,03453.8310,E,1,7,1.32,10.8,M,17.0,M,,*72
$GPGSA,A,3,24,14,12,29,06,,,,,,,,1.60,1.32,0.89*09
$GLGSA,A,3,85,86,,,,,,,,,,,1.60,1.32,0.89*1B
$GPGSV,3,1,11,24,63,183,10.6,12,60,005,18.6,02,59,097,13.2,25,38,315,24.1*76
$GPGSV,3,2,11,29,31,249,18.9,06,28,049,12.5,19,14,048,11.9,14,13,298,19.5*78
$GPGSV,3,3,11,32,10,298,19.6,15,04,196,,05,02,140,*56
$GLGSV,2,1,5,75,74,010,,85,64,010,10.8,86,52,235,20.8,74,38,132,*5B
$GLGSV,2,2,5,84,15,032,*69
$GNRMC,153459.000,A,3204.9077,N,03453.8310,E,9.035,126.00,120416,,,A*42
$GNVTG,126.00,T,,M,9.035,N,16.742,K,A*1F
$GNGGA,153500.000,3204.9062,N,03453.8339,E,1,7,1.32,9.6,M,17.0,M,,*46
$GPGSA,A,3,24,14,12,29,06,,,,,,,,1.60,1.32,0.89*09
$GLGSA,A,3,85,86,,,,,,,,,,,1.60,1.32,0.89*1B
$GPGSV,3,1,11,24,63,183,10.6,12,60,005,18.6,02,59,097,10.4,25,38,315,23.5*70
$GPGSV,3,2,11,29,31,249,18.9,06,28,049,18.0,19,14,048,11.9,14,13,298,21.0*79
$GPGSV,3,3,11,32,10,298,18.1,15,04,196,,05,02,140,*50
$GLGSV,2,1,5,75,74,010,,85,64,010,10.8,86,52,235,20.8,74,38,132,*5B
$GLGSV,2,2,5,84,15,032,*69
$GNRMC,153500.000,A,3204.9062,N,03453.8339,E,9.060,123.67,120416,,,A*44
$GNVTG,123.67,T,,M,9.060,N,16.788,K,A*1D
$GNGGA,153501.000,3204.9049,N,03453.8324,E,1,7,1.32,8.6,M,17.0,M,,*43
$GPGSA,A,3,24,14,12,29,06,,,,,,,,1.60,1.32,0.89*09
$GLGSA,A,3,85,86,,,,,,,,,,,1.60,1.32,0.89*1B
$GPGSV,3,1,11,24,63,183,10.5,12,60,005,21.0,02,59,097,10.4,25,38,315,18.3*71
$GPGSV,3,2,11,29,31,249,14.9,06,28,049,22.5,19,14,048,11.9,14,13,298,18.8*7B
$GPGSV,3,3,11,32,10,298,19.0,15,04,196,,05,02,140,*50
$GLGSV,2,1,5,75,74,010,,85,64,010,10.8,86,52,235,25.0,74,38,132,*56
$GLGSV,2,2,5,84,15,032,*69
$GNRMC,153501.000,A,3204.9049,N,03453.8324,E,7.955,135.10,120416,,,A*46
$GNVTG,135.10,T,,M,7.955,N,14.741,K,A*1C
$GNGGA,153502.000,3204.9041,N,03453.8321,E,1,7,1.32,8.5,M,17.0,M,,*4E
$GPGSA,A,3,24,14,12,29,06,,,,,,,,1.60,1.32,0.89*09
$GLGSA,A,3,85,86,,,,,,,,,,,1.60,1.32,0.89*1B
$GPGSV,3,1,11,24,63,183,10.5,12,60,005,27.4,02,59,097,27.0,25,38,315,18.3*73
$GPGSV,3,2,11,29,31,249,20.3,06,28,049,20.2,19,14,048,12.7,14,13,298,21.9*75
$GPGSV,3,3,11,32,10,298,26.7,15,04,196,,05,02,140,*5B
$GLGSV,2,1,5,75,74,010,,85,64,010,19.6,86,52,235,22.9,74,38,132,*5F
$GLGSV,2,2,5,84,15,032,*69
$GNRMC,153502.000,A,3204.9041,N,03453.8321,E,7.577,136.86,120416,,,A*48
$GNVTG,136.86,T,,M,7.577,N,14.040,K,A*1A
$GNGGA,153503.000,3204.9037,N,03453.8320,E,1,7,1.32,7.7,M,17.0,M,,*42
$GPGSA,A,3,24,14,12,29,06,,,,,,,,1.60,1.32,0.89*09
$GLGSA,A,3,85,86,,,,,,,,,,,1.60,1.32,0.89*1B
$GPGSV,3,1,11,24,63,183,10.5,12,61,007,27.2,02,59,097,22.9,25,38,315,15.0*74
$GPGSV,3,2,11,29,31,249,20.3,06,28,049,19.3,19,14,048,12.7,14,13,298,21.9*7E
$GPGSV,3,3,11,32,10,298,19.4,15,04,196,,05,02,140,*54
$GLGSV,2,1,5,75,74,010,,85,64,010,19.1,86,52,235,22.9,74,38,132,*58
$GLGSV,2,2,5,84,15,032,*69
$GNRMC,153503.000,A,3204.9037,N,03453.8320,E,6.666,133.35,120416,,,A*46
$GNVTG,133.35,T,,M,6.666,N,12.352,K,A*13
$GNGGA,153504.000,3204.9030,N,03453.8318,E,1,7,1.32,6.8,M,17.0,M,,*47
$GPGSA,A,3,24,14,12,29,06,,,,,,,,1.60,1.32,0.89*09
$GLGSA,A,3,85,86,,,,,,,,,,,1.60,1.32,0.89*1B
$GPGSV,3,1,11,24,63,183,10.5,12,61,007,28.4,02,59,097,26.8,25,38,315,19.0*74
$GPGSV,3,2,11,29,31,249,20.3,06,28,049,21.9,19,14,048,23.4,14,13,298,22.9*7D
$GPGSV,3,3,11,32,10,298,19.9,15,04,196,,05,02,140,*59
$GLGSV,2,1,5,75,74,010,,85,64,010,24.3,86,52,235,24.1,74,38,132,*5A
$GLGSV,2,2,5,84,15,032,*69
$GNRMC,153504.000,A,3204.9030,N,03453.8318,E,5.960,133.94,120416,,,A*4C
$GNVTG,133.94,T,,M,5.960,N,11.044,K,A*15
$GNGGA,153505.000,3204.9026,N,03453.8322,E,1,7,1.32,6.0,M,17.0,M,,*40
$GPGSA,A,3,24,14,12,29,06,,,,,,,,1.60,1.32,0.89*09
$GLGSA,A,3,85,86,,,,,,,,,,,1.60,1.32,0.89*1B
$GPGSV,3,1,11,24,63,183,10.5,12,61,007,25.9,02,59,097,21.2,25,38,315,15.1*74
$GPGSV,3,2,11,29,31,249,19.0,06,28,049,19.2,19,14,048,19.4,14,13,298,24.4*76
$GPGSV,3,3,11,32,10,298,19.3,15,04,196,,05,02,140,*53
$GLGSV,2,1,5,75,74,010,,85,64,010,24.8,86,52,235,24.6,74,38,132,*56
$GLGSV,2,2,5,84,15,032,*69
$GNRMC,153505.000,A,3204.9026,N,03453.8322,E,5.666,133.69,120416,,,A*48
$GNVTG,133.69,T,,M,5.666,N,10.499,K,A*1B
$GNGGA,153506.000,3204.9029,N,03453.8326,E,1,8,1.03,5.1,M,17.0,M,,*47
$GPGSA,A,3,24,14,12,29,06,,,,,,,,1.34,1.03,0.86*05
$GLGSA,A,3,74,85,86,,,,,,,,,,1.34,1.03,0.86*14
$GPGSV,3,1,11,24,63,183,13.9,12,61,007,24.3,02,59,097,22.4,25,38,315,15.1*75
$GPGSV,3,2,11,29,31,249,17.7,06,28,049,19.2,19,14,048,19.5,14,13,298,20.6*78
$GPGSV,3,3,11,32,10,298,20.9,15,03,196,,05,02,140,*54
$GLGSV,2,1,5,75,74,010,,85,64,010,21.7,86,52,235,20.9,74,38,132,23.3*4B
$GLGSV,2,2,5,84,15,032,*69
$GNRMC,153506.000,A,3204.9029,N,03453.8326,E,5.248,128.00,120416,,,A*4D
$GNVTG,128.00,T,,M,5.248,N,9.725,K,A*2A
$GNGGA,153507.000,3204.9043,N,03453.8333,E,1,8,1.03,4.3,M,17.0,M,,*4D
$GPGSA,A,3,24,14,12,29,06,,,,,,,,1.34,1.03,0.86*05
$GLGSA,A,3,74,85,86,,,,,,,,,,1.34,1.03,0.86*14
$GPGSV,3,1,11,24,63,183,13.9,12,61,007,23.9,02,59,097,23.3,25,38,315,21.5*7D
$GPGSV,3,2,11,29,31,249,19.6,06,28,049,15.6,19,14,048,18.2,14,13,298,19.9*7C
$GPGSV,3,3,11,32,10,298,18.5,15,03,196,,05,02,140,*53
$GLGSV,2,1,5,75,74,010,,85,64,010,21.7,86,52,235,24.1,74,38,132,23.5*41
$GLGSV,2,2,5,84,15,032,*69
$GNRMC,153507.000,A,3204.9043,N,03453.8333,E,4.624,111.20,120416,,,A*43
$GNVTG,111.20,T,,M,4.624,N,8.567,K,A*28
$GNGGA,153508.000,3204.9058,N,03453.8338,E,1,8,1.03,3.4,M,17.0,M,,*43
$GPGSA,A,3,24,14,12,29,06,,,,,,,,1.34,1.03,0.86*05
$GLGSA,A,3,74,85,86,,,,,,,,,,1.34,1.03,0.86*14
$GPGSV,3,1,11,24,63,183,13.9,12,61,007,25.8,02,59,097,19.9,25,38,315,18.8*7E
$GPGSV,3,2,11,29,31,249,18.6,06,28,049,15.6,19,14,048,17.9,14,13,298,19.9*79
$GPGSV,3,3,11,32,10,298,17.9,15,03,196,,05,02,140,*50
$GLGSV,2,1,5,75,74,010,,85,64,010,18.8,86,52,235,24.1,74,38,132,21.0*43
$GLGSV,2,2,5,84,15,032,*69
$GNRMC,153508.000,A,3204.9058,N,03453.8338,E,3.894,92.57,120416,,,A*75
$GNVTG,92.57,T,,M,3.894,N,7.215,K,A*1D
$GNGGA,153509.000,3204.9072,N,03453.8347,E,1,8,1.03,2.6,M,17.0,M,,*41
$GPGSA,A,3,24,14,12,29,06,,,,,,,,1.34,1.03,0.86*05
$GLGSA,A,3,74,85,86,,,,,,,,,,1.34,1.03,0.86*14
$GPGSV,3,1,11,24,63,183,11.8,12,61,007,24.6,02,59,097,18.7,25,38,315,17.0*7A
$GPGSV,3,2,11,29,31,249,22.5,06,28,049,15.6,19,14,048,19.5,14,13,298,16.5*72
$GPGSV,3,3,11,32,10,298,17.0,15,03,196,,05,02,140,*59
$GLGSV,2,1,5,75,74,010,,85,64,010,20.9,86,52,235,22.4,74,38,132,19.9*48
$GLGSV,2,2,5,84,15,032,*69
$GNRMC,153509.000,A,3204.9072,N,03453.8347,E,3.841,81.54,120416,,,A*7D
$GNVTG,81.54,T,,M,3.841,N,7.117,K,A*15
$GNGGA,153510.000,3204.9085,N,03453.8349,E,1,8,1.03,1.8,M,17.0,M,,*42
$GPGSA,A,3,24,14,12,29,06,,,,,,,,1.34,1.03,0.86*05
$GLGSA,A,3,74,85,86,,,,,,,,,,1.34,1.03,0.86*14
$GPGSV,3,1,11,24,63,183,11.8,12,61,007,23.3,02,59,097,18.0,25,38,315,17.0*7F
$GPGSV,3,2,11,29,31,249,22.2,06,28,049,24.4,19,14,048,17.9,14,13,298,16.5*77
$GPGSV,3,3,11,32,10,298,15.8,15,03,196,,05,02,140,*53
$GLGSV,2,1,5,75,74,010,,85,64,010,20.9,86,52,235,21.2,74,38,132,21.8*47
$GLGSV,2,2,5,84,15,032,*69
$GNRMC,153510.000,A,3204.9085,N,03453.8349,E,3.763,68.41,120416,,,A*7F
$GNVTG,68.41,T,,M,3.763,N,6.973,K,A*12
$GNGGA,153511.000,3204.9098,N,03453.8354,E,1,8,1.03,0.9,M,17.0,M,,*43
$GPGSA,A,3,24,14,12,29,06,,,,,,,,1.34,1.03,0.86*05
$GLGSA,A,3,74,85,86,,,,,,,,,,1.34,1.03,0.86*14
$GPGSV,3,1,11,24,63,183,11.8,12,61,007,23.6,02,59,097,15.8,25,38,315,14.1*7D
$GPGSV,3,2,11,29,31,249,22.0,06,28,049,23.6,19,14,048,17.5,14,13,298,16.5*7C
$GPGSV,3,3,11,32,10,298,11.6,15,03,196,,05,02,140,*59
$GLGSV,2,1,5,75,74,010,,85,64,010,19.7,86,52,235,25.0,74,38,132,21.8*45
$GLGSV,2,2,5,84,15,032,*69
$GNRMC,153511.000,A,3204.9098,N,03453.8354,E,3.691,60.17,120416,,,A*79
$GNVTG,60.17,T,,M,3.691,N,6.839,K,A*1A
$GNGGA,153512.000,3204.9111,N,03453.8368,E,1,8,1.03,0.1,M,17.0,M,,*47
$GPGSA,A,3,24,14,12,29,06,,,,,,,,1.34,1.03,0.86*05
$GLGSA,A,3,74,85,86,,,,,,,,,,1.34,1.03,0.86*14
$GPGSV,3,1,11,24,63,183,14.0,12,61,007,23.6,02,59,097,15.8,25,38,315,14.1*70
$GPGSV,3,2,11,29,31,249,23.5,06,28,049,24.5,19,14,048,17.2,14,13,298,14.2*7E
$GPGSV,3,3,11,32,10,298,11.6,15,03,196,,05,02,140,*59
$GLGSV,2,1,5,75,74,010,,85,64,010,19.7,86,52,235,25.0,74,38,132,18.6*41
$GLGSV,2,2,5,84,15,032,*69
$GNRMC,153512.000,A,3204.9111,N,03453.8368,E,3.467,61.64,120416,,,A*7B
$GNVTG,61.64,T,,M,3.467,N,6.424,K,A*14
$GNGGA,153513.000,3204.9121,N,03453.8381,E,1,8,1.03,-0.8,M,17.0,M,,*66
$GPGSA,A,3,24,14,12,29,06,,,,,,,,1.34,1.03,0.86*05
$GLGSA,A,3,74,85,86,,,,,,,,,,1.34,1.03,0.86*14
$GPGSV,3,1,11,24,63,183,14.0,12,61,007,25.2,02,59,097,15.8,25,38,315,20.6*72
$GPGSV,3,2,11,29,31,249,22.1,06,28,049,24.1,19,14,048,16.8,14,13,298,14.2*74
$GPGSV,3,3,11,32,10,298,15.1,15,03,196,,05,02,140,*5A
$GLGSV,2,1,5,75,74,010,,85,64,010,22.8,86,52,235,21.5,74,38,132,18.6*47
$GLGSV,2,2,5,84,15,032,*69
$GNRMC,153513.000,A,3204.9121,N,03453.8381,E,3.491,59.00,120416,,,A*7E
$GNVTG,59.00,T,,M,3.491,N,6.469,K,A*1D
$GNGGA,153514.000,3204.9125,N,03453.8397,E,1,8,1.03,-1.6,M,17.0,M,,*6D
$GPGSA,A,3,24,14,12,29,06,,,,,,,,1.34,1.03,0.86*05
$GLGSA,A,3,74,85,86,,,,,,,,,,1.34,1.03,0.86*14
$GPGSV,3,1,11,24,63,183,11.2,12,61,007,24.2,02,59,097,20.3,25,38,315,23.6*7A
$GPGSV,3,2,11,29,31,249,22.1,06,28,049,22.5,19,14,048,14.6,14,13,298,13.8*77
$GPGSV,3,3,11,32,10,298,15.1,15,03,196,,05,02,140,*5A
$GLGSV,2,1,5,75,74,010,,85,64,010,22.8,86,52,235,21.5,74,38,132,23.0*49
$GLGSV,2,2,5,84,15,032,*69
$GNRMC,153514.000,A,3204.9125,N,03453.8397,E,3.739,60.35,120416,,,A*77
$GNVTG,60.35,T,,M,3.739,N,6.929,K,A*19
$GNGGA,153515.000,3204.9130,N,03453.8408,E,1,8,1.03,-2.5,M,17.0,M,,*69
$GPGSA,A,3,24,14,12,29,06,,,,,,,,1.34,1.03,0.86*05
$GLGSA,A,3,74,85,86,,,,,,,,,,1.34,1.03,0.86*14
$GPGSV,3,1,11,24,62,183,11.2,12,61,007,26.1,02,59,097,22.6,25,38,315,22.7*7D
$GPGSV,3,2,11,29,31,249,21.8,06,28,049,21.5,19,14,048,14.6,14,13,298,13.8*7E
$GPGSV,3,3,11,32,10,298,15.1,15,03,196,,05,02,140,*5A
$GLGSV,2,1,5,75,74,010,,85,64,010,22.6,86,52,235,21.5,74,38,132,25.2*43
$GLGSV,2,2,5,84,15,032,*69
$GNRMC,153515.000,A,3204.9130,N,03453.8408,E,3.691,60.39,120416,,,A*7C
$GNVTG,60.39,T,,M,3.691,N,6.839,K,A*16
$GNGGA,153516.000,3204.9135,N,03453.8417,E,1,8,1.03,-3.3,M,17.0,M,,*66
$GPGSA,A,3,24,14,12,29,06,,,,,,,,1.34,1.03,0.86*05
$GLGSA,A,3,74,85,86,,,,,,,,,,1.34,1.03,0.86*14
$GPGSV,3,1,11,24,62,183,11.2,12,61,007,23.4,02,59,097,19.9,25,38,316,21.2*7F
$GPGSV,3,2,11,29,31,249,20.3,06,28,049,28.1,19,14,048,14.6,14,13,298,13.8*79
$GPGSV,3,3,11,32,10,298,15.2,15,03,196,,05,02,140,*59
$GLGSV,2,1,5,75,74,010,,85,64,010,22.6,86,52,235,17.5,74,38,132,25.2*46
$GLGSV,2,2,5,84,15,032,*69
$GNRMC,153516.000,A,3204.9135,N,03453.8417,E,3.422,59.71,120416,,,A*78
$GNVTG,59.71,T,,M,3.422,N,6.341,K,A*1E
$GNGGA,153517.000,3204.9142,N,03453.8423,E,1,8,1.03,-4.1,M,17.0,M,,*65
$GPGSA,A,3,24,14,12,29,06,,,,,,,,1.34,1.03,0.86*05
$GLGSA,A,3,74,85,86,,,,,,,,,,1.34,1.03,0.86*14
$GPGSV,3,1,11,24,62,183,12.0,12,61,007,21.1,02,59,097,17.0,25,38,316,20.1*7C
$GPGSV,3,2,11,29,31,249,17.4,06,28,049,22.3,19,14,048,14.3,14,13,298,15.0*79
$GPGSV,3,3,11,32,10,298,15.2,15,03,196,,05,02,140,*59
$GLGSV,2,1,5,75,74,010,,85,64,010,21.4,86,52,235,19.6,74,38,132,17.9*40
$GLGSV,2,2,5,84,15,032,*69
$GNRMC,153517.000,A,3204.9142,N,03453.8423,E,3.349,56.33,120416,,,A*7D
$GNVTG,56.33,T,,M,3.349,N,6.205,K,A*1C
$GNGGA,153518.000,3204.9150,N,03453.8428,E,1,8,1.03,-4.9,M,17.0,M,,*6A
$GPGSA,A,3,24,14,12,29,06,,,,,,,,1.34,1.03,0.86*05
$GLGSA,A,3,74,85,86,,,,,,,,,,1.34,1.03,0.86*14
$GPGSV,3,1,11,24,62,183,12.0,12,61,007,22.8,02,59,097,12.3,25,38,316,23.6*74
$GPGSV,3,2,11,29,31,249,17.4,06,28,049,20.3,19,14,048,14.3,14,13,298,15.0*7B
$GPGSV,3,3,11,32,10,298,15.2,15,03,196,,05,02,140,*59
$GLGSV,2,1,5,75,74,010,,85,64,010,21.1,86,52,235,20.9,74,38,132,23.8*46
$GLGSV,2,2,5,84,15,032,*69
$GNRMC,153518.000,A,3204.9150,N,03453.8428,E,3.331,53.57,120416,,,A*72
$GNVTG,53.57,T,,M,3.331,N,6.172,K,A*17
$GNGGA,153519.000,3204.9155,N,03453.8441,E,1,8,1.03,-5.7,M,17.0,M,,*6E
$GPGSA,A,3,24,14,12,29,06,,,,,,,,1.34,1.03,0.86*05
$GLGSA,A,3,74,85,86,,,,,,,,,,1.34,1.03,0.86*14
$GPGSV,3,1,11,24,62,183,15.6,12,61,007,25.2,02,59,097,12.3,25,38,316,20.0*7D
$GPGSV,3,2,11,29,31,249,21.8,06,28,049,19.9,19,14,048,14.3,14,13,298,15.0*72
$GPGSV,3,3,11,32,10,298,14.5,15,03,196,,05,02,140,*5F
$GLGSV,2,1,5,75,74,010,,85,64,010,21.2,86,52,235,19.9,74,38,132,23.8*4F
$GLGSV,2,2,5,84,15,032,*69
$GNRMC,153519.000,A,3204.9155,N,03453.8441,E,3.354,54.58,120416,,,A*72
$GNVTG,54.58,T,,M,3.354,N,6.214,K,A*1F
$GNGGA,153520.000,3204.9156,N,03453.8456,E,1,8,1.03,-6.6,M,17.0,M,,*63
$GPGSA,A,3,24,14,12,29,06,,,,,,,,1.34,1.03,0.86*05
$GLGSA,A,3,74,85,86,,,,,,,,,,1.34,1.03,0.86*14
$GPGSV,3,1,11,24,62,183,15.6,12,61,007,24.9,02,59,097,12.3,25,38,316,19.4*79
$GPGSV,3,2,11,29,31,249,23.8,06,28,049,17.5,19,14,048,13.2,14,13,298,14.9*7C
$GPGSV,3,3,11,32,10,298,14.5,15,03,196,,05,02,140,*5F
$GLGSV,2,1,5,75,74,010,,85,64,010,19.3,86,52,235,20.4,74,38,132,13.3*4A
$GLGSV,2,2,5,84,15,032,*69
$GNRMC,153520.000,A,3204.9156,N,03453.8456,E,3.350,56.73,120416,,,A*72
$GNVTG,56.73,T,,M,3.350,N,6.208,K,A*1D
$GNGGA,153521.000,3204.9160,N,03453.8471,E,1,8,1.03,-7.4,M,17.0,M,,*61
$GPGSA,A,3,24,14,12,29,06,,,,,,,,1.34,1.03,0.86*05
$GLGSA,A,3,74,85,86,,,,,,,,,,1.34,1.03,0.86*14
$GPGSV,3,1,11,24,62,183,18.1,12,61,007,25.1,02,59,097,12.4,25,38,316,22.1*70
$GPGSV,3,2,11,29,31,249,17.0,06,28,049,17.5,19,14,048,13.2,14,13,298,14.9*73
$GPGSV,3,3,11,32,10,298,16.2,15,03,196,,05,02,140,*5A
$GLGSV,2,1,5,75,74,010,,85,64,010,19.3,86,52,235,20.4,74,38,132,13.3*4A
$GLGSV,2,2,5,84,15,032,*69
$GNRMC,153521.000,A,3204.9160,N,03453.8471,E,3.686,52.61,120416,,,A*7A
$GNVTG,52.61,T,,M,3.686,N,6.830,K,A*15
$GNGGA,153522.000,3204.9160,N,03453.8481,E,1,8,1.03,-8.2,M,17.0,M,,*64
$GPGSA,A,3,24,14,12,29,06,,,,,,,,1.34,1.03,0.86*05
$GLGSA,A,3,74,85,86,,,,,,,,,,1.34,1.03,0.86*14
$GPGSV,3,1,11,24,62,183,18.0,12,61,007,23.1,02,59,097,12.4,25,38,316,22.1*77
$GPGSV,3,2,11,29,31,249,25.9,06,28,049,17.5,19,14,048,12.7,14,13,298,15.2*75
$GPGSV,3,3,11,32,10,298,18.2,15,03,196,,05,02,140,*54
$GLGSV,2,1,5,75,74,010,,85,64,010,20.6,86,52,235,25.0,74,38,132,13.3*44
$GLGSV,2,2,5,84,15,032,*69
$GNRMC,153522.000,A,3204.9160,N,03453.8481,E,3.066,52.52,120416,,,A*7E
$GNVTG,52.52,T,,M,3.066,N,5.682,K,A*19
$GNGGA,153523.000,3204.9161,N,03453.8491,E,1,8,1.03,-9.0,M,17.0,M,,*66
$GPGSA,A,3,24,14,12,29,06,,,,,,,,1.34,1.03,0.86*05
$GLGSA,A,3,74,85,86,,,,,,,,,,1.34,1.03,0.86*14
$GPGSV,3,1,11,24,62,183,18.5,12,61,007,29.6,02,59,097,15.9,25,38,316,24.9*7B
$GPGSV,3,2,11,29,31,249,22.1,06,28,049,16.6,19,14,048,12.7,14,13,298,19.0*76
$GPGSV,3,3,11,32,10,297,16.9,15,03,196,,05,02,140,*5E
$GLGSV,2,1,5,75,74,010,,85,64,010,20.9,86,52,235,26.3,74,38,132,12.9*40
$GLGSV,2,2,5,84,15,032,*69
$GNRMC,153523.000,A,3204.9161,N,03453.8491,E,2.723,52.52,120416,,,A*78
$GNVTG,52.52,T,,M,2.723,N,5.045,K,A*13
$GNGGA,153524.000,3204.9169,N,03453.8495,E,1,8,1.03,-9.9,M,17.0,M,,*64
$GPGSA,A,3,24,14,12,29,06,,,,,,,,1.34,1.03,0.86*05
$GLGSA,A,3,74,85,86,,,,,,,,,,1.34,1.03,0.86*14
$GPGSV,3,1,11,24,62,183,18.3,12,61,007,30.0,02,59,097,15.9,25,38,316,28.2*74
$GPGSV,3,2,11,29,31,249,24.6,06,28,049,16.6,19,14,048,12.7,14,13,298,24.7*7E
$GPGSV,3,3,11,32,10,297,18.0,15,03,196,,05,02,140,*59
$GLGSV,2,1,5,75,74,010,,85,64,010,20.9,86,52,235,24.7,74,38,132,12.9*46
$GLGSV,2,2,5,84,15,032,*69
$GNRMC,153524.000,A,3204.9169,N,03453.8495,E,2.360,52.52,120416,,,A*70
$GNVTG,52.52,T,,M,2.360,N,4.374,K,A*10
$GNGGA,153525.000,3204.9175,N,03453.8498,E,1,8,1.03,-10.7,M,17.0,M,,*53
$GPGSA,A,3,24,14,12,29,06,,,,,,,,1.34,1.03,0.86*05
$GLGSA,A,3,74,85,86,,,,,,,,,,1.34,1.03,0.86*14
$GPGSV,3,1,11,24,62,183,18.3,12,61,007,21.2,02,59,097,15.9,25,38,316,24.9*71
$GPGSV,3,2,11,29,31,249,24.2,06,28,049,17.2,19,14,048,14.9,14,13,298,22.4*72
$GPGSV,3,3,11,32,10,297,17.3,15,03,196,,05,02,140,*55
$GLGSV,2,1,5,75,74,010,,85,64,010,21.6,86,52,235,23.4,74,38,132,12.9*4C
$GLGSV,2,2,5,84,15,032,*69
$GNRMC,153525.000,A,3204.9175,N,03453.8498,E,2.136,52.52,120416,,,A*70
$GNVTG,52.52,T,,M,2.136,N,3.958,K,A*12
$GNGGA,153526.000,3204.9183,N,03453.8504,E,1,8,1.03,-11.5,M,17.0,M,,*5E
$GPGSA,A,3,24,14,12,29,06,,,,,,,,1.34,1.03,0.86*05
$GLGSA,A,3,74,85,86,,,,,,,,,,1.34,1.03,0.86*14
$GPGSV,3,1,11,24,62,183,18.3,12,61,007,25.8,02,59,097,16.3,25,38,316,22.5*7C
$GPGSV,3,2,11,29,31,249,23.3,06,28,049,19.9,19,14,048,14.9,14,13,298,22.4*71
$GPGSV,3,3,11,32,10,297,18.0,15,03,196,,05,02,140,*59
$GLGSV,2,1,5,75,74,010,,85,64,010,21.0,86,52,235,21.3,74,38,132,11.7*42
$GLGSV,2,2,5,84,15,032,*69
$GNRMC,153526.000,A,3204.9183,N,03453.8504,E,2.396,52.52,120416,,,A*76
$GNVTG,52.52,T,,M,2.396,N,4.439,K,A*17
$GNGGA,153527.000,3204.9189,N,03453.8513,E,1,8,1.03,-12.3,M,17.0,M,,*56
$GPGSA,A,3,24,14,12,29,06,,,,,,,,1.34,1.03,0.86*05
$GLGSA,A,3,74,85,86,,,,,,,,,,1.34,1.03,0.86*14
$GPGSV,3,1,11,24,62,183,15.5,12,61,007,26.3,02,59,097,16.8,25,38,316,19.2*7B
$GPGSV,3,2,11,29,31,249,23.3,06,28,049,19.6,19,14,048,13.2,14,13,298,22.4*72
$GPGSV,3,3,11,32,10,297,18.7,15,03,196,,05,02,140,*5E
$GLGSV,2,1,5,75,74,010,,85,64,010,22.6,86,52,235,21.9,74,38,132,11.7*4D
$GLGSV,2,2,5,84,15,032,*69
$GNRMC,153527.000,A,3204.9189,N,03453.8513,E,2.884,52.52,120416,,,A*73
$GNVTG,52.52,T,,M,2.884,N,5.343,K,A*14
$GNGGA,153528.000,3204.9199,N,03453.8520,E,1,8,1.03,-13.2,M,17.0,M,,*58
$GPGSA,A,3,24,14,12,29,06,,,,,,,,1.34,1.03,0.86*05
$GLGSA,A,3,74,85,86,,,,,,,,,,1.34,1.03,0.86*14
$GPGSV,3,1,11,24,62,183,15.5,12,61,007,24.8,02,59,097,18.4,25,38,316,21.0*79
$GPGSV,3,2,11,29,31,249,19.4,06,28,049,19.6,19,14,048,13.2,14,13,298,22.2*7A
$GPGSV,3,3,11,32,10,297,21.2,15,03,196,,05,02,140,*51
$GLGSV,2,1,5,75,74,010,,85,64,010,23.9,86,52,235,22.8,74,38,132,13.6*42
$GLGSV,2,2,5,84,15,032,*69
$GNRMC,153528.000,A,3204.9199,N,03453.8520,E,3.152,75.46,120416,,,A*7E
$GNVTG,75.46,T,,M,3.152,N,5.840,K,A*1F
$GNGGA,153529.000,3204.9209,N,03453.8527,E,1,8,1.03,-14.0,M,17.0,M,,*51
$GPGSA,A,3,24,14,12,29,06,,,,,,,,1.34,1.03,0.86*05
$GLGSA,A,3,74,85,86,,,,,,,,,,1.34,1.03,0.86*14
$GPGSV,3,1,11,24,62,183,15.5,12,61,007,24.5,02,59,097,18.4,25,38,316,19.5*7A
$GPGSV,3,2,11,29,31,249,19.9,06,28,049,19.6,19,14,048,13.2,14,13,298,22.2*77
$GPGSV,3,3,11,32,10,297,18.3,15,03,196,,05,02,140,*5A
$GLGSV,2,1,5,75,74,010,,85,64,010,19.7,86,52,235,18.9,74,38,132,13.6*4D
$GLGSV,2,2,5,84,15,032,*69
$GNRMC,153529.000,A,3204.9209,N,03453.8527,E,3.373,68.62,120416,,,A*79
$GNVTG,68.62,T,,M,3.373,N,6.250,K,A*1C
$GNGGA,153530.000,3204.9215,N,03453.8534,E,1,8,1.03,-14.8,M,17.0,M,,*5E
$GPGSA,A,3,24,14,12,29,06,,,,,,,,1.34,1.03,0.86*05
$GLGSA,A,3,74,85,86,,,,,,,,,,1.34,1.03,0.86*14
$GPGSV,3,1,11,24,62,183,17.1,12,61,007,19.6,02,59,097,15.9,25,38,316,18.2*77
$GPGSV,3,2,11,29,31,249,20.5,06,28,049,14.5,19,14,048,12.2,14,13,298,22.2*7E
$GPGSV,3,3,11,32,10,297,15.6,15,03,196,,05,02,140,*52
$GLGSV,2,1,5,75,74,010,,85,64,010,18.3,86,52,235,20.5,74,38,132,13.6*4F
$GLGSV,2,2,5,84,15,032,*69
$GNRMC,153530.000,A,3204.9215,N,03453.8534,E,3.062,65.75,120416,,,A*76
$GNVTG,65.75,T,,M,3.062,N,5.675,K,A*14
$GNGGA,153531.000,3204.9225,N,03453.8539,E,1,8,1.03,-15.6,M,17.0,M,,*5E
$GPGSA,A,3,24,14,12,29,06,,,,,,,,1.34,1.03,0.86*05
$GLGSA,A,3,74,85,86,,,,,,,,,,1.34,1.03,0.86*14
$GPGSV,3,1,11,24,62,183,17.1,12,61,007,22.9,02,59,097,12.9,25,38,316,23.4*79
$GPGSV,3,2,11,29,31,249,18.6,06,28,049,16.7,19,14,048,12.2,14,13,298,21.6*71
$GPGSV,3,3,11,32,10,297,20.2,15,03,196,,05,02,140,*50
$GLGSV,2,1,5,75,74,010,,85,64,010,19.6,86,52,235,20.5,74,38,132,16.1*49
$GLGSV,2,2,5,84,15,032,*69
$GNRMC,153531.000,A,3204.9225,N,03453.8539,E,3.036,51.24,120416,,,A*7B
$GNVTG,51.24,T,,M,3.036,N,5.626,K,A*10
$GNGGA,153532.000,3204.9231,N,03453.8550,E,1,8,1.03,-16.5,M,17.0,M,,*57
$GPGSA,A,3,24,14,12,29,06,,,,,,,,1.34,1.03,0.86*05
$GLGSA,A,3,74,85,86,,,,,,,,,,1.34,1.03,0.86*14
$GPGSV,3,1,11,24,62,183,17.1,12,61,007,26.2,02,59,097,12.9,25,38,316,20.4*75
$GPGSV,3,2,11,29,31,249,18.6,06,28,049,19.5,19,14,048,12.9,14,13,298,19.8*72
$GPGSV,3,3,11,32,10,297,15.7,15,03,196,,05,02,140,*53
$GLGSV,2,1,5,75,74,010,,85,64,010,20.9,86,52,235,19.0,74,38,132,16.1*43
$GLGSV,2,2,5,84,15,032,*69
$GNRMC,153532.000,A,3204.9231,N,03453.8550,E,2.993,49.84,120416,,,A*76
$GNVTG,49.84,T,,M,2.993,N,5.547,K,A*10
$GNGGA,153533.000,3204.9233,N,03453.8560,E,1,8,1.03,-17.3,M,17.0,M,,*50
$GPGSA,A,3,24,14,12,29,06,,,,,,,,1.34,1.03,0.86*05
$GLGSA,A,3,74,85,86,,,,,,,,,,1.34,1.03,0.86*14
$GPGSV,3,1,11,24,62,183,16.5,12,61,007,20.2,02,59,097,12.9,25,38,316,18.8*71
$GPGSV,3,2,11,29,31,249,18.6,06,28,049,19.6,19,14,048,12.9,14,13,298,19.8*71
$GPGSV,3,3,11,32,10,297,15.7,15,03,196,,05,02,140,*53
$GLGSV,2,1,5,75,74,010,,85,64,010,20.9,86,52,235,18.5,74,38,132,17.2*45
$GLGSV,2,2,5,84,15,032,*69
$GNRMC,153533.000,A,3204.9233,N,03453.8560,E,2.987,55.42,120416,,,A*74
$GNVTG,55.42,T,,M,2.987,N,5.534,K,A*16
$GNGGA,153534.000,3204.9237,N,03453.8570,E,1,8,1.03,-18.1,M,17.0,M,,*5F
$GPGSA,A,3,24,14,12,29,06,,,,,,,,1.34,1.03,0.86*05
$GLGSA,A,3,74,85,86,,,,,,,,,,1.34,1.03,0.86*14
$GPGSV,3,1,11,24,62,183,17.9,12,61,007,19.6,02,59,097,15.0,25,38,316,15.9*70
$GPGSV,3,2,11,29,31,249,19.3,06,28,049,22.1,19,14,048,12.9,14,13,298,19.8*7A
$GPGSV,3,3,11,32,10,297,14.2,15,03,196,,05,02,140,*57
$GLGSV,2,1,5,75,74,010,,85,64,010,20.9,86,52,235,19.7,74,38,132,24.1*45
$GLGSV,2,2,5,84,15,032,*69
$GNRMC,153534.000,A,3204.9237,N,03453.8570,E,2.998,56.64,120416,,,A*7F
$GNVTG,56.64,T,,M,2.998,N,5.556,K,A*1B
$GNGGA,153535.000,3204.9245,N,03453.8575,E,1,8,1.03,-18.8,M,17.0,M,,*57
$GPGSA,A,3,24,14,12,29,06,,,,,,,,1.34,1.03,0.86*05
$GLGSA,A,3,74,85,86,,,,,,,,,,1.34,1.03,0.86*14
$GPGSV,3,1,11,24,62,183,17.9,12,61,007,19.6,02,59,097,15.0,25,38,316,15.9*70
$GPGSV,3,2,11,29,31,249,19.3,06,28,049,21.4,19,14,048,10.5,14,13,298,14.6*71
$GPGSV,3,3,11,32,10,297,14.2,15,03,196,,05,02,140,*57
$GLGSV,2,1,5,75,74,010,,85,64,010,19.4,86,52,235,20.5,74,38,132,24.1*4A
$GLGSV,2,2,5,84,15,032,*69
$GNRMC,153535.000,A,3204.9245,N,03453.8575,E,2.568,56.64,120416,,,A*7D
$GNVTG,56.64,T,,M,2.568,N,4.759,K,A*14
$GNGGA,153536.000,3204.9255,N,03453.8581,E,1,8,1.03,-19.6,M,17.0,M,,*51
$GPGSA,A,3,24,14,12,29,06,,,,,,,,1.34,1.03,0.86*05
$GLGSA,A,3,74,85,86,,,,,,,,,,1.34,1.03,0.86*14
$GPGSV,3,1,11,24,62,183,17.9,12,61,007,19.3,02,59,097,12.6,25,38,316,15.9*74
$GPGSV,3,2,11,29,31,249,19.3,06,28,049,24.2,19,14,048,10.5,14,13,298,14.6*72
$GPGSV,3,3,11,32,10,297,12.6,15,03,196,,05,02,140,*55
$GLGSV,2,1,5,75,74,010,,85,64,010,19.9,86,52,235,19.5,74,38,132,24.1*4D
$GLGSV,2,2,5,84,15,032,*69
$GNRMC,153536.000,A,3204.9255,N,03453.8581,E,2.379,56.64,120416,,,A*72
$GNVTG,56.64,T,,M,2.379,N,4.409,K,A*14
$GNGGA,153537.000,3204.9259,N,03453.8586,E,1,8,1.03,-20.4,M,17.0,M,,*53
$GPGSA,A,3,24,14,12,29,06,,,,,,,,1.34,1.03,0.86*05
$GLGSA,A,3,74,85,86,,,,,,,,,,1.34,1.03,0.86*14
$GPGSV,3,1,11,24,62,183,12.0,12,61,007,21.1,02,59,097,12.6,25,38,316,13.2*7C
$GPGSV,3,2,11,29,31,249,19.5,06,28,049,20.6,19,14,048,13.5,14,13,298,16.1*72
$GPGSV,3,3,11,32,10,297,12.6,15,03,196,,05,02,140,*55
$GLGSV,2,1,5,75,74,010,,85,64,010,19.9,86,52,235,18.5,74,38,132,25.2*4E
$GLGSV,2,2,5,84,15,032,*69
$GNRMC,153537.000,A,3204.9259,N,03453.8586,E,2.439,56.64,120416,,,A*7B
$GNVTG,56.64,T,,M,2.439,N,4.520,K,A*1D
$GNGGA,153538.000,3204.9262,N,03453.8592,E,1,8,1.03,-21.2,M,17.0,M,,*56
$GPGSA,A,3,24,14,12,29,06,,,,,,,,1.34,1.03,0.86*05
$GLGSA,A,3,74,85,86,,,,,,,,,,1.34,1.03,0.86*14
$GPGSV,3,1,11,24,62,183,12.0,12,61,007,24.1,02,59,097,12.6,25,38,316,13.2*79
$GPGSV,3,2,11,29,31,249,20.1,06,28,049,20.4,19,14,048,13.5,14,13,298,16.1*7E
$GPGSV,3,3,11,32,10,297,12.6,15,03,196,,05,02,140,*55
$GLGSV,2,1,5,75,74,010,,85,64,010,19.9,86,52,235,19.6,74,38,132,23.4*4C
$GLGSV,2,2,5,84,15,032,*69
$GNRMC,153538.000,A,3204.9262,N,03453.8592,E,2.462,56.64,120416,,,A*77
$GNVTG,56.64,T,,M,2.462,N,4.563,K,A*14
$GNGGA,153539.000,3204.9265,N,03453.8597,E,1,8,1.03,-22.0,M,17.0,M,,*54
$GPGSA,A,3,24,14,12,29,06,,,,,,,,1.34,1.03,0.86*05
$GLGSA,A,3,74,85,86,,,,,,,,,,1.34,1.03,0.86*14
$GPGSV,3,1,11,24,62,183,11.0,12,61,007,25.0,02,59,097,11.0,25,38,316,12.0*7C
$GPGSV,3,2,11,29,31,249,20.1,06,28,049,24.0,19,14,048,13.5,14,13,298,16.1*7E
$GPGSV,3,3,11,32,10,297,12.1,15,03,196,,05,02,140,*52
$GLGSV,2,1,5,75,74,010,,85,64,010,21.2,86,52,235,18.8,74,38,132,23.8*4F
$GLGSV,2,2,5,84,15,032,*69
$GNRMC,153539.000,A,3204.9265,N,03453.8597,E,2.426,56.64,120416,,,A*74
$GNVTG,56.64,T,,M,2.426,N,4.495,K,A*1C
$GNGGA,153540.000,3204.9266,N,03453.8603,E,1,8,1.03,-22.8,M,17.0,M,,*5F
$GPGSA,A,3,24,14,12,29,06,,,,,,,,1.34,1.03,0.86*05
$GLGSA,A,3,74,85,86,,,,,,,,,,1.34,1.03,0.86*14
$GPGSV,3,1,11,24,62,183,11.0,12,61,007,20.4,02,59,097,21.2,25,38,316,12.0*7C
$GPGSV,3,2,11,29,31,249,14.9,06,28,049,22.6,19,14,048,12.5,14,13,298,12.6*73
$GPGSV,3,3,11,32,10,297,12.1,15,03,196,,05,02,140,*52
$GLGSV,2,1,5,75,74,010,,85,64,010,18.5,86,52,235,18.8,74,38,132,27.4*4A
$GLGSV,2,2,5,84,15,032,*69
$GNRMC,153540.000,A,3204.9266,N,03453.8603,E,2.491,56.64,120416,,,A*7B
$GNVTG,56.64,T,,M,2.491,N,4.616,K,A*19
$GNGGA,153541.000,3204.9271,N,03453.8613,E,1,8,1.03,-23.6,M,17.0,M,,*56
$GPGSA,A,3,24,14,12,29,06,,,,,,,,1.34,1.03,0.86*05
$GLGSA,A,3,74,85,86,,,,,,,,,,1.34,1.03,0.86*14
$GPGSV,3,1,11,24,62,183,11.0,12,61,007,24.8,02,59,097,26.9,25,38,316,12.0*78
$GPGSV,3,2,11,29,31,249,18.5,06,28,049,24.9,19,14,048,12.5,14,13,298,12.6*7A
$GPGSV,3,3,11,32,10,297,14.5,15,03,196,,05,02,140,*50
$GLGSV,2,1,5,75,74,010,,85,64,010,20.0,86,52,235,16.3,74,38,132,27.5*40
$GLGSV,2,2,5,84,15,032,*69
$GNRMC,153541.000,A,3204.9271,N,03453.8613,E,3.200,74.84,120416,,,A*7C
$GNVTG,74.84,T,,M,3.200,N,5.930,K,A*12
$GNGGA,153542.000,3204.9273,N,03453.8622,E,1,8,1.03,-24.3,M,17.0,M,,*57
$GPGSA,A,3,24,14,12,29,06,,,,,,,,1.34,1.03,0.86*05
$GLGSA,A,3,74,85,86,,,,,,,,,,1.34,1.03,0.86*14
$GPGSV,3,1,11,24,62,183,13.3,12,61,007,22.3,02,59,097,21.1,25,38,316,11.7*7F
$GPGSV,3,2,11,29,31,249,18.5,06,28,049,24.9,19,14,048,12.5,14,13,298,12.6*7A
$GPGSV,3,3,11,32,10,297,14.5,15,03,196,,05,02,140,*50
$GLGSV,2,1,5,75,74,010,,85,64,010,17.6,86,52,235,16.3,74,38,132,25.1*44
$GLGSV,2,2,5,84,15,032,*69
$GNRMC,153542.000,A,3204.9273,N,03453.8622,E,2.939,82.94,120416,,,A*77
$GNVTG,82.94,T,,M,2.939,N,5.446,K,A*16
$GNGGA,153543.000,3204.9273,N,03453.8629,E,1,8,1.03,-25.1,M,17.0,M,,*5E
$GPGSA,A,3,24,14,12,29,06,,,,,,,,1.34,1.03,0.86*05
$GLGSA,A,3,74,85,86,,,,,,,,,,1.34,1.03,0.86*14
$GPGSV,3,1,11,24,62,183,13.3,12,61,007,21.6,02,59,097,20.8,25,38,316,11.7*71
$GPGSV,3,2,11,29,31,249,18.5,06,28,049,24.3,19,14,048,19.9,14,13,298,10.5*76
$GPGSV,3,3,11,32,10,297,14.5,15,03,196,,05,02,140,*50
$GLGSV,2,1,5,75,74,010,,85,64,010,18.7,86,52,235,14.2,74,38,132,27.1*4B
$GLGSV,2,2,5,84,15,032,*69
$GNRMC,153543.000,A,3204.9273,N,03453.8629,E,2.656,82.94,120416,,,A*7B
$GNVTG,82.94,T,,M,2.656,N,4.922,K,A*1E
$GNGGA,153544.000,3204.9274,N,03453.8631,E,1,8,1.03,-25.9,M,17.0,M,,*5F
$GPGSA,A,3,24,14,12,29,06,,,,,,,,1.34,1.03,0.86*05
$GLGSA,A,3,74,85,86,,,,,,,,,,1.34,1.03,0.86*14
$GPGSV,3,1,11,24,62,183,23.2,12,61,007,22.0,02,59,097,24.0,25,38,316,17.5*7E
$GPGSV,3,2,11,29,31,249,15.5,06,28,049,27.3,19,14,048,24.5,14,13,298,10.5*7A
$GPGSV,3,3,11,32,10,297,14.2,15,03,196,,05,02,140,*57
$GLGSV,2,1,5,75,74,010,,85,64,010,18.9,86,52,235,14.2,74,38,132,26.1*44
$GLGSV,2,2,5,84,15,032,*69
$GNRMC,153544.000,A,3204.9274,N,03453.8631,E,2.367,82.94,120416,,,A*75
$GNVTG,82.94,T,,M,2.367,N,4.386,K,A*1D
$GNGGA,153545.000,3204.9272,N,03453.8631,E,1,8,1.03,-26.7,M,17.0,M,,*55
$GPGSA,A,3,24,14,12,29,06,,,,,,,,1.34,1.03,0.86*05
$GLGSA,A,3,74,85,86,,,,,,,,,,1.34,1.03,0.86*14
$GPGSV,3,1,11,24,62,183,23.9,12,61,007,22.0,02,59,097,23.9,25,38,316,19.0*70
$GPGSV,3,2,11,29,31,249,15.5,06,28,049,24.5,19,14,048,23.7,14,13,298,12.1*7C
$GPGSV,3,3,11,32,10,297,14.2,15,03,196,,05,02,140,*57
$GLGSV,2,1,5,75,74,010,,85,64,010,18.9,86,52,235,14.2,74,38,132,21.3*41
$GLGSV,2,2,5,84,15,032,*69
$GNRMC,153545.000,A,3204.9272,N,03453.8631,E,2.386,82.94,120416,,,A*7D
$GNVTG,82.94,T,,M,2.386,N,4.422,K,A*1B
$GNGGA,153546.000,3204.9272,N,03453.8630,E,1,8,1.03,-27.4,M,17.0,M,,*55
$GPGSA,A,3,24,14,12,29,06,,,,,,,,1.34,1.03,0.86*05
$GLGSA,A,3,74,85,86,,,,,,,,,,1.34,1.03,0.86*14
$GPGSV,3,1,11,24,62,183,22.0,12,61,007,24.9,02,59,097,27.0,25,38,316,19.4*7E
$GPGSV,3,2,11,29,31,249,15.5,06,28,049,24.1,19,14,048,21.3,14,13,298,12.1*7E
$GPGSV,3,3,11,32,10,297,14.2,15,03,196,,05,02,140,*57
$GLGSV,2,1,5,75,74,010,,85,64,010,19.3,86,52,235,12.1,74,38,132,22.4*4B
$GLGSV,2,2,5,84,15,032,*69
$GNRMC,153546.000,A,3204.9272,N,03453.8630,E,2.212,82.94,120416,,,A*73
$GNVTG,82.94,T,,M,2.212,N,4.100,K,A*12
$GNGGA,153547.000,3204.9271,N,03453.8627,E,1,8,1.03,-28.2,M,17.0,M,,*58
$GPGSA,A,3,24,14,12,29,06,,,,,,,,1.34,1.03,0.86*05
$GLGSA,A,3,74,85,86,,,,,,,,,,1.34,1.03,0.86*14
$GPGSV,3,1,11,24,62,183,19.2,12,61,007,23.5,02,59,097,20.0,25,38,316,19.3*7F
$GPGSV,3,2,11,29,31,249,12.0,06,28,049,25.1,19,14,048,22.1,14,13,298,12.1*7C
$GPGSV,3,3,11,32,10,297,13.3,15,03,196,,05,02,140,*51
$GLGSV,2,1,5,75,74,010,,85,64,010,19.3,86,52,235,12.1,74,38,132,21.6*4A
$GLGSV,2,2,5,84,15,032,*69
$GNRMC,153547.000,A,3204.9271,N,03453.8627,E,2.194,82.94,120416,,,A*7A
$GNVTG,82.94,T,,M,2.194,N,4.065,K,A*1D
$GNGGA,153548.000,3204.9268,N,03453.8626,E,1,8,1.03,-29.0,M,17.0,M,,*5D
$GPGSA,A,3,24,14,12,29,06,,,,,,,,1.34,1.03,0.86*05
$GLGSA,A,3,74,85,86,,,,,,,,,,1.34,1.03,0.86*14
$GPGSV,3,1,11,24,62,183,19.2,12,61,007,22.0,02,59,097,24.4,25,38,316,18.6*7F
$GPGSV,3,2,11,29,31,249,12.0,06,28,049,25.1,19,14,048,22.7,14,13,298,10.5*7C
$GPGSV,3,3,11,32,10,297,13.3,15,03,196,,05,02,140,*51
$GLGSV,2,1,5,75,74,010,,85,64,010,18.2,86,52,235,13.7,74,38,132,21.6*4D
$GLGSV,2,2,5,84,15,032,*69
$GNRMC,153548.000,A,3204.9268,N,03453.8626,E,2.174,82.94,120416,,,A*72
$GNVTG,82.94,T,,M,2.174,N,4.028,K,A*1A
$GNGGA,153549.000,3204.9266,N,03453.8624,E,1,8,1.03,-29.8,M,17.0,M,,*58
$GPGSA,A,3,24,14,12,29,06,,,,,,,,1.34,1.03,0.86*05
$GLGSA,A,3,74,85,86,,,,,,,,,,1.34,1.03,0.86*14
$GPGSV,3,1,11,24,62,183,19.2,12,61,007,22.1,02,59,097,24.4,25,38,316,17.1*76
$GPGSV,3,2,11,29,31,249,12.1,06,28,049,23.4,19,14,048,23.0,14,13,298,10.5*78
$GPGSV,3,3,11,32,10,297,10.2,15,03,196,,05,02,140,*53
$GLGSV,2,1,5,75,74,010,,85,64,010,20.1,86,52,235,13.7,74,38,132,21.6*45
$GLGSV,2,2,5,84,15,032,*69
$GNRMC,153549.000,A,3204.9266,N,03453.8624,E,2.135,82.94,120416,,,A*7A
$GNVTG,82.94,T,,M,2.135,N,3.957,K,A*19
$GNGGA,153550.000,3204.9264,N,03453.8620,E,1,8,1.03,-30.6,M,17.0,M,,*50
$GPGSA,A,3,24,14,12,29,06,,,,,,,,1.34,1.03,0.86*05
$GLGSA,A,3,74,85,86,,,,,,,,,,1.34,1.03,0.86*14
$GPGSV,3,1,11,24,62,183,19.6,12,61,007,20.4,02,59,097,20.9,25,38,316,16.1*7D
$GPGSV,3,2,11,29,31,249,12.1,06,28,049,21.6,19,14,048,21.6,14,13,298,10.8*71
$GPGSV,3,3,11,32,10,297,10.2,15,03,196,,05,02,140,*53
$GLGSV,2,1,5,75,74,010,,85,64,010,20.1,86,52,235,13.7,74,38,132,18.5*4C
$GLGSV,2,2,5,84,15,032,*69
$GNRMC,153550.000,A,3204.9264,N,03453.8620,E,0.000,82.94,120416,,,A*71
$GNVTG,82.94,T,,M,0.000,N,0.000,K,A*14
$GNGGA,153551.000,3204.9263,N,03453.8617,E,1,8,1.03,-31.4,M,17.0,M,,*51
$GPGSA,A,3,24,14,12,29,06,,,,,,,,1.34,1.03,0.86*05
$GLGSA,A,3,74,85,86,,,,,,,,,,1.34,1.03,0.86*14
$GPGSV,3,1,11,24,62,183,24.2,12,61,007,22.5,02,59,097,26.1,25,38,316,19.5*71
$GPGSV,3,2,11,29,31,249,12.1,06,28,049,24.4,19,14,048,22.2,14,13,298,10.8*71
$GPGSV,3,3,11,32,10,297,10.2,15,03,196,,05,02,140,*53
$GLGSV,2,1,5,75,74,010,,85,64,010,20.1,86,52,235,13.2,74,38,132,18.5*49
$GLGSV,2,2,5,84,15,032,*69
$GNRMC,153551.000,A,3204.9263,N,03453.8617,E,0.000,82.94,120416,,,A*73
$GNVTG,82.94,T,,M,0.000,N,0.000,K,A*14
$GNGGA,153552.000,3204.9261,N,03453.8612,E,1,8,1.03,-32.1,M,17.0,M,,*53
$GPGSA,A,3,24,14,12,29,06,,,,,,,,1.34,1.03,0.86*05
$GLGSA,A,3,74,85,86,,,,,,,,,,1.34,1.03,0.86*14
$GPGSV,3,1,11,24,62,183,24.2,12,61,007,21.2,02,59,097,20.9,25,38,316,*68
$GPGSV,3,2,11,29,31,249,13.0,06,28,049,24.6,19,14,048,20.0,14,13,298,10.8*73
$GPGSV,3,3,11,32,10,297,12.0,15,03,196,,05,02,140,*53
$GLGSV,2,1,5,75,74,010,,85,64,010,18.1,86,52,235,13.2,74,38,132,13.9*45
$GLGSV,2,2,5,84,15,032,*69
$GNRMC,153552.000,A,3204.9261,N,03453.8612,E,0.000,82.94,120416,,,A*77
$GNVTG,82.94,T,,M,0.000,N,0.000,K,A*14
$GNGGA,153553.000,3204.9261,N,03453.8612,E,1,8,1.03,-32.1,M,17.0,M,,*52
$GPGSA,A,3,24,14,12,29,06,,,,,,,,1.34,1.03,0.86*05
$GLGSA,A,3,74,85,86,,,,,,,,,,1.34,1.03,0.86*14
$GPGSV,3,1,11,24,62,183,21.3,12,61,007,21.2,02,59,097,21.9,25,38,316,17.3*76
$GPGSV,3,2,11,29,31,249,13.0,06,28,049,25.2,19,14,048,19.1,14,13,298,9.2*4F
$GPGSV,3,3,11,32,10,297,12.0,15,03,196,,05,02,140,*53
$GLGSV,2,1,5,75,74,010,,85,64,010,17.9,86,52,235,13.2,74,38,132,13.9*42
$GLGSV,2,2,5,84,15,032,*69
$GNRMC,153553.000,A,3204.9261,N,03453.8612,E,0.000,82.94,120416,,,A*76
$GNVTG,82.94,T,,M,0.000,N,0.000,K,A*14
$GNGGA,153554.000,3204.9261,N,03453.8612,E,1,8,1.03,-32.1,M,17.0,M,,*55
$GPGSA,A,3,24,14,12,29,06,,,,,,,,1.34,1.03,0.86*05
$GLGSA,A,3,74,85,86,,,,,,,,,,1.34,1.03,0.86*14
$GPGSV,3,1,11,24,62,183,21.1,12,61,007,21.0,02,59,097,18.7,25,38,316,22.2*75
$GPGSV,3,2,11,29,31,249,12.9,06,28,049,23.6,19,14,048,15.8,14,13,298,9.2*40
$GPGSV,3,3,11,32,10,297,11.7,15,03,196,,05,02,140,*57
$GLGSV,2,1,5,75,74,010,,85,64,010,18.6,86,52,235,10.6,74,38,132,13.9*45
$GLGSV,2,2,5,84,15,032,*69
$GNRMC,153554.000,A,3204.9261,N,03453.8612,E,0.000,82.94,120416,,,A*71
$GNVTG,82.94,T,,M,0.000,N,0.000,K,A*14
$GNGGA,153555.000,3204.9261,N,03453.8612,E,1,7,1.20,-32.1,M,17.0,M,,*5A
$GPGSA,A,3,24,12,29,06,,,,,,,,,1.51,1.20,0.92*07
$GLGSA,A,3,74,85,86,,,,,,,,,,1.51,1.20,0.92*13
$GPGSV,3,1,11,24,62,183,22.1,12,61,007,25.3,02,59,097,18.7,25,38,316,21.6*76
$GPGSV,3,2,11,29,31,249,12.9,06,28,049,20.5,19,14,048,15.8,14,13,298,*65
$GPGSV,3,3,11,32,10,297,11.7,15,03,196,,05,02,140,*57
$GLGSV,2,1,5,75,74,010,,85,64,010,22.0,86,52,235,21.8,74,38,132,19.7*42
$GLGSV,2,2,5,84,15,032,*69
$GNRMC,153555.000,A,3204.9261,N,03453.8612,E,0.000,82.94,120416,,,A*70
$GNVTG,82.94,T,,M,0.000,N,0.000,K,A*14
$GNGGA,153556.000,3204.9261,N,03453.8612,E,1,7,1.20,-32.1,M,17.0,M,,*59
$GPGSA,A,3,24,12,29,06,,,,,,,,,1.51,1.20,0.92*07
$GLGSA,A,3,74,85,86,,,,,,,,,,1.51,1.20,0.92*13
$GPGSV,3,1,11,24,62,183,24.0,12,61,007,23.7,02,59,097,17.3,25,38,316,19.6*73
$GPGSV,3,2,11,29,31,249,12.9,06,28,049,20.5,19,14,048,14.6,14,13,298,*6A
$GPGSV,3,3,11,32,10,297,11.7,15,03,196,,05,02,140,*57
$GLGSV,2,1,5,75,74,010,,85,64,010,19.2,86,52,235,19.8,74,38,132,19.1*45
$GLGSV,2,2,5,84,15,032,*69
$GNRMC,153556.000,A,3204.9261,N,03453.8612,E,0.000,82.94,120416,,,A*73
$GNVTG,82.94,T,,M,0.000,N,0.000,K,A*14
$GNGGA,153557.000,3204.9261,N,03453.8612,E,1,7,1.20,-32.1,M,17.0,M,,*58
$GPGSA,A,3,24,12,29,06,,,,,,,,,1.51,1.20,0.92*07
$GLGSA,A,3,74,85,86,,,,,,,,,,1.51,1.20,0.92*13
$GPGSV,3,1,11,24,62,183,23.4,12,61,007,23.6,02,59,097,20.0,25,38,316,20.6*7C
$GPGSV,3,2,11,29,31,249,17.0,06,28,049,20.5,19,14,048,14.6,14,13,298,*66
$GPGSV,3,3,11,32,10,297,14.2,15,03,196,,05,02,140,*57
$GLGSV,2,1,5,75,74,010,,85,64,010,19.5,86,52,235,26.9,74,38,132,21.3*46
$GLGSV,2,2,5,84,15,032,*69
$GNRMC,153557.000,A,3204.9261,N,03453.8612,E,0.000,82.94,120416,,,A*72
$GNVTG,82.94,T,,M,0.000,N,0.000,K,A*14
$GNGGA,153558.000,3204.9261,N,03453.8612,E,1,7,1.20,-32.1,M,17.0,M,,*57
$GPGSA,A,3,24,12,29,06,,,,,,,,,1.51,1.20,0.92*07
$GLGSA,A,3,74,85,86,,,,,,,,,,1.51,1.20,0.92*13
$GPGSV,3,1,11,24,62,183,23.4,12,61,007,23.6,02,59,097,24.7,25,38,316,20.5*7C
$GPGSV,3,2,11,29,31,249,20.4,06,28,049,16.6,19,14,048,14.6,14,13,298,*60
$GPGSV,3,3,11,32,10,297,14.2,15,03,196,,05,02,140,*57
$GLGSV,2,1,5,75,74,010,,85,64,010,19.5,86,52,235,23.3,74,38,132,21.1*4B
$GLGSV,2,2,5,84,15,032,*69
$GNRMC,153558.000,A,3204.9261,N,03453.8612,E,0.000,82.94,120416,,,A*7D
$GNVTG,82.94,T,,M,0.000,N,0.000,K,A*14
$GNGGA,153559.000,3204.9261,N,03453.8612,E,1,7,1.20,-32.1,M,17.0,M,,*56
$GPGSA,A,3,24,12,29,06,,,,,,,,,1.51,1.20,0.92*07
$GLGSA,A,3,74,85,86,,,,,,,,,,1.51,1.20,0.92*13
$GPGSV,3,1,11,24,62,183,17.7,12,61,007,19.3,02,59,097,19.8,25,38,316,18.7*7C
$GPGSV,3,2,11,29,31,249,22.9,06,28,049,16.6,19,14,048,11.3,14,13,298,*6F
$GPGSV,3,3,11,32,10,297,11.2,15,03,196,,05,02,140,*52
$GLGSV,2,1,5,75,74,010,,85,64,010,16.1,86,52,235,25.1,74,38,132,25.9*48
$GLGSV,2,2,5,84,15,032,*69
$GNRMC,153559.000,A,3204.9261,N,03453.8612,E,0.000,82.94,120416,,,A*7C
$GNVTG,82.94,T,,M,0.000,N,0.000,K,A*14
$GNGGA,153600.000,3204.9261,N,03453.8612,E,1,7,1.20,-32.1,M,17.0,M,,*59
$GPGSA,A,3,24,12,29,06,,,,,,,,,1.51,1.20,0.92*07
$GLGSA,A,3,74,85,86,,,,,,,,,,1.51,1.20,0.92*13
$GPGSV,3,1,11,24,62,183,17.7,12,61,007,23.0,02,59,097,18.8,25,38,316,14.9*75
$GPGSV,3,2,11,29,31,249,22.9,06,28,049,13.8,19,14,048,11.3,14,13,298,*64
$GPGSV,3,3,11,32,10,297,11.2,15,03,196,,05,02,140,*52
$GLGSV,2,1,5,75,74,010,,85,64,010,18.3,86,52,235,22.7,74,38,132,22.0*4B
$GLGSV,2,2,5,84,15,032,*69
$GNRMC,153600.000,A,3204.9261,N,03453.8612,E,0.000,82.94,120416,,,A*73
$GNVTG,82.94,T,,M,0.000,N,0.000,K,A*14
$GNGGA,153601.000,3204.9261,N,03453.8612,E,1,7,1.20,-32.1,M,17.0,M,,*58
$GPGSA,A,3,24,12,29,06,,,,,,,,,1.51,1.20,0.92*07
$GLGSA,A,3,74,85,86,,,,,,,,,,1.51,1.20,0.92*13
$GPGSV,3,1,11,24,62,183,16.2,12,61,007,19.6,02,59,097,15.4,25,38,316,17.0*75
$GPGSV,3,2,11,29,31,249,22.9,06,28,049,13.8,19,14,048,12.0,14,13,298,*64
$GPGSV,3,3,11,32,10,297,11.2,15,03,196,,05,02,140,*52
$GLGSV,2,1,5,75,74,010,,85,64,010,16.8,86,52,235,19.8,74,38,132,26.6*4B
$GLGSV,2,2,5,84,15,032,*69
$GNRMC,153601.000,A,3204.9261,N,03453.8612,E,0.000,82.94,120416,,,A*72
$GNVTG,82.94,T,,M,0.000,N,0.000,K,A*14
$GNGGA,153602.000,3204.9261,N,03453.8612,E,1,7,1.20,-32.1,M,17.0,M,,*5B
$GPGSA,A,3,24,12,29,06,,,,,,,,,1.51,1.20,0.92*07
$GLGSA,A,3,74,85,86,,,,,,,,,,1.51,1.20,0.92*13
$GPGSV,3,1,11,24,62,183,20.2,12,61,007,21.1,02,59,097,18.7,25,38,316,17.0*72
$GPGSV,3,2,11,29,31,249,22.0,06,28,049,13.8,19,14,048,12.0,14,13,298,*6D
$GPGSV,3,3,11,32,10,297,11.6,15,03,196,,05,02,140,*56
$GLGSV,2,1,5,75,74,010,,85,64,010,16.8,86,52,235,27.1,74,38,132,26.6*4F
$GLGSV,2,2,5,84,15,032,*69
$GNRMC,153602.000,A,3204.9261,N,03453.8612,E,0.000,82.94,120416,,,A*71
$GNVTG,82.94,T,,M,0.000,N,0.000,K,A*14
$GNGGA,153603.000,3204.9261,N,03453.8612,E,1,7,1.20,-32.1,M,17.0,M,,*5A
$GPGSA,A,3,24,12,29,06,,,,,,,,,1.51,1.20,0.92*07
$GLGSA,A,3,74,85,86,,,,,,,,,,1.51,1.20,0.92*13
$GPGSV,3,1,11,24,62,183,21.0,12,61,007,19.5,02,59,097,15.6,25,38,316,19.5*79
$GPGSV,3,2,11,29,31,249,24.0,06,28,049,12.1,19,14,048,12.0,14,13,298,*63
$GPGSV,3,3,11,32,10,297,11.6,15,03,196,,05,02,140,*56
$GLGSV,2,1,5,75,74,010,,85,64,010,16.8,86,52,235,24.2,74,38,132,19.7*42
$GLGSV,2,2,5,84,15,032,*69
$GNRMC,153603.000,A,3204.9261,N,03453.8612,E,0.000,82.94,120416,,,A*70
$GNVTG,82.94,T,,M,0.000,N,0.000,K,A*14
$GNGGA,153604.000,3204.9261,N,03453.8612,E,1,7,1.20,-32.1,M,17.0,M,,*5D
$GPGSA,A,3,24,12,29,06,,,,,,,,,1.51,1.20,0.92*07
$GLGSA,A,3,74,85,86,,,,,,,,,,1.51,1.20,0.92*13
$GPGSV,3,1,11,24,62,183,21.0,12,61,007,19.9,02,59,097,19.3,25,38,316,18.7*7F
$GPGSV,3,2,11,29,31,249,24.0,06,28,049,12.1,19,14,048,11.7,14,13,298,*67
$GPGSV,3,3,11,32,10,297,12.4,15,03,196,,05,02,140,*57
$GLGSV,2,1,5,75,74,010,,85,64,010,14.9,86,52,235,21.9,74,38,132,19.7*4F
$GLGSV,2,2,5,84,15,032,*69
$GNRMC,153604.000,A,3204.9261,N,03453.8612,E,0.000,82.94,120416,,,A*77
$GNVTG,82.94,T,,M,0.000,N,0.000,K,A*14
$GNGGA,153605.000,3204.9261,N,03453.8612,E,1,7,1.20,-32.1,M,17.0,M,,*5C
$GPGSA,A,3,24,12,29,06,,,,,,,,,1.51,1.20,0.92*07
$GLGSA,A,3,74,85,86,,,,,,,,,,1.51,1.20,0.92*13
$GPGSV,3,1,11,24,62,183,14.6,12,61,007,25.2,02,59,097,19.9,25,38,316,17.3*7A
$GPGSV,3,2,11,29,31,249,24.0,06,28,049,13.1,19,14,048,11.7,14,13,298,*66
$GPGSV,3,3,11,32,10,297,12.4,15,03,196,,05,02,140,*57
$GLGSV,2,1,5,75,74,010,,85,64,010,14.9,86,52,235,17.3,74,38,132,17.2*4B
$GLGSV,2,2,5,84,15,032,*69
$GNRMC,153605.000,A,3204.9261,N,03453.8612,E,0.000,82.94,120416,,,A*76
$GNVTG,82.94,T,,M,0.000,N,0.000,K,A*14
$GNGGA,153606.000,3204.9261,N,03453.8612,E,1,7,1.20,-32.1,M,17.0,M,,*5F
$GPGSA,A,3,24,12,29,06,,,,,,,,,1.51,1.20,0.92*07
$GLGSA,A,3,74,85,86,,,,,,,,,,1.51,1.20,0.92*13
$GPGSV,3,1,11,24,62,183,14.6,12,61,007,21.7,02,59,097,19.3,25,38,316,18.0*7D
$GPGSV,3,2,11,29,31,249,15.7,06,28,049,13.1,19,14,048,12.2,14,13,298,*65
$GPGSV,3,3,11,32,10,297,12.4,15,03,196,,05,02,140,*57
$GLGSV,2,1,5,75,74,010,,85,64,010,14.9,86,52,235,21.6,74,37,133,17.2*45
$GLGSV,2,2,5,84,15,032,*69
$GNRMC,153606.000,A,3204.9261,N,03453.8612,E,0.000,82.94,120416,,,A*75
$GNVTG,82.94,T,,M,0.000,N,0.000,K,A*14
$GNGGA,153607.000,3204.9261,N,03453.8612,E,1,7,1.20,-32.1,M,17.0,M,,*5E
$GPGSA,A,3,24,12,29,06,,,,,,,,,1.51,1.20,0.92*07
$GLGSA,A,3,74,85,86,,,,,,,,,,1.51,1.20,0.92*13
$GPGSV,3,1,11,24,62,183,14.6,12,61,007,27.8,02,59,097,15.7,25,38,316,18.3*7F
$GPGSV,3,2,11,29,31,249,16.9,06,28,049,13.1,19,14,048,12.2,14,13,298,*68
$GPGSV,3,3,11,32,10,297,11.2,15,03,196,,05,02,140,*52
$GLGSV,2,1,5,75,75,012,,85,64,010,17.8,86,52,235,22.8,74,37,133,17.2*49
$GLGSV,2,2,5,84,15,032,*69
$GNRMC,153607.000,A,3204.9261,N,03453.8612,E,0.000,82.94,120416,,,A*74
$GNVTG,82.94,T,,M,0.000,N,0.000,K,A*14
$GNGGA,153608.000,3204.9261,N,03453.8612,E,1,7,1.20,-32.1,M,17.0,M,,*51
$GPGSA,A,3,24,12,29,06,,,,,,,,,1.51,1.20,0.92*07
$GLGSA,A,3,74,85,86,,,,,,,,,,1.51,1.20,0.92*13
$GPGSV,3,1,11,24,62,183,16.1,12,61,007,23.9,02,59,097,18.4,25,38,316,16.0*7C
$GPGSV,3,2,11,29,31,249,17.5,06,28,049,14.9,19,14,048,12.2,14,13,298,*6A
$GPGSV,3,3,11,32,10,297,11.2,15,03,196,,05,02,140,*52
$GLGSV,2,1,5,75,75,012,,85,64,010,19.0,86,52,235,22.8,74,37,133,25.1*4D
$GLGSV,2,2,5,84,15,032,*69
$GNRMC,153608.000,A,3204.9261,N,03453.8612,E,0.000,82.94,120416,,,A*7B
$GNVTG,82.94,T,,M,0.000,N,0.000,K,A*14
$GNGGA,153609.000,3204.9261,N,03453.8612,E,1,7,1.20,-32.1,M,17.0,M,,*50
$GPGSA,A,3,24,12,29,06,,,,,,,,,1.51,1.20,0.92*07
$GLGSA,A,3,74,85,86,,,,,,,,,,1.51,1.20,0.92*13
$GPGSV,3,1,11,24,62,183,16.1,12,61,007,23.9,02,59,097,18.4,25,38,316,16.0*7C
$GPGSV,3,2,11,29,31,249,17.5,06,28,049,14.9,19,14,048,13.1,14,13,298,*68
$GPGSV,3,3,11,32,10,297,11.2,15,03,196,,05,02,140,*52
$GLGSV,2,1,5,75,75,012,,85,64,010,19.0,86,52,235,22.8,74,37,133,17.4*49
$GLGSV,2,2,5,84,15,032,*69
$GNRMC,153609.000,A,3204.9261,N,03453.8612,E,0.000,82.94,120416,,,A*7A
$GNVTG,82.94,T,,M,0.000,N,0.000,K,A*14
$GNGGA,153610.000,3204.9261,N,03453.8612,E,1,7,1.20,-32.1,M,17.0,M,,*58
$GPGSA,A,3,24,12,29,06,,,,,,,,,1.51,1.20,0.92*07
$GLGSA,A,3,74,85,86,,,,,,,,,,1.51,1.20,0.92*13
$GPGSV,3,1,11,24,62,183,16.1,12,61,007,19.5,02,59,097,17.2,25,38,316,13.9*7C
$GPGSV,3,2,11,29,31,249,17.5,06,28,049,14.9,19,14,048,13.1,14,13,298,*68
$GPGSV,3,3,11,32,10,297,13.3,15,03,196,,05,02,140,*51
$GLGSV,2,1,5,75,75,012,,85,64,010,19.0,86,52,235,13.4,74,37,133,22.7*42
$GLGSV,2,2,5,84,15,032,*69
$GNRMC,153610.000,A,3204.9261,N,03453.8612,E,0.000,82.94,120416,,,A*72
$GNVTG,82.94,T,,M,0.000,N,0.000,K,A*14
$GNGGA,153611.000,3204.9261,N,03453.8612,E,1,7,1.20,-32.1,M,17.0,M,,*59
$GPGSA,A,3,24,12,29,06,,,,,,,,,1.51,1.20,0.92*07
$GLGSA,A,3,74,85,86,,,,,,,,,,1.51,1.20,0.92*13
$GPGSV,3,1,11,24,62,183,14.4,12,61,007,19.1,02,59,097,21.9,25,38,316,22.0*7A
$GPGSV,3,2,11,29,31,249,15.9,06,28,049,14.2,19,14,048,13.1,14,13,298,*6D
$GPGSV,3,3,11,32,10,297,13.3,15,03,196,,05,02,140,*51
$GLGSV,2,1,5,75,75,012,,85,64,010,14.2,86,52,235,13.4,74,37,133,27.0*4F
$GLGSV,2,2,5,84,15,032,*69
$GNRMC,153611.000,A,3204.9261,N,03453.8612,E,0.000,82.94,120416,,,A*73
$GNVTG,82.94,T,,M,0.000,N,0.000,K,A*14
$GNGGA,153612.000,3204.9261,N,03453.8612,E,1,7,1.20,-32.1,M,17.0,M,,*5A
$GPGSA,A,3,24,12,29,06,,,,,,,,,1.51,1.20,0.92*07
$GLGSA,A,3,74,85,86,,,,,,,,,,1.51,1.20,0.92*13
$GPGSV,3,1,11,24,62,183,16.3,12,61,007,18.7,02,59,097,26.8,25,38,316,21.0*7D
$GPGSV,3,2,11,29,31,249,15.9,06,28,049,14.2,19,14,048,11.9,14,13,298,*67
$GPGSV,3,3,11,32,10,297,13.5,15,03,196,,05,02,140,*57
$GLGSV,2,1,5,75,75,012,,85,64,010,14.2,86,52,235,14.7,74,37,133,24.4*4C
$GLGSV,2,2,5,84,15,032,*69
$GNRMC,153612.000,A,3204.9261,N,03453.8612,E,0.000,82.94,120416,,,A*70
