$GPGGA,154341.16,,,,,0,00,333.9,,M,,M,,*6D
$GPGSV,3,1,11,12,62,015,,02,60,089,,24,57,182,,25,41,319,*7B
$GPGSV,3,2,11,29,34,253,,06,26,046,,14,13,294,,19,11,050,*75
$GPGSV,3,3,11,32,10,294,,05,05,138,,15,01,193,*42
$GPGSA,A,1,,,,,,,,,,,,,140.0,99.0,99.0*35
$GNGSA,A,1,,,,,,,,,,,,,140.0,99.0,99.0*2B
$GNGSA,A,1,,,,,,,,,,,,,140.0,99.0,99.0*2B
$QZGSA,A,1,,,,,,,,,,,,,140.0,99.0,99.0*29
$GPRMC,154341.16,V,,,,,,,120416,,,N*7C
$GPGGA,154342.06,,,,,0,00,333.9,,M,,M,,*6F
$GPGSV,4,1,15,13,01,000,,04,01,000,,21,01,000,,09,01,000,*74
$GPGSV,4,2,15,12,62,015,,02,60,089,,24,57,182,,25,41,319,*7B
$GPGSV,4,3,15,29,34,253,,06,26,046,,14,13,294,,19,11,050,*77
$GPGSV,4,4,15,32,10,294,,05,05,138,,15,01,193,*46
$GLGSV,1,1,01,74,01,000,*56
$GPGSA,A,1,,,,,,,,,,,,,140.0,99.0,99.0*35
$GNGSA,A,1,,,,,,,,,,,,,140.0,99.0,99.0*2B
$GNGSA,A,1,,,,,,,,,,,,,140.0,99.0,99.0*2B
$QZGSA,A,1,,,,,,,,,,,,,140.0,99.0,99.0*29
$GPRMC,154342.06,V,,,,,,,120416,,,N*7E
$GPGGA,154343.06,,,,,0,00,333.9,,M,,M,,*6E
$GPGSV,4,1,15,25,41,319,31,29,34,253,33,04,01,000,,09,01,000,*76
$GPGSV,4,2,15,13,01,000,,21,01,000,,12,62,015,,02,60,089,*7C
$GPGSV,4,3,15,24,57,182,,06,26,046,,14,13,294,,19,11,050,*70
$GPGSV,4,4,15,32,10,294,,05,05,138,,15,01,193,*46
$GLGSV,1,1,01,74,01,000,*56
$GPGSA,A,1,,,,,,,,,,,,,140.0,99.0,99.0*35
$GNGSA,A,1,,,,,,,,,,,,,140.0,99.0,99.0*2B
$GNGSA,A,1,,,,,,,,,,,,,140.0,99.0,99.0*2B
$QZGSA,A,1,,,,,,,,,,,,,140.0,99.0,99.0*29
$GPRMC,154343.06,V,,,,,,,120416,,,N*7F
$GPGGA,154344.06,,,,,0,00,333.9,,M,,M,,*69
$GPGSV,4,1,15,25,41,319,36,29,34,253,32,04,01,000,,09,01,000,*70
$GPGSV,4,2,15,13,01,000,,21,01,000,,12,62,015,,02,60,089,*7C
$GPGSV,4,3,15,24,57,182,,06,26,046,,14,13,294,,19,11,050,*70
$GPGSV,4,4,15,32,10,294,,05,05,138,,15,01,193,*46
$GLGSV,1,1,01,74,01,000,*56
$GPGSA,A,1,,,,,,,,,,,,,140.0,99.0,99.0*35
$GNGSA,A,1,,,,,,,,,,,,,140.0,99.0,99.0*2B
$GNGSA,A,1,,,,,,,,,,,,,140.0,99.0,99.0*2B
$QZGSA,A,1,,,,,,,,,,,,,140.0,99.0,99.0*29
$GPRMC,154344.06,V,,,,,,,120416,,,N*78
$GPGGA,154345.04,,,,,0,06,20.0,,M,,M,,*54
$GPGSV,4,1,15,12,62,015,27,02,60,089,24,25,41,319,36,29,34,253,29*72
$GPGSV,4,2,15,06,26,046,27,14,13,294,28,32,10,294,34,04,01,000,*71
$GPGSV,4,3,15,09,01,000,,13,01,000,,21,01,000,,24,57,182,*7C
$GPGSV,4,4,15,19,11,050,,05,05,138,,15,01,193,*44
$GLGSV,1,1,01,74,01,000,*56
$GPGSA,A,1,,,,,,,,,,,,,7.1,3.7,6.0*34
$GNGSA,A,1,,,,,,,,,,,,,7.1,3.7,6.0*2A
$GNGSA,A,1,,,,,,,,,,,,,7.1,3.7,6.0*2A
$QZGSA,A,1,,,,,,,,,,,,,7.1,3.7,6.0*28
$GPRMC,154345.04,V,,,,,,,120416,,,N*7B
$GPGGA,154345.98,,,,,0,08,9.6,,M,,M,,*62
$GPGSV,5,1,17,12,62,015,30,02,60,089,25,24,57,183,21,25,41,319,36*78
$GPGSV,5,2,17,29,34,253,27,06,26,046,27,14,13,294,29,32,10,294,34*7B
$GPGSV,5,3,17,04,01,000,,07,01,000,,09,01,000,,13,01,000,*71
$GPGSV,5,4,17,17,01,000,,21,01,000,,19,11,050,,05,05,138,*7C
$GPGSV,5,5,17,15,01,193,*41
$GLGSV,2,1,06,75,01,000,,82,01,000,,73,01,000,,76,01,000,*6D
$GLGSV,2,2,06,74,01,000,,66,01,000,*60
$GPGSA,A,1,,,,,,,,,,,,,6.2,3.4,5.2*34
$GNGSA,A,1,,,,,,,,,,,,,6.2,3.4,5.2*2A
$GNGSA,A,1,,,,,,,,,,,,,6.2,3.4,5.2*2A
$QZGSA,A,1,,,,,,,,,,,,,6.2,3.4,5.2*28
$GPRMC,154345.98,V,,,,,,,120416,,,N*7E
$GPGGA,154346.98,3206.366670,N,03512.343764,E,1,07,4.8,654.1,M,19.0,M,,*68
$GPGSV,4,1,13,12,62,015,32,02,60,089,23,24,57,183,26,25,41,319,36*7E
$GPGSV,4,2,13,29,34,253,25,06,26,046,26,14,13,294,29,19,11,050,18*71
$GPGSV,4,3,13,32,10,294,34,07,01,000,,17,01,000,,05,05,138,*7F
$GPGSV,4,4,13,15,01,193,*45
$GLGSV,2,1,05,75,01,000,,73,01,000,,76,01,000,,66,01,000,*64
$GLGSV,2,2,05,82,01,000,*5B
$GPGSA,A,3,06,12,14,19,24,25,32,,,,,,9.0,5.8,6.9*31
$GNGSA,A,3,06,12,14,19,24,25,32,,,,,,9.0,5.8,6.9*2F
$GNGSA,A,3,,,,,,,,,,,,,9.0,5.8,6.9*27
$QZGSA,A,3,,,,,,,,,,,,,9.0,5.8,6.9*25
$GPRMC,154346.98,A,3206.366670,N,03512.343764,E,000.0,,120416,,,A*71
$GPGGA,154347.98,3206.377621,N,03512.342476,E,1,08,3.2,656.3,M,19.0,M,,*6E
$GPGSV,4,1,13,12,62,015,32,02,60,089,28,24,57,183,27,25,41,319,35*77
$GPGSV,4,2,13,29,34,253,23,06,26,046,26,14,13,294,30,19,11,050,17*70
$GPGSV,4,3,13,32,10,294,33,07,01,000,,17,01,000,,05,05,138,*78
$GPGSV,4,4,13,15,01,193,*45
$GLGSV,2,1,05,75,01,000,,73,01,000,,76,01,000,,66,01,000,*64
$GLGSV,2,2,05,82,01,000,*5B
$GPGSA,A,3,02,06,12,14,24,25,29,32,,,,,3.4,1.9,2.8*3E
$GNGSA,A,3,02,06,12,14,24,25,29,32,,,,,3.4,1.9,2.8*20
$GNGSA,A,3,,,,,,,,,,,,,3.4,1.9,2.8*29
$QZGSA,A,3,,,,,,,,,,,,,3.4,1.9,2.8*2B
$GPRMC,154347.98,A,3206.377621,N,03512.342476,E,000.0,,120416,,,A*75
$GPGGA,154348.98,3206.377621,N,03512.342476,E,1,08,3.2,662.4,M,19.0,M,,*61
$GPGSV,4,1,13,12,62,015,32,02,60,089,30,24,57,183,27,25,41,319,35*7E
$GPGSV,4,2,13,29,34,253,23,06,26,046,29,14,13,294,30,19,11,050,13*7B
$GPGSV,4,3,13,32,10,294,33,07,01,000,,17,01,000,,05,05,138,*78
$GPGSV,4,4,13,15,01,193,*45
$GLGSV,2,1,05,75,01,000,,73,01,000,,76,01,000,,66,01,000,*64
$GLGSV,2,2,05,82,01,000,*5B
$GPGSA,A,3,02,06,12,14,24,25,29,32,,,,,3.5,2.0,2.8*35
$GNGSA,A,3,02,06,12,14,24,25,29,32,,,,,3.5,2.0,2.8*2B
$GNGSA,A,3,,,,,,,,,,,,,3.5,2.0,2.8*22
$QZGSA,A,3,,,,,,,,,,,,,3.5,2.0,2.8*20
$GPRMC,154348.98,A,3206.377621,N,03512.342476,E,000.0,,120416,,,A*7A
$GPGGA,154349.98,3206.377621,N,03512.342476,E,1,09,3.2,668.5,M,19.0,M,,*6A
$GPGSV,4,1,13,12,62,015,32,02,60,089,30,24,57,183,28,25,41,319,35*71
$GPGSV,4,2,13,29,34,253,23,06,26,046,32,14,13,294,29,19,11,050,17*7D
$GPGSV,4,3,13,32,10,294,32,07,01,000,,17,01,000,,05,05,138,*79
$GPGSV,4,4,13,15,01,193,*45
$GLGSV,2,1,05,75,01,000,,73,01,000,,76,01,000,,66,01,000,*64
$GLGSV,2,2,05,82,01,000,*5B
$GPGSA,A,3,02,06,12,14,19,24,25,29,32,,,,3.5,2.0,2.8*3D
$GNGSA,A,3,02,06,12,14,19,24,25,29,32,,,,3.5,2.0,2.8*23
$GNGSA,A,3,,,,,,,,,,,,,3.5,2.0,2.8*22
$QZGSA,A,3,,,,,,,,,,,,,3.5,2.0,2.8*20
$GPRMC,154349.98,A,3206.377621,N,03512.342476,E,000.0,,120416,,,A*7B
$GPGGA,154351.00,3206.377621,N,03512.342476,E,1,09,1.2,656.9,M,19.0,M,,*61
$GPGSV,5,1,17,12,62,015,32,02,60,089,31,24,57,183,28,25,41,319,34*74
$GPGSV,5,2,17,29,34,253,22,06,26,046,32,14,13,294,29,19,11,050,17*79
$GPGSV,5,3,17,32,10,294,31,01,01,000,,07,01,000,,08,01,000,*7B
$GPGSV,5,4,17,11,01,000,,17,01,000,,23,01,000,,05,05,138,*72
$GPGSV,5,5,17,15,01,193,*41
$GLGSV,2,1,08,83,01,000,,65,01,000,,84,01,000,,66,01,000,*6A
$GLGSV,2,2,08,82,01,000,,73,01,000,,76,01,000,,75,01,000,*60
$GPGSA,A,3,02,06,12,14,19,24,25,29,32,,,,3.5,2.0,2.8*3D
$GNGSA,A,3,02,06,12,14,19,24,25,29,32,,,,3.5,2.0,2.8*23
$GNGSA,A,3,,,,,,,,,,,,,3.5,2.0,2.8*22
$QZGSA,A,3,,,,,,,,,,,,,3.5,2.0,2.8*20
$GPRMC,154351.00,A,3206.377621,N,03512.342476,E,000.0,,120416,,,A*73
$GPGGA,154352.00,3206.377621,N,03512.342476,E,1,09,1.2,654.9,M,19.0,M,,*60
$GPGSV,4,1,15,12,62,015,35,02,60,089,30,24,57,183,28,25,41,319,34*71
$GPGSV,4,2,15,29,34,253,22,06,26,046,32,14,13,294,29,19,11,050,17*7A
$GPGSV,4,3,15,32,10,294,31,01,01,000,,08,01,000,,11,01,000,*7F
$GPGSV,4,4,15,23,01,000,,05,05,138,,15,01,193,*49
$GLGSV,1,1,03,83,01,000,,65,01,000,,84,01,000,*53
$GPGSA,A,3,02,06,12,14,19,24,25,29,32,,,,2.9,1.7,2.4*38
$GNGSA,A,3,02,06,12,14,19,24,25,29,32,,,,2.9,1.7,2.4*26
$GNGSA,A,3,,,,,,,,,,,,,2.9,1.7,2.4*27
$QZGSA,A,3,,,,,,,,,,,,,2.9,1.7,2.4*25
$GPRMC,154352.00,A,3206.377621,N,03512.342476,E,000.0,,120416,,,A*70
$GPGGA,154353.00,3206.377621,N,03512.342476,E,1,09,0.8,653.4,M,19.0,M,,*60
$GPGSV,4,1,15,12,62,015,35,02,60,089,30,24,57,183,28,25,41,319,34*71
$GPGSV,4,2,15,29,34,253,22,06,26,046,32,14,13,294,29,19,11,050,16*7B
$GPGSV,4,3,15,32,10,294,31,01,01,000,,08,01,000,,11,01,000,*7F
$GPGSV,4,4,15,23,01,000,,05,05,138,,15,01,193,*49
$GLGSV,1,1,03,83,01,000,,65,01,000,,84,01,000,*53
$GPGSA,A,3,02,06,12,14,19,24,25,29,32,,,,2.9,1.6,2.4*39
$GNGSA,A,3,02,06,12,14,19,24,25,29,32,,,,2.9,1.6,2.4*27
$GNGSA,A,3,,,,,,,,,,,,,2.9,1.6,2.4*26
$QZGSA,A,3,,,,,,,,,,,,,2.9,1.6,2.4*24
$GPRMC,154353.00,A,3206.377621,N,03512.342476,E,000.0,,120416,,,A*71
$GPGGA,154354.00,3206.377621,N,03512.342476,E,1,09,0.8,654.0,M,19.0,M,,*64
$GPGSV,4,1,15,12,62,015,34,02,60,089,33,24,57,182,28,25,41,319,34*72
$GPGSV,4,2,15,29,34,253,22,06,26,046,31,14,13,294,29,19,11,050,16*78
$GPGSV,4,3,15,32,10,294,30,01,01,000,,08,01,000,,11,01,000,*7E
$GPGSV,4,4,15,23,01,000,,05,05,138,,15,01,193,*49
$GLGSV,1,1,03,83,01,000,,65,01,000,,84,01,000,*53
$GPGSA,A,3,02,06,12,14,19,24,25,29,32,,,,2.3,1.3,1.9*38
$GNGSA,A,3,02,06,12,14,19,24,25,29,32,,,,2.3,1.3,1.9*26
$GNGSA,A,3,,,,,,,,,,,,,2.3,1.3,1.9*27
$QZGSA,A,3,,,,,,,,,,,,,2.3,1.3,1.9*25
$GPRMC,154354.00,A,3206.377621,N,03512.342476,E,000.0,,120416,,,A*76
$GPGGA,154355.00,3206.369399,N,03512.352241,E,1,09,0.8,649.5,M,19.0,M,,*66
$GPGSV,5,1,19,12,62,015,34,02,60,089,33,24,57,182,28,25,41,319,33*78
$GPGSV,5,2,19,29,34,253,22,06,26,046,31,14,13,294,28,19,11,050,16*74
$GPGSV,5,3,19,32,10,294,30,01,01,000,,03,01,000,,08,01,000,*70
$GPGSV,5,4,19,10,01,000,,11,01,000,,16,01,000,,23,01,000,*77
$GPGSV,5,5,19,31,01,000,,05,05,138,,15,01,193,*46
$GLGSV,2,1,06,68,01,000,,81,01,000,,67,01,000,,65,01,000,*65
$GLGSV,2,2,06,84,01,000,,83,01,000,*64
$GPGSA,A,3,02,06,12,14,19,24,25,29,32,,,,2.3,1.3,1.9*38
$GNGSA,A,3,02,06,12,14,19,24,25,29,32,,,,2.3,1.3,1.9*26
$GNGSA,A,3,,,,,,,,,,,,,2.3,1.3,1.9*27
$QZGSA,A,3,,,,,,,,,,,,,2.3,1.3,1.9*25
$GPRMC,154355.00,A,3206.369399,N,03512.352241,E,000.0,,120416,,,A*7D
$GPGGA,154356.00,3206.368852,N,03512.353746,E,1,09,0.8,649.7,M,19.0,M,,*69
$GPGSV,4,1,15,12,62,015,34,02,60,089,33,24,57,182,28,25,41,319,33*75
$GPGSV,4,2,15,29,34,253,22,06,26,046,31,14,13,294,28,19,11,050,16*79
$GPGSV,4,3,15,32,10,294,29,03,01,000,,10,01,000,,16,01,000,*7A
$GPGSV,4,4,15,31,01,000,,05,05,138,,15,01,193,*4A
$GLGSV,1,1,03,68,01,000,,81,01,000,,67,01,000,*51
$GPGSA,A,3,02,06,12,14,19,24,25,29,32,,,,2.3,1.3,1.9*38
$GNGSA,A,3,02,06,12,14,19,24,25,29,32,,,,2.3,1.3,1.9*26
$GNGSA,A,3,,,,,,,,,,,,,2.3,1.3,1.9*27
$QZGSA,A,3,,,,,,,,,,,,,2.3,1.3,1.9*25
$GPRMC,154356.00,A,3206.368852,N,03512.353746,E,002.9,,120416,,,A*7B
$GPGGA,154357.00,3206.368235,N,03512.355372,E,1,09,0.8,648.5,M,19.0,M,,*65
$GPGSV,4,1,15,12,62,015,34,02,60,089,32,24,57,182,28,25,41,319,33*74
$GPGSV,4,2,15,29,34,253,26,06,26,046,31,14,13,294,28,19,11,050,16*7D
$GPGSV,4,3,15,32,10,294,29,03,01,000,,10,01,000,,16,01,000,*7A
$GPGSV,4,4,15,31,01,000,,05,05,138,,15,01,193,*4A
$GLGSV,1,1,03,68,01,000,,81,01,000,,67,01,000,*51
$GPGSA,A,3,02,06,12,14,19,24,25,29,32,,,,2.3,1.3,1.9*38
$GNGSA,A,3,02,06,12,14,19,24,25,29,32,,,,2.3,1.3,1.9*26
$GNGSA,A,3,,,,,,,,,,,,,2.3,1.3,1.9*27
$QZGSA,A,3,,,,,,,,,,,,,2.3,1.3,1.9*25
$GPRMC,154357.00,A,3206.368235,N,03512.355372,E,002.2,,120416,,,A*7F
$GPGGA,154358.00,3206.368235,N,03512.355372,E,1,09,0.8,647.4,M,19.0,M,,*64
$GPGSV,4,1,15,12,62,015,34,02,60,089,32,24,57,182,28,25,41,319,33*74
$GPGSV,4,2,15,29,34,253,26,06,26,046,31,14,13,294,30,19,11,050,16*74
$GPGSV,4,3,15,32,10,294,30,03,01,000,,10,01,000,,16,01,000,*72
$GPGSV,4,4,15,31,01,000,,05,05,138,,15,01,193,*4A
$GLGSV,1,1,03,68,01,000,,81,01,000,,67,01,000,*51
$GPGSA,A,3,02,06,12,14,19,24,25,29,32,,,,2.3,1.3,1.9*38
$GNGSA,A,3,02,06,12,14,19,24,25,29,32,,,,2.3,1.3,1.9*26
$GNGSA,A,3,,,,,,,,,,,,,2.3,1.3,1.9*27
$QZGSA,A,3,,,,,,,,,,,,,2.3,1.3,1.9*25
$GPRMC,154358.00,A,3206.368235,N,03512.355372,E,000.0,,120416,,,A*70
$GPGGA,154359.00,3206.367506,N,03512.357870,E,1,10,0.8,644.9,M,19.0,M,,*60
$GPGSV,4,1,15,12,62,015,34,02,60,089,32,24,57,182,30,25,41,319,33*7D
$GPGSV,4,2,15,29,34,253,25,06,26,046,30,14,13,294,29,19,11,050,16*7E
$GPGSV,4,3,15,32,10,294,30,05,05,138,13,03,01,000,,10,01,000,*7C
$GPGSV,4,4,15,16,01,000,,31,01,000,,15,01,193,*46
$GLGSV,1,1,03,81,01,000,,67,01,000,,68,01,000,*51
$GPGSA,A,3,02,05,06,12,14,19,24,25,29,32,,,2.3,1.3,1.9*3D
$GNGSA,A,3,02,05,06,12,14,19,24,25,29,32,,,2.3,1.3,1.9*23
$GNGSA,A,3,,,,,,,,,,,,,2.3,1.3,1.9*27
$QZGSA,A,3,,,,,,,,,,,,,2.3,1.3,1.9*25
$GPRMC,154359.00,A,3206.367506,N,03512.357870,E,002.4,,120416,,,A*74
$GPGGA,154400.00,3206.367207,N,03512.358881,E,1,09,0.8,646.1,M,19.0,M,,*6E
$GPGSV,6,1,22,12,62,015,35,02,60,089,32,24,57,182,29,25,41,319,33*72
$GPGSV,6,2,22,29,34,253,25,06,26,046,30,14,13,294,29,19,11,050,16*78
$GPGSV,6,3,22,32,10,294,30,05,05,138,12,30,01,000,,31,01,000,*78
$GPGSV,6,4,22,03,01,000,,10,01,000,,16,01,000,,18,01,000,*77
$GPGSV,6,5,22,20,01,000,,22,01,000,,26,01,000,,27,01,000,*79
$GPGSV,6,6,22,28,01,000,,15,01,193,*7C
$GLGSV,1,1,03,81,01,000,,67,01,000,,68,01,000,*51
$GPGSA,A,3,02,06,12,14,19,24,25,29,32,,,,2.3,1.3,1.9*38
$GNGSA,A,3,02,06,12,14,19,24,25,29,32,,,,2.3,1.3,1.9*26
$GNGSA,A,3,,,,,,,,,,,,,2.3,1.3,1.9*27
$QZGSA,A,3,,,,,,,,,,,,,2.3,1.3,1.9*25
$GPRMC,154400.00,A,3206.367207,N,03512.358881,E,002.5,,120416,,,A*79
$GPGGA,154401.00,3206.366991,N,03512.359935,E,1,09,0.8,646.1,M,19.0,M,,*65
$GPGSV,5,1,18,12,62,015,35,02,60,089,31,24,57,182,29,25,41,319,34*7C
$GPGSV,5,2,18,29,34,253,25,06,26,046,30,14,13,294,29,19,11,050,16*72
$GPGSV,5,3,18,32,10,294,30,05,05,138,09,18,01,000,,20,01,000,*72
$GPGSV,5,4,18,22,01,000,,26,01,000,,27,01,000,,28,01,000,*7A
$GPGSV,5,5,18,30,01,000,,15,01,193,*7C
$GPGSA,A,3,02,06,12,14,19,24,25,29,32,,,,2.5,1.7,1.9*3A
$GNGSA,A,3,02,06,12,14,19,24,25,29,32,,,,2.5,1.7,1.9*24
$GNGSA,A,3,,,,,,,,,,,,,2.5,1.7,1.9*25
$QZGSA,A,3,,,,,,,,,,,,,2.5,1.7,1.9*27
$GPRMC,154401.00,A,3206.366991,N,03512.359935,E,003.1,,120416,,,A*77
$GPGGA,154402.00,3206.366643,N,03512.361299,E,1,09,0.8,645.5,M,19.0,M,,*67
$GPGSV,5,1,18,12,62,015,35,02,60,089,31,24,57,182,29,25,41,319,34*7C
$GPGSV,5,2,18,29,34,253,24,06,26,046,31,14,13,294,29,19,11,050,16*72
$GPGSV,5,3,18,32,10,294,30,30,01,000,,27,01,000,,28,01,000,*77
$GPGSV,5,4,18,18,01,000,,20,01,000,,22,01,000,,26,01,000,*7E
$GPGSV,5,5,18,05,05,138,,15,01,193,*74
$GPGSA,A,3,02,06,12,14,19,24,25,29,32,,,,2.3,1.3,1.9*38
$GNGSA,A,3,02,06,12,14,19,24,25,29,32,,,,2.3,1.3,1.9*26
$GNGSA,A,3,,,,,,,,,,,,,2.3,1.3,1.9*27
$QZGSA,A,3,,,,,,,,,,,,,2.3,1.3,1.9*25
$GPRMC,154402.00,A,3206.366643,N,03512.361299,E,002.8,099.9,120416,,,A*5D
$GPGGA,154403.00,3206.366345,N,03512.362921,E,1,09,0.8,645.8,M,19.0,M,,*63
$GPGSV,5,1,18,12,62,015,35,02,60,089,30,24,57,182,29,25,41,319,34*7D
$GPGSV,5,2,18,29,34,253,24,06,26,046,34,14,13,294,29,19,11,050,16*77
$GPGSV,5,3,18,32,10,294,30,30,01,000,,27,01,000,,28,01,000,*77
$GPGSV,5,4,18,18,01,000,,20,01,000,,22,01,000,,26,01,000,*7E
$GPGSV,5,5,18,05,05,138,,15,01,193,*74
$GPGSA,A,3,02,06,12,14,19,24,25,29,32,,,,2.3,1.3,1.9*38
$GNGSA,A,3,02,06,12,14,19,24,25,29,32,,,,2.3,1.3,1.9*26
$GNGSA,A,3,,,,,,,,,,,,,2.3,1.3,1.9*27
$QZGSA,A,3,,,,,,,,,,,,,2.3,1.3,1.9*25
$GPRMC,154403.00,A,3206.366345,N,03512.362921,E,003.1,096.3,120416,,,A*59
$GPGGA,154404.00,3206.366346,N,03512.364569,E,1,09,0.8,645.7,M,19.0,M,,*6E
$GPGSV,5,1,18,12,62,015,35,02,60,089,30,24,57,182,28,25,41,319,34*7C
$GPGSV,5,2,18,29,34,253,24,06,26,046,34,14,13,294,28,19,11,050,16*76
$GPGSV,5,3,18,32,10,293,30,18,01,000,,20,01,000,,22,01,000,*77
$GPGSV,5,4,18,26,01,000,,27,01,000,,28,01,000,,30,01,000,*79
$GPGSV,5,5,18,05,05,138,,15,01,193,*74
$QZGSV,1,1,03,03,01,000,,01,01,000,,02,01,000,*57
$GPGSA,A,3,02,06,12,14,19,24,25,29,32,,,,2.3,1.3,1.9*38
$GNGSA,A,3,02,06,12,14,19,24,25,29,32,,,,2.3,1.3,1.9*26
$GNGSA,A,3,,,,,,,,,,,,,2.3,1.3,1.9*27
$QZGSA,A,3,,,,,,,,,,,,,2.3,1.3,1.9*25
$GPRMC,154404.00,A,3206.366346,N,03512.364569,E,003.1,085.3,120416,,,A*59
$GPGGA,154405.00,3206.366223,N,03512.365843,E,1,09,0.6,644.7,M,19.0,M,,*66
$GPGSV,4,1,16,12,62,015,35,02,60,089,31,24,57,182,28,25,41,319,34*72
$GPGSV,4,2,16,29,34,253,24,06,26,046,34,14,13,294,28,19,11,050,16*79
$GPGSV,4,3,16,32,10,293,30,20,01,000,,21,01,000,,22,01,000,*72
$GPGSV,4,4,16,27,01,000,,30,01,000,,05,05,138,,15,01,193,*7C
$GLGSV,1,1,01,74,01,000,*56
$QZGSV,2,1,05,05,01,000,,03,01,000,,04,01,000,,01,01,000,*60
$QZGSV,2,2,05,02,01,000,*53
$GPGSA,A,3,02,06,12,14,19,24,25,29,32,,,,2.3,1.3,1.9*38
$GNGSA,A,3,02,06,12,14,19,24,25,29,32,,,,2.3,1.3,1.9*26
$GNGSA,A,3,,,,,,,,,,,,,2.3,1.3,1.9*27
$QZGSA,A,3,,,,,,,,,,,,,2.3,1.3,1.9*25
$GPRMC,154405.00,A,3206.366223,N,03512.365843,E,002.9,098.5,120416,,,A*5D
$GPGGA,154406.00,3206.366091,N,03512.366919,E,1,10,0.6,645.4,M,19.0,M,,*69
$GPGSV,3,1,12,12,62,015,35,02,60,089,31,24,57,182,28,25,41,319,34*71
$GPGSV,3,2,12,29,34,253,24,06,25,046,34,14,13,294,28,19,11,050,16*79
$GPGSV,3,3,12,32,10,293,29,05,05,138,11,21,01,000,,15,01,193,*7F
$GLGSV,1,1,01,74,01,000,*56
$QZGSV,2,1,05,01,01,000,,02,01,000,,03,01,000,,04,01,000,*67
$QZGSV,2,2,05,05,01,000,*54
$GPGSA,A,3,02,05,06,12,14,19,24,25,29,32,,,2.3,1.3,1.9*3D
$GNGSA,A,3,02,05,06,12,14,19,24,25,29,32,,,2.3,1.3,1.9*23
$GNGSA,A,3,,,,,,,,,,,,,2.3,1.3,1.9*27
$QZGSA,A,3,,,,,,,,,,,,,2.3,1.3,1.9*25
$GPRMC,154406.00,A,3206.366091,N,03512.366919,E,002.6,098.0,120416,,,A*52
$GPGGA,154407.00,3206.365674,N,03512.368014,E,1,10,0.6,644.5,M,19.0,M,,*6C
$GPGSV,3,1,12,12,62,015,36,02,60,089,30,24,57,182,28,25,41,319,33*74
$GPGSV,3,2,12,29,34,253,24,06,25,046,34,14,13,294,28,19,11,050,15*7A
$GPGSV,3,3,12,32,10,293,28,05,05,138,11,21,01,000,,15,01,193,*7E
$GLGSV,1,1,01,74,01,000,*56
$QZGSV,2,1,05,01,01,000,,02,01,000,,03,01,000,,04,01,000,*67
$QZGSV,2,2,05,05,01,000,*54
$GPGSA,A,3,02,05,06,12,14,19,24,25,29,32,,,2.3,1.3,1.9*3D
$GNGSA,A,3,02,05,06,12,14,19,24,25,29,32,,,2.3,1.3,1.9*23
$GNGSA,A,3,,,,,,,,,,,,,2.3,1.3,1.9*27
$QZGSA,A,3,,,,,,,,,,,,,2.3,1.3,1.9*25
$GPRMC,154407.00,A,3206.365674,N,03512.368014,E,003.1,116.8,120416,,,A*5E
$GPGGA,154408.00,3206.365249,N,03512.368838,E,1,10,0.6,643.8,M,19.0,M,,*65
$GPGSV,3,1,12,12,62,015,36,02,60,089,30,24,57,182,28,25,41,319,33*74
$GPGSV,3,2,12,29,34,253,23,06,25,046,34,14,13,294,28,19,11,050,15*7D
$GPGSV,3,3,12,32,10,293,28,05,05,138,11,21,01,000,,15,01,193,*7E
$GLGSV,1,1,01,74,01,000,*56
$QZGSV,2,1,05,01,01,000,,02,01,000,,03,01,000,,04,01,000,*67
$QZGSV,2,2,05,05,01,000,*54
$GPGSA,A,3,02,05,06,12,14,19,24,25,29,32,,,1.9,1.2,1.5*39
$GNGSA,A,3,02,05,06,12,14,19,24,25,29,32,,,1.9,1.2,1.5*27
$GNGSA,A,3,,,,,,,,,,,,,1.9,1.2,1.5*23
$QZGSA,A,3,,,,,,,,,,,,,1.9,1.2,1.5*21
$GPRMC,154408.00,A,3206.365249,N,03512.368838,E,003.3,122.1,120416,,,A*51
$GPGGA,154409.00,3206.364947,N,03512.369508,E,1,10,0.8,644.1,M,19.0,M,,*6F
$GPGSV,4,1,15,12,62,015,36,02,60,089,29,24,57,182,28,25,41,319,33*7C
$GPGSV,4,2,15,29,34,253,23,06,25,046,33,14,13,294,28,19,11,050,15*7A
$GPGSV,4,3,15,32,10,293,28,05,05,138,11,04,01,000,,09,01,000,*7F
$GPGSV,4,4,15,13,01,000,,21,01,000,,15,01,193,*42
$GLGSV,1,1,01,74,01,000,*56
$QZGSV,2,1,05,05,01,000,,01,01,000,,02,01,000,,03,01,000,*66
$QZGSV,2,2,05,04,01,000,*55
$GPGSA,A,3,02,05,06,12,14,19,24,25,29,32,,,2.4,1.3,2.0*30
$GNGSA,A,3,02,05,06,12,14,19,24,25,29,32,,,2.4,1.3,2.0*2E
$GNGSA,A,3,,,,,,,,,,,,,2.4,1.3,2.0*2A
$QZGSA,A,3,,,,,,,,,,,,,2.4,1.3,2.0*28
$GPRMC,154409.00,A,3206.364947,N,03512.369508,E,003.0,113.8,120416,,,A*53
$GPGGA,154410.00,3206.364665,N,03512.370202,E,1,10,0.8,643.7,M,19.0,M,,*6C
$GPGSV,4,1,15,12,62,015,35,02,60,089,29,24,57,182,27,25,41,319,32*71
$GPGSV,4,2,15,29,34,253,23,06,25,046,33,14,13,294,27,19,11,050,15*75
$GPGSV,4,3,15,32,10,293,27,05,05,138,11,04,01,000,,09,01,000,*70
$GPGSV,4,4,15,13,01,000,,21,01,000,,15,01,193,*42
$GLGSV,1,1,01,74,01,000,*56
$GPGSA,A,3,02,05,06,12,14,19,24,25,29,32,,,2.4,1.4,1.9*3D
$GNGSA,A,3,02,05,06,12,14,19,24,25,29,32,,,2.4,1.4,1.9*23
$GNGSA,A,3,,,,,,,,,,,,,2.4,1.4,1.9*27
$QZGSA,A,3,,,,,,,,,,,,,2.4,1.4,1.9*25
$GPRMC,154410.00,A,3206.364665,N,03512.370202,E,003.4,115.4,120416,,,A*5F
$GPGGA,154411.00,3206.364521,N,03512.370887,E,1,10,0.8,643.6,M,19.0,M,,*68
$GPGSV,4,1,15,12,62,015,35,02,60,089,28,24,57,182,28,25,41,319,32*7F
$GPGSV,4,2,15,29,34,253,23,06,25,046,33,14,13,294,27,19,11,050,15*75
$GPGSV,4,3,15,32,10,293,27,05,05,138,12,04,01,000,,09,01,000,*73
$GPGSV,4,4,15,13,01,000,,21,01,000,,15,01,193,*42
$GLGSV,1,1,01,74,01,000,*56
$GPGSA,A,3,02,05,06,12,14,19,24,25,29,32,,,2.4,1.4,1.9*3D
$GNGSA,A,3,02,05,06,12,14,19,24,25,29,32,,,2.4,1.4,1.9*23
$GNGSA,A,3,,,,,,,,,,,,,2.4,1.4,1.9*27
$QZGSA,A,3,,,,,,,,,,,,,2.4,1.4,1.9*25
$GPRMC,154411.00,A,3206.364521,N,03512.370887,E,002.2,101.9,120416,,,A*55
$GPGGA,154412.00,3206.364303,N,03512.371666,E,1,10,0.8,643.8,M,19.0,M,,*63
$GPGSV,4,1,15,12,62,015,35,02,60,089,28,24,57,182,28,25,41,319,32*7F
$GPGSV,4,2,15,29,34,253,22,06,25,046,32,14,13,294,27,19,11,050,15*75
$GPGSV,4,3,15,32,10,293,27,05,05,138,12,04,01,000,,09,01,000,*73
$GPGSV,4,4,15,13,01,000,,21,01,000,,15,01,193,*42
$GLGSV,1,1,01,74,01,000,*56
$GPGSA,A,3,02,05,06,12,14,19,24,25,29,32,,,2.3,1.3,1.9*3D
$GNGSA,A,3,02,05,06,12,14,19,24,25,29,32,,,2.3,1.3,1.9*23
$GNGSA,A,3,,,,,,,,,,,,,2.3,1.3,1.9*27
$QZGSA,A,3,,,,,,,,,,,,,2.3,1.3,1.9*25
$GPRMC,154412.00,A,3206.364303,N,03512.371666,E,002.2,103.7,120416,,,A*5C
$GPGGA,154413.00,3206.364073,N,03512.372819,E,1,10,0.6,643.5,M,19.0,M,,*60
$GPGSV,4,1,15,12,62,015,35,02,60,089,28,24,57,182,27,25,41,319,32*70
$GPGSV,4,2,15,29,34,253,22,06,25,046,33,14,13,294,26,19,11,050,15*75
$GPGSV,4,3,15,32,10,293,27,05,05,138,12,04,01,000,,09,01,000,*73
$GPGSV,4,4,15,13,01,000,,21,01,000,,15,01,193,*42
$GLGSV,1,1,01,74,01,000,*56
$GPGSA,A,3,02,05,06,12,14,19,24,25,29,32,,,2.3,1.3,1.9*3D
$GNGSA,A,3,02,05,06,12,14,19,24,25,29,32,,,2.3,1.3,1.9*23
$GNGSA,A,3,,,,,,,,,,,,,2.3,1.3,1.9*27
$QZGSA,A,3,,,,,,,,,,,,,2.3,1.3,1.9*25
$GPRMC,154413.00,A,3206.364073,N,03512.372819,E,002.8,101.9,120416,,,A*5A
$GPGGA,154414.00,3206.363815,N,03512.374169,E,1,10,0.8,643.8,M,19.0,M,,*63
$GPGSV,4,1,15,12,62,015,35,02,60,089,28,24,57,182,27,25,41,319,31*73
$GPGSV,4,2,15,29,34,253,22,06,25,046,33,14,13,294,26,19,11,050,15*75
$GPGSV,4,3,15,32,10,293,27,05,05,138,13,04,01,000,,09,01,000,*72
$GPGSV,4,4,15,13,01,000,,21,01,000,,15,01,193,*42
$GLGSV,1,1,01,74,01,000,*56
$GPGSA,A,3,02,05,06,12,14,19,24,25,29,32,,,2.4,1.4,1.9*3D
$GNGSA,A,3,02,05,06,12,14,19,24,25,29,32,,,2.4,1.4,1.9*23
$GNGSA,A,3,,,,,,,,,,,,,2.4,1.4,1.9*27
$QZGSA,A,3,,,,,,,,,,,,,2.4,1.4,1.9*25
$GPRMC,154414.00,A,3206.363815,N,03512.374169,E,002.6,099.8,120416,,,A*55
$GPGGA,154415.00,3206.363689,N,03512.375073,E,1,10,0.8,642.5,M,19.0,M,,*6E
$GPGSV,4,1,15,12,62,015,35,02,60,089,28,24,57,182,27,25,41,319,31*73
$GPGSV,4,2,15,29,34,253,21,06,25,046,32,14,13,294,26,19,11,050,15*77
$GPGSV,4,3,15,32,10,293,26,05,05,138,13,04,01,000,,09,01,000,*73
$GPGSV,4,4,15,13,01,000,,21,01,000,,15,01,193,*42
$GLGSV,1,1,01,74,01,000,*56
$GPGSA,A,3,02,05,06,12,14,19,24,25,29,32,,,2.4,1.4,1.9*3D
$GNGSA,A,3,02,05,06,12,14,19,24,25,29,32,,,2.4,1.4,1.9*23
$GNGSA,A,3,,,,,,,,,,,,,2.4,1.4,1.9*27
$QZGSA,A,3,,,,,,,,,,,,,2.4,1.4,1.9*25
$GPRMC,154415.00,A,3206.363689,N,03512.375073,E,002.3,095.7,120416,,,A*52
$GPGGA,154416.00,3206.363372,N,03512.375833,E,1,10,0.8,642.5,M,19.0,M,,*60
$GPGSV,4,1,15,12,62,015,35,02,60,089,27,24,57,182,27,25,41,319,31*7C
$GPGSV,4,2,15,29,34,253,21,06,25,046,32,14,13,294,25,19,11,050,16*77
$GPGSV,4,3,15,32,10,293,26,05,05,138,13,04,01,000,,09,01,000,*73
$GPGSV,4,4,15,13,01,000,,21,01,000,,15,01,193,*42
$GLGSV,1,1,01,74,01,000,*56
$GPGSA,A,3,02,05,06,12,14,19,24,25,29,32,,,2.0,1.3,1.5*32
$GNGSA,A,3,02,05,06,12,14,19,24,25,29,32,,,2.0,1.3,1.5*2C
$GNGSA,A,3,,,,,,,,,,,,,2.0,1.3,1.5*28
$QZGSA,A,3,,,,,,,,,,,,,2.0,1.3,1.5*2A
$GPRMC,154416.00,A,3206.363372,N,03512.375833,E,002.4,113.4,120416,,,A*57
$GPGGA,154417.00,3206.362965,N,03512.376740,E,1,10,0.8,642.5,M,19.0,M,,*64
$GPGSV,4,1,15,12,62,015,34,02,60,089,27,24,57,182,27,25,41,319,31*7D
$GPGSV,4,2,15,29,34,253,25,06,25,046,32,14,13,294,25,19,11,050,16*73
$GPGSV,4,3,15,32,10,293,26,05,05,138,13,15,01,193,11,13,01,000,*73
$GPGSV,4,4,15,21,01,000,,09,01,000,,04,01,000,*42
$GLGSV,1,1,01,74,01,000,*56
$GPGSA,A,3,02,05,06,12,14,19,24,25,29,32,,,2.5,1.3,2.1*30
$GNGSA,A,3,02,05,06,12,14,19,24,25,29,32,,,2.5,1.3,2.1*2E
$GNGSA,A,3,,,,,,,,,,,,,2.5,1.3,2.1*2A
$QZGSA,A,3,,,,,,,,,,,,,2.5,1.3,2.1*28
$GPRMC,154417.00,A,3206.362965,N,03512.376740,E,002.4,117.5,120416,,,A*56
$GPGGA,154418.00,3206.362660,N,03512.377796,E,1,10,0.8,642.5,M,19.0,M,,*6B
$GPGSV,4,1,15,12,62,015,34,02,60,089,29,24,57,182,27,25,41,319,31*73
$GPGSV,4,2,15,29,34,253,24,06,25,046,32,14,13,294,25,19,11,050,16*72
$GPGSV,4,3,15,32,10,293,25,05,05,138,12,15,01,193,11,13,01,000,*71
$GPGSV,4,4,15,21,01,000,,09,01,000,,04,01,000,*42
$GLGSV,1,1,01,74,01,000,*56
$GPGSA,A,3,02,05,06,12,14,19,24,25,29,32,,,2.4,1.4,1.9*3D
$GNGSA,A,3,02,05,06,12,14,19,24,25,29,32,,,2.4,1.4,1.9*23
$GNGSA,A,3,,,,,,,,,,,,,2.4,1.4,1.9*27
$QZGSA,A,3,,,,,,,,,,,,,2.4,1.4,1.9*25
$GPRMC,154418.00,A,3206.362660,N,03512.377796,E,002.5,110.1,120416,,,A*5B
$GPGGA,154419.00,3206.362506,N,03512.378710,E,1,10,0.6,642.6,M,19.0,M,,*65
$GPGSV,4,1,15,12,62,015,34,02,60,089,29,24,57,182,27,25,41,319,31*73
$GPGSV,4,2,15,29,34,253,24,06,25,046,32,14,13,294,25,19,11,050,16*72
$GPGSV,4,3,15,32,10,293,25,05,05,138,12,15,01,193,11,13,01,000,*71
$GPGSV,4,4,15,21,01,000,,09,01,000,,04,01,000,*42
$GLGSV,1,1,01,74,01,000,*56
$GPGSA,A,3,02,05,06,12,14,19,24,25,29,32,,,1.9,1.2,1.5*39
$GNGSA,A,3,02,05,06,12,14,19,24,25,29,32,,,1.9,1.2,1.5*27
$GNGSA,A,3,,,,,,,,,,,,,1.9,1.2,1.5*23
$QZGSA,A,3,,,,,,,,,,,,,1.9,1.2,1.5*21
$GPRMC,154419.00,A,3206.362506,N,03512.378710,E,002.5,103.5,120416,,,A*5E
$GPGGA,154420.00,3206.362329,N,03512.379457,E,1,10,0.6,642.6,M,19.0,M,,*65
$GPGSV,4,1,15,12,62,015,34,02,60,089,29,24,57,182,27,25,41,319,31*73
$GPGSV,4,2,15,29,34,253,24,06,25,046,31,14,13,294,24,19,11,050,16*70
$GPGSV,4,3,15,32,10,293,25,05,05,138,12,15,01,193,11,13,01,000,*71
$GPGSV,4,4,15,21,01,000,,09,01,000,,04,01,000,*42
$GLGSV,1,1,01,74,01,000,*56
$GPGSA,A,3,02,05,06,12,14,19,24,25,29,32,,,2.0,1.2,1.6*30
$GNGSA,A,3,02,05,06,12,14,19,24,25,29,32,,,2.0,1.2,1.6*2E
$GNGSA,A,3,,,,,,,,,,,,,2.0,1.2,1.6*2A
$QZGSA,A,3,,,,,,,,,,,,,2.0,1.2,1.6*28
$GPRMC,154420.00,A,3206.362329,N,03512.379457,E,002.5,108.0,120416,,,A*50
$GPGGA,154421.00,3206.362227,N,03512.380085,E,1,11,0.6,642.7,M,19.0,M,,*66
$GPGSV,4,1,15,12,62,015,34,02,60,089,28,24,57,182,26,25,41,319,30*72
$GPGSV,4,2,15,29,34,254,23,06,25,046,33,14,13,294,24,19,11,050,16*72
$GPGSV,4,3,15,32,10,293,25,05,05,137,12,15,01,193,11,13,01,000,*7E
$GPGSV,4,4,15,21,01,000,,09,01,000,,04,01,000,*42
$GLGSV,1,1,01,74,01,000,*56
$GPGSA,A,3,02,05,06,12,14,15,19,24,25,29,32,,2.3,1.3,1.9*39
$GNGSA,A,3,02,05,06,12,14,15,19,24,25,29,32,,2.3,1.3,1.9*27
$GNGSA,A,3,,,,,,,,,,,,,2.3,1.3,1.9*27
$QZGSA,A,3,,,,,,,,,,,,,2.3,1.3,1.9*25
$GPRMC,154421.00,A,3206.362227,N,03512.380085,E,002.6,102.4,120416,,,A*5E
$GPGGA,154422.00,3206.362014,N,03512.380943,E,1,11,0.6,642.9,M,19.0,M,,*6A
$GPGSV,4,1,15,12,62,015,34,02,60,089,28,24,57,182,26,25,41,319,30*72
$GPGSV,4,2,15,29,34,254,23,06,25,046,33,14,13,294,24,19,11,050,24*73
$GPGSV,4,3,15,32,10,293,24,05,05,137,12,15,01,193,11,13,01,000,*7F
$GPGSV,4,4,15,21,01,000,,09,01,000,,04,01,000,*42
$GLGSV,1,1,01,74,01,000,*56
$GPGSA,A,3,02,05,06,12,14,15,19,24,25,29,32,,2.0,1.3,1.5*36
$GNGSA,A,3,02,05,06,12,14,15,19,24,25,29,32,,2.0,1.3,1.5*28
$GNGSA,A,3,,,,,,,,,,,,,2.0,1.3,1.5*28
$QZGSA,A,3,,,,,,,,,,,,,2.0,1.3,1.5*2A
$GPRMC,154422.00,A,3206.362014,N,03512.380943,E,002.5,105.8,120416,,,A*54
$GPGGA,154423.00,3206.361725,N,03512.381857,E,1,10,1.2,643.1,M,19.0,M,,*65
$GPGSV,4,1,15,12,62,015,34,02,60,088,28,24,57,182,26,25,41,319,30*73
$GPGSV,4,2,15,29,34,254,23,06,25,046,32,14,13,294,23,19,11,050,30*70
$GPGSV,4,3,15,32,10,293,24,05,05,137,12,15,01,193,09,04,01,000,*70
$GPGSV,4,4,15,09,01,000,,13,01,000,,21,01,000,*44
$GLGSV,1,1,01,74,01,000,*56
$GPGSA,A,3,02,05,06,12,14,19,24,25,29,32,,,2.7,2.3,1.5*36
$GNGSA,A,3,02,05,06,12,14,19,24,25,29,32,,,2.7,2.3,1.5*28
$GNGSA,A,3,,,,,,,,,,,,,2.7,2.3,1.5*2C
$QZGSA,A,3,,,,,,,,,,,,,2.7,2.3,1.5*2E
$GPRMC,154423.00,A,3206.361725,N,03512.381857,E,002.5,111.1,120416,,,A*5A
$GPGGA,154424.00,3206.361348,N,03512.382866,E,1,11,0.6,643.2,M,19.0,M,,*6B
$GPGSV,4,1,15,12,62,015,34,02,60,088,29,24,57,182,26,25,41,319,31*73
$GPGSV,4,2,15,29,34,254,23,06,25,046,32,14,13,294,23,19,11,050,30*70
$GPGSV,4,3,15,32,10,293,25,05,05,137,12,15,01,193,09,13,01,000,*77
$GPGSV,4,4,15,21,01,000,,09,01,000,,04,01,000,*42
$GLGSV,1,1,01,74,01,000,*56
$GPGSA,A,3,02,05,06,12,14,15,19,24,25,29,32,,2.1,1.3,1.6*34
$GNGSA,A,3,02,05,06,12,14,15,19,24,25,29,32,,2.1,1.3,1.6*2A
$GNGSA,A,3,,,,,,,,,,,,,2.1,1.3,1.6*2A
$QZGSA,A,3,,,,,,,,,,,,,2.1,1.3,1.6*28
$GPRMC,154424.00,A,3206.361348,N,03512.382866,E,002.6,117.1,120416,,,A*56
$GPGGA,154425.00,3206.360887,N,03512.384137,E,1,11,0.6,643.2,M,19.0,M,,*68
$GPGSV,4,1,15,12,62,015,35,02,60,088,29,24,57,182,26,25,41,319,31*72
$GPGSV,4,2,15,29,34,254,23,06,25,046,32,14,13,294,24,19,11,050,30*77
$GPGSV,4,3,15,32,10,293,25,05,05,137,12,15,01,193,09,13,01,000,*77
$GPGSV,4,4,15,21,01,000,,09,01,000,,04,01,000,*42
$GLGSV,1,1,01,74,01,000,*56
$GPGSA,A,3,02,05,06,12,14,15,19,24,25,29,32,,2.1,1.3,1.6*34
$GNGSA,A,3,02,05,06,12,14,15,19,24,25,29,32,,2.1,1.3,1.6*2A
$GNGSA,A,3,,,,,,,,,,,,,2.1,1.3,1.6*2A
$QZGSA,A,3,,,,,,,,,,,,,2.1,1.3,1.6*28
$GPRMC,154425.00,A,3206.360887,N,03512.384137,E,002.6,117.0,120416,,,A*54
$GPGGA,154426.00,3206.360596,N,03512.385443,E,1,10,0.6,643.3,M,19.0,M,,*61
$GPGSV,4,1,15,12,62,015,35,02,60,088,28,24,57,182,25,25,41,319,31*70
$GPGSV,4,2,15,29,34,254,23,06,25,046,32,14,13,294,24,19,11,050,29*7F
$GPGSV,4,3,15,32,10,293,25,05,05,137,12,15,01,193,08,04,01,000,*70
$GPGSV,4,4,15,09,01,000,,13,01,000,,21,01,000,*44
$GLGSV,1,1,01,74,01,000,*56
$GPGSA,A,3,02,05,06,12,14,19,24,25,29,32,,,2.4,1.4,1.9*3D
$GNGSA,A,3,02,05,06,12,14,19,24,25,29,32,,,2.4,1.4,1.9*23
$GNGSA,A,3,,,,,,,,,,,,,2.4,1.4,1.9*27
$QZGSA,A,3,,,,,,,,,,,,,2.4,1.4,1.9*25
$GPRMC,154426.00,A,3206.360596,N,03512.385443,E,002.7,107.1,120416,,,A*5C
$GPGGA,154427.00,3206.360265,N,03512.386476,E,1,10,0.6,643.4,M,19.0,M,,*69
$GPGSV,4,1,15,12,62,015,35,02,60,088,28,24,57,182,25,25,41,319,31*70
$GPGSV,4,2,15,29,34,254,22,06,25,046,32,14,13,294,26,19,11,050,29*7C
$GPGSV,4,3,15,32,10,293,25,05,05,137,12,04,01,000,,09,01,000,*7E
$GPGSV,4,4,15,13,01,000,,21,01,000,,15,01,193,*42
$GLGSV,1,1,01,74,01,000,*56
$GPGSA,A,3,02,05,06,12,14,19,24,25,29,32,,,2.0,1.3,1.5*32
$GNGSA,A,3,02,05,06,12,14,19,24,25,29,32,,,2.0,1.3,1.5*2C
$GNGSA,A,3,,,,,,,,,,,,,2.0,1.3,1.5*28
$QZGSA,A,3,,,,,,,,,,,,,2.0,1.3,1.5*2A
$GPRMC,154427.00,A,3206.360265,N,03512.386476,E,002.7,112.3,120416,,,A*55
$GPGGA,154428.00,3206.359884,N,03512.387501,E,1,10,0.6,643.5,M,19.0,M,,*68
$GPGSV,4,1,15,12,62,015,34,02,60,088,28,24,57,182,26,25,41,319,30*73
$GPGSV,4,2,15,29,34,254,22,06,25,046,32,14,13,294,25,19,11,050,30*77
$GPGSV,4,3,15,32,10,293,25,05,05,137,12,04,01,000,,09,01,000,*7E
$GPGSV,4,4,15,13,01,000,,21,01,000,,15,01,193,*42
$GLGSV,1,1,01,74,01,000,*56
$GPGSA,A,3,02,05,06,12,14,19,24,25,29,32,,,2.0,1.3,1.5*32
$GNGSA,A,3,02,05,06,12,14,19,24,25,29,32,,,2.0,1.3,1.5*2C
$GNGSA,A,3,,,,,,,,,,,,,2.0,1.3,1.5*28
$QZGSA,A,3,,,,,,,,,,,,,2.0,1.3,1.5*2A
$GPRMC,154428.00,A,3206.359884,N,03512.387501,E,002.8,114.2,120416,,,A*5D
$GPGGA,154429.00,3206.359284,N,03512.388537,E,1,10,0.6,643.6,M,19.0,M,,*6A
$GPGSV,4,1,15,12,62,015,34,02,60,088,28,24,57,182,25,25,41,319,30*70
$GPGSV,4,2,15,29,34,254,22,06,25,046,32,14,13,294,25,19,11,050,29*7F
$GPGSV,4,3,15,32,10,293,24,05,05,137,12,04,01,000,,09,01,000,*7F
$GPGSV,4,4,15,13,01,000,,21,01,000,,15,01,193,*42
$GLGSV,1,1,01,74,01,000,*56
$GPGSA,A,3,02,05,06,12,14,19,24,25,29,32,,,2.4,1.4,1.9*3D
$GNGSA,A,3,02,05,06,12,14,19,24,25,29,32,,,2.4,1.4,1.9*23
$GNGSA,A,3,,,,,,,,,,,,,2.4,1.4,1.9*27
$QZGSA,A,3,,,,,,,,,,,,,2.4,1.4,1.9*25
$GPRMC,154429.00,A,3206.359284,N,03512.388537,E,003.0,125.3,120416,,,A*56
$GPGGA,154430.00,3206.358787,N,03512.389339,E,1,10,0.6,643.7,M,19.0,M,,*6D
$GPGSV,4,1,15,12,62,015,34,02,60,088,28,24,57,182,25,25,41,319,30*70
$GPGSV,4,2,15,29,34,254,22,06,25,046,32,14,13,294,24,19,11,050,30*76
$GPGSV,4,3,15,32,10,293,24,05,05,137,12,04,01,000,,09,01,000,*7F
$GPGSV,4,4,15,13,01,000,,21,01,000,,15,01,193,*42
$GLGSV,1,1,01,74,01,000,*56
$GPGSA,A,3,02,05,06,12,14,19,24,25,29,32,,,2.0,1.3,1.5*32
$GNGSA,A,3,02,05,06,12,14,19,24,25,29,32,,,2.0,1.3,1.5*2C
$GNGSA,A,3,,,,,,,,,,,,,2.0,1.3,1.5*28
$QZGSA,A,3,,,,,,,,,,,,,2.0,1.3,1.5*2A
$GPRMC,154430.00,A,3206.358787,N,03512.389339,E,002.9,118.0,120416,,,A*55
$GPGGA,154431.00,3206.358136,N,03512.390319,E,1,10,0.6,643.9,M,19.0,M,,*64
$GPGSV,4,1,15,12,62,015,34,02,60,088,28,24,57,182,25,25,41,319,30*70
$GPGSV,4,2,15,29,34,254,22,06,25,046,33,14,13,294,24,19,11,050,34*73
$GPGSV,4,3,15,32,10,293,23,05,05,137,11,04,01,000,,09,01,000,*7B
$GPGSV,4,4,15,13,01,000,,21,01,000,,15,01,193,*42
$GLGSV,1,1,01,74,01,000,26*52
$GPGSA,A,3,02,05,06,12,14,19,24,25,29,32,,,2.0,1.3,1.5*32
$GNGSA,A,3,02,05,06,12,14,19,24,25,29,32,,,2.0,1.3,1.5*2C
$GNGSA,A,3,,,,,,,,,,,,,2.0,1.3,1.5*28
$QZGSA,A,3,,,,,,,,,,,,,2.0,1.3,1.5*2A
$GPRMC,154431.00,A,3206.358136,N,03512.390319,E,003.0,121.3,120416,,,A*53
$GPGGA,154432.00,3206.357529,N,03512.391191,E,1,10,0.8,644.0,M,19.0,M,,*61
$GPGSV,4,1,15,12,62,015,35,02,60,088,29,24,57,182,25,25,41,319,29*78
$GPGSV,4,2,15,29,34,254,24,06,25,046,33,14,13,294,23,19,11,050,34*72
$GPGSV,4,3,15,32,10,293,23,05,05,137,11,04,01,000,,09,01,000,*7B
$GPGSV,4,4,15,13,01,000,,21,01,000,,15,01,193,*42
$GLGSV,1,1,01,74,01,000,30*55
$GPGSA,A,3,02,05,06,12,14,19,24,25,29,32,,,2.0,1.3,1.5*32
$GNGSA,A,3,02,05,06,12,14,19,24,25,29,32,,,2.0,1.3,1.5*2C
$GNGSA,A,3,,,,,,,,,,,,,2.0,1.3,1.5*28
$QZGSA,A,3,,,,,,,,,,,,,2.0,1.3,1.5*2A
$GPRMC,154432.00,A,3206.357529,N,03512.391191,E,003.0,122.7,120416,,,A*51
$GPGGA,154433.00,3206.356842,N,03512.392174,E,1,10,0.8,644.1,M,19.0,M,,*68
$GPGSV,4,1,15,12,62,015,35,02,60,088,29,24,57,182,25,25,41,319,29*78
$GPGSV,4,2,15,29,34,254,25,06,25,046,32,14,13,294,22,19,11,050,34*73
$GPGSV,4,3,15,32,10,293,23,05,05,137,11,04,01,000,,09,01,000,*7B
$GPGSV,4,4,15,13,01,000,,21,01,000,,15,01,193,*42
$GLGSV,1,1,01,74,01,000,30*55
$GPGSA,A,3,02,05,06,12,14,19,24,25,29,32,,,1.9,1.2,1.5*39
$GNGSA,A,3,02,05,06,12,14,19,24,25,29,32,,,1.9,1.2,1.5*27
$GNGSA,A,3,,,,,,,,,,,,,1.9,1.2,1.5*23
$QZGSA,A,3,,,,,,,,,,,,,1.9,1.2,1.5*21
$GPRMC,154433.00,A,3206.356842,N,03512.392174,E,003.0,119.4,120416,,,A*52
$GPGGA,154434.00,3206.356223,N,03512.393012,E,1,10,0.8,644.2,M,19.0,M,,*61
$GPGSV,4,1,15,12,62,015,35,02,60,088,29,24,57,182,25,25,41,319,29*78
$GPGSV,4,2,15,29,34,254,25,06,25,046,32,14,13,294,22,19,11,050,33*74
$GPGSV,4,3,15,32,10,293,22,05,05,137,11,04,01,000,,09,01,000,*7A
$GPGSV,4,4,15,13,01,000,,21,01,000,,15,01,193,*42
$GLGSV,1,1,01,74,01,000,29*5D
$GPGSA,A,3,02,05,06,12,14,19,24,25,29,32,,,1.9,1.2,1.5*39
$GNGSA,A,3,02,05,06,12,14,19,24,25,29,32,,,1.9,1.2,1.5*27
$GNGSA,A,3,,,,,,,,,,,,,1.9,1.2,1.5*23
$QZGSA,A,3,,,,,,,,,,,,,1.9,1.2,1.5*21
$GPRMC,154434.00,A,3206.356223,N,03512.393012,E,003.0,124.4,120416,,,A*56
$GPGGA,154435.00,3206.355796,N,03512.393738,E,1,10,0.8,644.4,M,19.0,M,,*61
$GPGSV,4,1,15,12,62,015,35,02,60,088,28,24,57,182,25,25,41,319,29*79
$GPGSV,4,2,15,29,34,254,25,06,25,046,31,14,13,294,22,19,11,050,33*77
$GPGSV,4,3,15,32,10,293,22,05,05,137,11,04,01,000,,09,01,000,*7A
$GPGSV,4,4,15,13,01,000,,21,01,000,,15,01,193,*42
$GLGSV,1,1,01,74,01,000,28*5C
$GPGSA,A,3,02,05,06,12,14,19,24,25,29,32,,,2.0,1.2,1.5*33
$GNGSA,A,3,02,05,06,12,14,19,24,25,29,32,,,2.0,1.2,1.5*2D
$GNGSA,A,3,,,,,,,,,,,,,2.0,1.2,1.5*29
$QZGSA,A,3,,,,,,,,,,,,,2.0,1.2,1.5*2B
$GPRMC,154435.00,A,3206.355796,N,03512.393738,E,002.9,119.9,120416,,,A*5B
$GPGGA,154436.00,3206.355484,N,03512.394384,E,1,10,0.8,644.5,M,19.0,M,,*67
$GPGSV,4,1,15,12,62,015,35,02,60,088,28,24,57,182,25,25,41,319,29*79
$GPGSV,4,2,15,29,34,254,25,06,25,046,31,14,13,294,21,19,11,050,32*75
$GPGSV,4,3,15,32,10,293,22,05,05,137,11,04,01,000,,09,01,000,*7A
$GPGSV,4,4,15,13,01,000,,21,01,000,,15,01,193,*42
$GLGSV,1,1,02,74,01,000,25,66,01,000,*63
$GPGSA,A,3,02,05,06,12,14,19,24,25,29,32,,,2.2,1.6,1.5*35
$GNGSA,A,3,02,05,06,12,14,19,24,25,29,32,,,2.2,1.6,1.5*2B
$GNGSA,A,3,,,,,,,,,,,,,2.2,1.6,1.5*2F
$QZGSA,A,3,,,,,,,,,,,,,2.2,1.6,1.5*2D
$GPRMC,154436.00,A,3206.355484,N,03512.394384,E,002.9,114.5,120416,,,A*5D
$GPGGA,154437.00,3206.355106,N,03512.395098,E,1,10,0.8,644.6,M,19.0,M,,*65
$GPGSV,4,1,14,12,62,015,34,02,60,088,27,24,57,182,25,25,41,319,28*77
$GPGSV,4,2,14,29,34,254,24,06,25,046,30,14,13,294,21,19,11,050,32*74
$GPGSV,4,3,14,32,10,293,22,05,05,137,11,04,01,000,,09,01,000,*7B
$GPGSV,4,4,14,13,01,000,,15,01,193,*71
$GLGSV,1,1,02,74,01,000,20,66,01,000,*66
$GPGSA,A,3,02,05,06,12,14,19,24,25,29,32,,,2.8,1.7,2.3*3B
$GNGSA,A,3,02,05,06,12,14,19,24,25,29,32,,,2.8,1.7,2.3*25
$GNGSA,A,3,,,,,,,,,,,,,2.8,1.7,2.3*21
$QZGSA,A,3,,,,,,,,,,,,,2.8,1.7,2.3*23
$GPRMC,154437.00,A,3206.355106,N,03512.395098,E,000.0,118.3,120416,,,A*5D
$GPGGA,154438.00,3206.354671,N,03512.396052,E,1,10,0.8,644.8,M,19.0,M,,*67
$GPGSV,4,1,14,12,62,015,32,02,60,088,24,24,57,182,23,25,41,319,24*78
$GPGSV,4,2,14,29,34,254,22,06,25,046,26,14,13,294,15,19,11,050,28*79
$GPGSV,4,3,14,32,10,293,20,05,05,137,09,04,01,000,,09,01,000,*70
$GPGSV,4,4,14,13,01,000,,15,01,193,*71
$GLGSV,1,1,02,66,01,000,,74,01,000,*64
$GPGSA,A,3,02,05,06,12,14,19,24,25,29,32,,,1.9,1.2,1.5*39
$GNGSA,A,3,02,05,06,12,14,19,24,25,29,32,,,1.9,1.2,1.5*27
$GNGSA,A,3,,,,,,,,,,,,,1.9,1.2,1.5*23
$QZGSA,A,3,,,,,,,,,,,,,1.9,1.2,1.5*21
$GPRMC,154438.00,A,3206.354671,N,03512.396052,E,002.8,113.9,120416,,,A*5A
$GPGGA,154439.00,3206.354281,N,03512.396839,E,1,10,0.8,644.9,M,19.0,M,,*69
$GPGSV,4,1,14,12,62,015,32,02,60,088,24,24,57,182,26,25,41,319,26*7F
$GPGSV,4,2,14,29,34,254,22,06,25,046,26,14,13,294,15,19,11,050,28*79
$GPGSV,4,3,14,32,10,293,20,05,05,137,09,04,01,000,,09,01,000,*70
$GPGSV,4,4,14,13,01,000,,15,01,193,*71
$GLGSV,1,1,02,66,01,000,,74,01,000,*64
$GPGSA,A,3,02,05,06,12,14,19,24,25,29,32,,,2.1,1.3,1.6*30
$GNGSA,A,3,02,05,06,12,14,19,24,25,29,32,,,2.1,1.3,1.6*2E
$GNGSA,A,3,,,,,,,,,,,,,2.1,1.3,1.6*2A
$QZGSA,A,3,,,,,,,,,,,,,2.1,1.3,1.6*28
$GPRMC,154439.00,A,3206.354281,N,03512.396839,E,002.8,122.5,120416,,,A*5B
$GPGGA,154440.00,3206.354035,N,03512.397419,E,1,10,0.8,645.0,M,19.0,M,,*6D
$GPGSV,4,1,16,12,62,015,33,02,60,088,27,24,57,182,26,25,41,319,26*7F
$GPGSV,4,2,16,29,34,254,22,06,25,046,25,14,13,294,15,19,11,050,29*79
$GPGSV,4,3,16,32,10,293,20,05,05,137,09,04,01,000,,07,01,000,*7C
$GPGSV,4,4,16,09,01,000,,13,01,000,,17,01,000,,15,01,193,*7C
$GLGSV,2,1,05,74,01,000,19,66,01,000,,82,01,000,,73,01,000,*66
$GLGSV,2,2,05,76,01,000,*50
$GPGSA,A,3,02,05,06,12,14,19,24,25,29,32,,,2.2,1.3,1.8*3D
$GNGSA,A,3,02,05,06,12,14,19,24,25,29,32,,,2.2,1.3,1.8*23
$GNGSA,A,3,,,,,,,,,,,,,2.2,1.3,1.8*27
$QZGSA,A,3,,,,,,,,,,,,,2.2,1.3,1.8*25
$GPRMC,154440.00,A,3206.354035,N,03512.397419,E,002.8,126.1,120416,,,A*57
$GPGGA,154441.00,3206.353850,N,03512.398135,E,1,10,0.8,645.0,M,19.0,M,,*64
$GPGSV,4,1,13,12,62,015,33,02,60,088,27,24,57,182,27,25,41,319,25*78
$GPGSV,4,2,13,29,34,254,22,06,25,046,26,14,13,294,15,19,11,050,29*7F
$GPGSV,4,3,13,32,10,293,20,05,05,137,09,17,01,000,,07,01,000,*7B
$GPGSV,4,4,13,15,01,193,*45
$GLGSV,2,1,05,74,01,000,20,66,01,000,,82,01,000,,73,01,000,*6C
$GLGSV,2,2,05,76,01,000,*50
$GPGSA,A,3,02,05,06,12,14,19,24,25,29,32,,,2.8,1.7,2.3*3B
$GNGSA,A,3,02,05,06,12,14,19,24,25,29,32,,,2.8,1.7,2.3*25
$GNGSA,A,3,,,,,,,,,,,,,2.8,1.7,2.3*21
$QZGSA,A,3,,,,,,,,,,,,,2.8,1.7,2.3*23
$GPRMC,154441.00,A,3206.353850,N,03512.398135,E,002.7,114.8,120416,,,A*59
$GPGGA,154442.00,3206.353514,N,03512.398918,E,1,10,1.6,645.1,M,19.0,M,,*63
$GPGSV,4,1,13,12,62,015,32,02,60,088,27,24,57,182,27,25,41,319,25*79
$GPGSV,4,2,13,29,34,254,22,06,25,046,26,14,13,294,15,19,11,050,29*7F
$GPGSV,4,3,13,32,10,293,20,05,05,137,09,17,01,000,,07,01,000,*7B
$GPGSV,4,4,13,15,01,193,*45
$GLGSV,2,1,05,74,01,000,21,66,01,000,,82,01,000,,73,01,000,*6D
$GLGSV,2,2,05,76,01,000,*50
$GPGSA,A,3,02,05,06,12,14,19,24,25,29,32,,,2.0,1.3,1.6*31
$GNGSA,A,3,02,05,06,12,14,19,24,25,29,32,,,2.0,1.3,1.6*2F
$GNGSA,A,3,,,,,,,,,,,,,2.0,1.3,1.6*2B
$QZGSA,A,3,,,,,,,,,,,,,2.0,1.3,1.6*29
$GPRMC,154442.00,A,3206.353514,N,03512.398918,E,002.7,116.9,120416,,,A*53
$GPGGA,154443.00,3206.353147,N,03512.399761,E,1,10,0.8,645.1,M,19.0,M,,*6E
$GPGSV,4,1,13,12,62,015,32,02,60,088,26,24,57,182,26,25,41,319,25*79
$GPGSV,4,2,13,29,34,254,22,06,25,046,29,14,13,294,15,19,11,050,29*70
$GPGSV,4,3,13,32,10,293,21,05,05,137,09,17,01,000,,07,01,000,*7A
$GPGSV,4,4,13,15,01,193,*45
$GLGSV,2,1,05,74,01,000,19,66,01,000,,76,01,000,,82,01,000,*63
$GLGSV,2,2,05,73,01,000,*55
$GPGSA,A,3,02,05,06,12,14,19,24,25,29,32,,,2.8,1.7,2.3*3B
$GNGSA,A,3,02,05,06,12,14,19,24,25,29,32,,,2.8,1.7,2.3*25
$GNGSA,A,3,,,,,,,,,,,,,2.8,1.7,2.3*21
$QZGSA,A,3,,,,,,,,,,,,,2.8,1.7,2.3*23
$GPRMC,154443.00,A,3206.353147,N,03512.399761,E,002.7,117.3,120416,,,A*5A
$GPGGA,154444.00,3206.352762,N,03512.400483,E,1,10,0.8,645.2,M,19.0,M,,*62
$GPGSV,4,1,13,12,62,015,32,02,60,088,26,24,57,182,25,25,41,319,26*79
$GPGSV,4,2,13,29,34,254,22,06,25,046,29,14,13,294,16,19,11,050,30*7B
$GPGSV,4,3,13,32,10,293,21,05,05,137,09,17,01,000,,07,01,000,*7A
$GPGSV,4,4,13,15,01,193,*45
$GLGSV,2,1,05,74,01,000,23,66,01,000,,82,01,000,,73,01,000,*6F
$GLGSV,2,2,05,76,01,000,*50
$GPGSA,A,3,02,05,06,12,14,19,24,25,29,32,,,2.0,1.3,1.6*31
$GNGSA,A,3,02,05,06,12,14,19,24,25,29,32,,,2.0,1.3,1.6*2F
$GNGSA,A,3,,,,,,,,,,,,,2.0,1.3,1.6*2B
$QZGSA,A,3,,,,,,,,,,,,,2.0,1.3,1.6*29
$GPRMC,154444.00,A,3206.352762,N,03512.400483,E,002.7,121.6,120416,,,A*55
$GPGGA,154445.00,3206.352429,N,03512.401192,E,1,10,1.2,645.3,M,19.0,M,,*61
$GPGSV,4,1,13,12,62,015,32,02,60,088,26,24,57,182,25,25,41,319,26*79
$GPGSV,4,2,13,29,34,254,22,06,25,046,30,14,13,294,16,19,11,050,30*73
$GPGSV,4,3,13,32,10,293,22,05,05,137,09,17,01,000,,07,01,000,*79
$GPGSV,4,4,13,15,01,193,*45
$GLGSV,2,1,05,74,01,000,23,66,01,000,,82,01,000,,73,01,000,*6F
$GLGSV,2,2,05,76,01,000,*50
$GPGSA,A,3,02,05,06,12,14,19,24,25,29,32,,,2.0,1.3,1.6*31
$GNGSA,A,3,02,05,06,12,14,19,24,25,29,32,,,2.0,1.3,1.6*2F
$GNGSA,A,3,,,,,,,,,,,,,2.0,1.3,1.6*2B
$QZGSA,A,3,,,,,,,,,,,,,2.0,1.3,1.6*29
$GPRMC,154445.00,A,3206.352429,N,03512.401192,E,002.7,119.2,120416,,,A*53
$GPGGA,154446.00,3206.352154,N,03512.402205,E,1,10,0.8,645.3,M,19.0,M,,*68
$GPGSV,4,1,13,12,62,016,32,02,60,088,26,24,57,182,24,25,41,319,25*78
$GPGSV,4,2,13,29,34,254,24,06,25,046,30,14,13,294,16,19,11,050,30*75
$GPGSV,4,3,13,32,10,293,22,05,05,137,09,17,01,000,,07,01,000,*79
$GPGSV,4,4,13,15,01,193,*45
$GLGSV,2,1,05,74,01,000,21,66,01,000,,76,01,000,,82,01,000,*68
$GLGSV,2,2,05,73,01,000,*55
$GPGSA,A,3,02,05,06,12,14,19,24,25,29,32,,,1.9,1.2,1.5*39
$GNGSA,A,3,02,05,06,12,14,19,24,25,29,32,,,1.9,1.2,1.5*27
$GNGSA,A,3,,,,,,,,,,,,,1.9,1.2,1.5*23
$QZGSA,A,3,,,,,,,,,,,,,1.9,1.2,1.5*21
$GPRMC,154446.00,A,3206.352154,N,03512.402205,E,002.6,105.9,120416,,,A*56
$GPGGA,154447.00,3206.351682,N,03512.403313,E,1,10,0.8,645.3,M,19.0,M,,*61
$GPGSV,4,1,13,12,62,016,32,02,60,088,26,24,57,182,24,25,41,319,25*78
$GPGSV,4,2,13,29,34,254,24,06,25,046,29,14,13,294,16,19,11,050,30*7D
$GPGSV,4,3,13,32,10,293,22,05,05,137,09,17,01,000,,07,01,000,*79
$GPGSV,4,4,13,15,01,193,*45
$GLGSV,2,1,05,74,01,000,17,66,01,000,,76,01,000,,82,01,000,*6D
$GLGSV,2,2,05,73,01,000,*55
$GPGSA,A,3,02,05,06,12,14,19,24,25,29,32,,,1.9,1.2,1.5*39
$GNGSA,A,3,02,05,06,12,14,19,24,25,29,32,,,1.9,1.2,1.5*27
$GNGSA,A,3,,,,,,,,,,,,,1.9,1.2,1.5*23
$QZGSA,A,3,,,,,,,,,,,,,1.9,1.2,1.5*21
$GPRMC,154447.00,A,3206.351682,N,03512.403313,E,002.7,118.7,120416,,,A*5C
$GPGGA,154448.00,3206.351181,N,03512.404283,E,1,10,1.2,645.5,M,19.0,M,,*68
$GPGSV,4,1,13,12,62,016,32,02,60,088,26,24,57,182,23,25,41,319,25*7F
$GPGSV,4,2,13,29,34,254,25,06,25,046,29,14,13,294,16,19,11,050,30*7C
$GPGSV,4,3,13,32,10,293,21,05,05,137,08,17,01,000,,07,01,000,*7B
$GPGSV,4,4,13,15,01,193,*45
$GLGSV,2,1,05,74,01,000,12,66,01,000,,76,01,000,,82,01,000,*68
$GLGSV,2,2,05,73,01,000,*55
$GPGSA,A,3,02,05,06,12,14,19,24,25,29,32,,,2.2,1.3,1.8*3D
$GNGSA,A,3,02,05,06,12,14,19,24,25,29,32,,,2.2,1.3,1.8*23
$GNGSA,A,3,,,,,,,,,,,,,2.2,1.3,1.8*27
$QZGSA,A,3,,,,,,,,,,,,,2.2,1.3,1.8*25
$GPRMC,154448.00,A,3206.351181,N,03512.404283,E,002.7,122.8,120416,,,A*5E
$GPGGA,154449.00,3206.350930,N,03512.404986,E,1,10,0.8,645.7,M,19.0,M,,*6D
$GPGSV,4,1,13,12,62,016,32,02,60,088,26,24,57,182,23,25,41,319,25*7F
$GPGSV,4,2,13,29,34,254,25,06,25,046,28,14,13,294,16,19,11,050,30*7D
$GPGSV,4,3,13,32,10,293,21,05,05,137,08,17,01,000,,07,01,000,*7B
$GPGSV,4,4,13,15,01,193,*45
$GLGSV,2,1,05,74,01,000,23,66,01,000,,82,01,000,,73,01,000,*6F
$GLGSV,2,2,05,76,01,000,*50
$GPGSA,A,3,02,05,06,12,14,19,24,25,29,32,,,2.6,1.8,1.8*32
$GNGSA,A,3,02,05,06,12,14,19,24,25,29,32,,,2.6,1.8,1.8*2C
$GNGSA,A,3,,,,,,,,,,,,,2.6,1.8,1.8*28
$QZGSA,A,3,,,,,,,,,,,,,2.6,1.8,1.8*2A
$GPRMC,154449.00,A,3206.350930,N,03512.404986,E,002.5,112.7,120416,,,A*5C
$GPGGA,154450.00,3206.350666,N,03512.405895,E,1,10,0.8,645.8,M,19.0,M,,*64
$GPGSV,4,1,13,12,62,016,32,02,60,088,26,24,57,182,23,25,41,319,25*7F
$GPGSV,4,2,13,29,34,254,25,06,25,046,28,14,13,294,16,19,11,050,30*7D
$GPGSV,4,3,13,32,10,293,21,05,05,137,08,17,01,000,,07,01,000,*7B
$GPGSV,4,4,13,15,01,193,*45
$GLGSV,2,1,05,74,01,000,23,66,01,000,,82,01,000,,73,01,000,*6F
$GLGSV,2,2,05,76,01,000,*50
$GPGSA,A,3,02,05,06,12,14,19,24,25,29,32,,,2.2,1.3,1.8*3D
$GNGSA,A,3,02,05,06,12,14,19,24,25,29,32,,,2.2,1.3,1.8*23
$GNGSA,A,3,,,,,,,,,,,,,2.2,1.3,1.8*27
$QZGSA,A,3,,,,,,,,,,,,,2.2,1.3,1.8*25
$GPRMC,154450.00,A,3206.350666,N,03512.405895,E,002.5,108.6,120416,,,A*50
$GPGGA,154451.00,3206.350530,N,03512.406449,E,1,10,0.8,645.8,M,19.0,M,,*6B
$GPGSV,4,1,13,12,62,016,32,02,60,088,26,24,57,182,26,25,41,319,25*7A
$GPGSV,4,2,13,29,34,254,25,06,25,046,29,14,13,294,17,19,11,050,30*7D
$GPGSV,4,3,13,32,10,293,21,05,05,137,09,17,01,000,,07,01,000,*7A
$GPGSV,4,4,13,15,01,193,*45
$GLGSV,2,1,05,74,01,000,25,66,01,000,,82,01,000,,73,01,000,*69
$GLGSV,2,2,05,76,01,000,*50
$GPGSA,A,3,02,05,06,12,14,19,24,25,29,32,,,1.9,1.2,1.5*39
$GNGSA,A,3,02,05,06,12,14,19,24,25,29,32,,,1.9,1.2,1.5*27
$GNGSA,A,3,,,,,,,,,,,,,1.9,1.2,1.5*23
$QZGSA,A,3,,,,,,,,,,,,,1.9,1.2,1.5*21
$GPRMC,154451.00,A,3206.350530,N,03512.406449,E,000.0,108.6,120416,,,A*58
$GPGGA,154452.00,3206.350420,N,03512.407337,E,1,10,1.2,646.0,M,19.0,M,,*67
$GPGSV,4,1,13,12,62,016,32,02,60,088,26,24,57,182,25,25,41,319,22*7E
$GPGSV,4,2,13,29,34,254,22,06,25,046,28,14,13,294,18,19,11,050,28*7D
$GPGSV,4,3,13,32,10,293,21,05,05,137,09,17,01,000,,07,01,000,*7A
$GPGSV,4,4,13,15,01,193,*45
$GLGSV,2,1,05,74,01,000,25,66,01,000,,82,01,000,,73,01,000,*69
$GLGSV,2,2,05,76,01,000,*50
$GPGSA,A,3,02,05,06,12,14,19,24,25,29,32,,,1.9,1.2,1.5*39
$GNGSA,A,3,02,05,06,12,14,19,24,25,29,32,,,1.9,1.2,1.5*27
$GNGSA,A,3,,,,,,,,,,,,,1.9,1.2,1.5*23
$QZGSA,A,3,,,,,,,,,,,,,1.9,1.2,1.5*21
$GPRMC,154452.00,A,3206.350420,N,03512.407337,E,002.4,112.8,120416,,,A*57
$GPGGA,154453.00,3206.350385,N,03512.408134,E,1,10,0.8,646.1,M,19.0,M,,*6A
$GPGSV,4,1,13,12,62,016,32,02,60,088,28,24,57,182,28,25,41,319,22*7D
$GPGSV,4,2,13,29,34,254,25,06,25,046,28,14,13,294,19,19,11,050,28*7B
$GPGSV,4,3,13,32,10,293,22,05,05,137,09,17,01,000,,07,01,000,*79
$GPGSV,4,4,13,15,01,193,*45
$GLGSV,2,1,05,74,01,000,25,66,01,000,,82,01,000,,73,01,000,*69
$GLGSV,2,2,05,76,01,000,*50
$GPGSA,A,3,02,05,06,12,14,19,24,25,29,32,,,1.9,1.2,1.5*39
$GNGSA,A,3,02,05,06,12,14,19,24,25,29,32,,,1.9,1.2,1.5*27
$GNGSA,A,3,,,,,,,,,,,,,1.9,1.2,1.5*23
$QZGSA,A,3,,,,,,,,,,,,,1.9,1.2,1.5*21
$GPRMC,154453.00,A,3206.350385,N,03512.408134,E,002.4,114.0,120416,,,A*5E
$GPGGA,154454.00,3206.350424,N,03512.409043,E,1,10,0.8,646.2,M,19.0,M,,*62
$GPGSV,4,1,13,12,62,016,33,02,60,088,28,24,57,182,28,25,41,319,22*7C
$GPGSV,4,2,13,29,34,254,25,06,25,046,29,14,13,294,19,19,11,050,28*7A
$GPGSV,4,3,13,32,10,293,22,05,05,137,09,17,01,000,,07,01,000,*79
$GPGSV,4,4,13,15,01,193,*45
$GLGSV,2,1,05,74,01,000,25,66,01,000,,82,01,000,,73,01,000,*69
$GLGSV,2,2,05,76,01,000,*50
$GPGSA,A,3,02,05,06,12,14,19,24,25,29,32,,,1.9,1.2,1.5*39
$GNGSA,A,3,02,05,06,12,14,19,24,25,29,32,,,1.9,1.2,1.5*27
$GNGSA,A,3,,,,,,,,,,,,,1.9,1.2,1.5*23
$QZGSA,A,3,,,,,,,,,,,,,1.9,1.2,1.5*21
$GPRMC,154454.00,A,3206.350424,N,03512.409043,E,002.4,111.6,120416,,,A*56
$GPGGA,154455.00,3206.350106,N,03512.410084,E,1,10,0.8,646.2,M,19.0,M,,*65
$GPGSV,4,1,13,12,62,016,34,02,60,088,28,24,57,182,28,25,41,319,25*7C
$GPGSV,4,2,13,29,34,254,25,06,25,046,31,14,13,294,19,19,11,050,30*7A
$GPGSV,4,3,13,32,10,293,22,05,05,137,09,17,01,000,,07,01,000,*79
$GPGSV,4,4,13,15,01,193,*45
$GLGSV,2,1,05,74,01,000,29,66,01,000,,82,01,000,,73,01,000,*65
$GLGSV,2,2,05,76,01,000,*50
$GPGSA,A,3,02,05,06,12,14,19,24,25,29,32,,,1.9,1.2,1.5*39
$GNGSA,A,3,02,05,06,12,14,19,24,25,29,32,,,1.9,1.2,1.5*27
$GNGSA,A,3,,,,,,,,,,,,,1.9,1.2,1.5*23
$QZGSA,A,3,,,,,,,,,,,,,1.9,1.2,1.5*21
$GPRMC,154455.00,A,3206.350106,N,03512.410084,E,002.5,125.8,120416,,,A*59
$GPGGA,154456.00,3206.349693,N,03512.411112,E,1,10,0.8,646.4,M,19.0,M,,*6C
$GPGSV,4,1,13,12,62,016,34,02,60,088,30,24,57,182,28,25,41,319,25*75
$GPGSV,4,2,13,29,34,254,26,06,25,046,31,14,13,294,19,19,11,050,30*79
$GPGSV,4,3,13,32,10,293,22,05,05,137,09,17,01,000,,07,01,000,*79
$GPGSV,4,4,13,15,01,193,*45
$GLGSV,2,1,05,74,01,000,26,66,01,000,,76,01,000,,82,01,000,*6F
$GLGSV,2,2,05,73,01,000,*55
$GPGSA,A,3,02,05,06,12,14,19,24,25,29,32,,,1.9,1.2,1.5*39
$GNGSA,A,3,02,05,06,12,14,19,24,25,29,32,,,1.9,1.2,1.5*27
$GNGSA,A,3,,,,,,,,,,,,,1.9,1.2,1.5*23
$QZGSA,A,3,,,,,,,,,,,,,1.9,1.2,1.5*21
$GPRMC,154456.00,A,3206.349693,N,03512.411112,E,002.6,127.5,120416,,,A*5A
$GPGGA,154457.00,3206.349063,N,03512.412127,E,1,10,0.8,646.6,M,19.0,M,,*63
$GPGSV,4,1,13,12,62,016,34,02,60,088,30,24,57,182,27,25,41,319,24*7B
$GPGSV,4,2,13,29,34,254,26,06,25,046,31,14,13,294,19,19,11,050,30*79
$GPGSV,4,3,13,32,10,293,22,05,05,137,09,17,01,000,,07,01,000,*79
$GPGSV,4,4,13,15,01,193,*45
$GLGSV,2,1,05,74,01,000,29,66,01,000,,82,01,000,,73,01,000,*65
$GLGSV,2,2,05,76,01,000,*50
$GPGSA,A,3,02,05,06,12,14,19,24,25,29,32,,,1.9,1.2,1.5*39
$GNGSA,A,3,02,05,06,12,14,19,24,25,29,32,,,1.9,1.2,1.5*27
$GNGSA,A,3,,,,,,,,,,,,,1.9,1.2,1.5*23
$QZGSA,A,3,,,,,,,,,,,,,1.9,1.2,1.5*21
$GPRMC,154457.00,A,3206.349063,N,03512.412127,E,002.7,135.4,120416,,,A*54
$GPGGA,154458.00,3206.348549,N,03512.412747,E,1,09,0.8,646.8,M,19.0,M,,*66
$GPGSV,4,1,13,12,62,016,34,02,60,088,30,24,57,182,27,25,41,319,24*7B
$GPGSV,4,2,13,29,34,254,26,06,25,046,30,14,13,294,20,19,11,050,30*72
$GPGSV,4,3,13,32,10,293,22,05,05,137,08,07,01,000,,17,01,000,*78
$GPGSV,4,4,13,15,01,193,*45
$GLGSV,2,1,05,74,01,000,29,66,01,000,,82,01,000,,73,01,000,*65
$GLGSV,2,2,05,76,01,000,*50
$GPGSA,A,3,02,06,12,14,19,24,25,29,32,,,,1.9,1.2,1.5*3C
$GNGSA,A,3,02,06,12,14,19,24,25,29,32,,,,1.9,1.2,1.5*22
$GNGSA,A,3,,,,,,,,,,,,,1.9,1.2,1.5*23
$QZGSA,A,3,,,,,,,,,,,,,1.9,1.2,1.5*21
$GPRMC,154458.00,A,3206.348549,N,03512.412747,E,002.7,140.3,120416,,,A*52
$GPGGA,154459.00,3206.347959,N,03512.413595,E,1,09,1.2,647.0,M,19.0,M,,*6B
$GPGSV,4,1,13,12,62,016,33,02,60,088,30,24,57,182,26,25,41,319,24*7D
$GPGSV,4,2,13,29,34,254,27,06,25,046,30,14,13,294,20,19,11,050,30*73
$GPGSV,4,3,13,32,10,293,22,07,01,000,,17,01,000,,05,05,137,*70
$GPGSV,4,4,13,15,01,193,*45
$GLGSV,2,1,05,74,01,000,29,66,01,000,,82,01,000,,73,01,000,*65
$GLGSV,2,2,05,76,01,000,*50
$GPGSA,A,3,02,06,12,14,19,24,25,29,32,,,,1.9,1.2,1.5*3C
$GNGSA,A,3,02,06,12,14,19,24,25,29,32,,,,1.9,1.2,1.5*22
$GNGSA,A,3,,,,,,,,,,,,,1.9,1.2,1.5*23
$QZGSA,A,3,,,,,,,,,,,,,1.9,1.2,1.5*21
$GPRMC,154459.00,A,3206.347959,N,03512.413595,E,002.7,132.9,120416,,,A*52
$GPGGA,154500.00,3206.347145,N,03512.414109,E,1,09,0.8,647.1,M,19.0,M,,*6F
$GPGSV,4,1,13,12,62,016,33,02,60,088,29,24,57,182,26,25,41,319,24*75
$GPGSV,4,2,13,29,34,254,27,06,25,046,29,14,13,294,19,19,11,050,29*79
$GPGSV,4,3,13,32,10,293,22,07,01,000,,17,01,000,,05,05,137,*70
$GPGSV,4,4,13,15,01,193,*45
$GLGSV,2,1,05,74,01,000,29,66,01,000,,82,01,000,,73,01,000,*65
$GLGSV,2,2,05,76,01,000,*50
$GPGSA,A,3,02,06,12,14,19,24,25,29,32,,,,1.9,1.2,1.5*3C
$GNGSA,A,3,02,06,12,14,19,24,25,29,32,,,,1.9,1.2,1.5*22
$GNGSA,A,3,,,,,,,,,,,,,1.9,1.2,1.5*23
$QZGSA,A,3,,,,,,,,,,,,,1.9,1.2,1.5*21
$GPRMC,154500.00,A,3206.347145,N,03512.414109,E,002.8,158.0,120416,,,A*56
$GPGGA,154501.00,3206.346504,N,03512.414547,E,1,09,1.2,647.3,M,19.0,M,,*69
$GPGSV,4,1,13,12,62,016,33,02,60,088,29,24,57,182,25,25,41,319,23*71
$GPGSV,4,2,13,29,34,254,26,06,25,046,29,14,13,294,19,19,11,050,29*78
$GPGSV,4,3,13,32,10,293,22,07,01,000,,17,01,000,,05,05,137,*70
$GPGSV,4,4,13,15,01,193,*45
$GLGSV,2,1,05,74,01,000,29,66,01,000,,82,01,000,,73,01,000,*65
$GLGSV,2,2,05,76,01,000,*50
$GPGSA,A,3,02,06,12,14,19,24,25,29,32,,,,1.9,1.2,1.5*3C
$GNGSA,A,3,02,06,12,14,19,24,25,29,32,,,,1.9,1.2,1.5*22
$GNGSA,A,3,,,,,,,,,,,,,1.9,1.2,1.5*23
$QZGSA,A,3,,,,,,,,,,,,,1.9,1.2,1.5*21
$GPRMC,154501.00,A,3206.346504,N,03512.414547,E,002.8,162.1,120416,,,A*51
$GPGGA,154502.00,3206.345986,N,03512.415259,E,1,09,1.2,647.4,M,19.0,M,,*61
$GPGSV,4,1,13,12,62,016,33,02,60,088,30,24,57,182,25,25,41,319,23*79
$GPGSV,4,2,13,29,34,254,26,06,25,046,34,14,13,294,19,19,11,050,29*74
$GPGSV,4,3,13,32,10,293,21,07,01,000,,17,01,000,,05,05,137,*73
$GPGSV,4,4,13,15,01,193,*45
$GLGSV,2,1,05,74,01,000,29,66,01,000,,82,01,000,,73,01,000,*65
$GLGSV,2,2,05,76,01,000,*50
$GPGSA,A,3,02,06,12,14,19,24,25,29,32,,,,1.9,1.2,1.5*3C
$GNGSA,A,3,02,06,12,14,19,24,25,29,32,,,,1.9,1.2,1.5*22
$GNGSA,A,3,,,,,,,,,,,,,1.9,1.2,1.5*23
$QZGSA,A,3,,,,,,,,,,,,,1.9,1.2,1.5*21
$GPRMC,154502.00,A,3206.345986,N,03512.415259,E,002.8,144.8,120416,,,A*53
$GPGGA,154503.00,3206.345921,N,03512.415825,E,1,09,1.2,647.5,M,19.0,M,,*6D
$GPGSV,4,1,13,12,62,016,33,02,60,088,29,24,57,182,25,25,41,319,22*70
$GPGSV,4,2,13,29,34,254,25,06,25,046,33,14,13,294,19,19,10,050,30*79
$GPGSV,4,3,13,32,10,293,21,07,01,000,,17,01,000,,05,05,137,*73
$GPGSV,4,4,13,15,01,193,*45
$GLGSV,2,1,05,74,01,000,28,66,01,000,,82,01,000,,73,01,000,*64
$GLGSV,2,2,05,76,01,000,*50
$GPGSA,A,3,02,06,12,14,19,24,25,29,32,,,,1.9,1.2,1.5*3C
$GNGSA,A,3,02,06,12,14,19,24,25,29,32,,,,1.9,1.2,1.5*22
$GNGSA,A,3,,,,,,,,,,,,,1.9,1.2,1.5*23
$QZGSA,A,3,,,,,,,,,,,,,1.9,1.2,1.5*21
$GPRMC,154503.00,A,3206.345921,N,03512.415825,E,000.0,144.8,120416,,,A*54
$GPGGA,154504.00,3206.345569,N,03512.416833,E,1,09,0.8,647.5,M,19.0,M,,*65
$GPGSV,4,1,13,12,62,016,34,02,60,088,30,24,57,182,22,25,41,319,20*7A
$GPGSV,4,2,13,29,34,254,21,06,25,046,29,14,13,294,16,19,10,050,32*7B
$GPGSV,4,3,13,32,10,293,18,07,01,000,,17,01,000,,05,05,137,*79
$GPGSV,4,4,13,15,01,193,*45
$GLGSV,2,1,05,74,01,000,31,66,01,000,,82,01,000,,73,01,000,*6C
$GLGSV,2,2,05,76,01,000,*50
$GPGSA,A,3,02,06,12,14,19,24,25,29,32,,,,2.0,1.2,1.5*36
$GNGSA,A,3,02,06,12,14,19,24,25,29,32,,,,2.0,1.2,1.5*28
$GNGSA,A,3,,,,,,,,,,,,,2.0,1.2,1.5*29
$QZGSA,A,3,,,,,,,,,,,,,2.0,1.2,1.5*2B
$GPRMC,154504.00,A,3206.345569,N,03512.416833,E,002.7,126.4,120416,,,A*5A
$GPGGA,154505.00,3206.345043,N,03512.417513,E,1,09,0.8,647.6,M,19.0,M,,*64
$GPGSV,4,1,13,12,62,016,34,02,60,088,30,24,57,182,22,25,41,319,20*7A
$GPGSV,4,2,13,29,34,254,21,06,25,046,30,14,13,294,16,19,10,050,32*73
$GPGSV,4,3,13,32,10,293,18,07,01,000,,17,01,000,,05,05,137,*79
$GPGSV,4,4,13,15,01,193,*45
$GLGSV,2,1,05,74,01,000,31,66,01,000,,82,01,000,,73,01,000,*6C
$GLGSV,2,2,05,76,01,000,*50
$GPGSA,A,3,02,06,12,14,19,24,25,29,32,,,,2.0,1.2,1.5*36
$GNGSA,A,3,02,06,12,14,19,24,25,29,32,,,,2.0,1.2,1.5*28
$GNGSA,A,3,,,,,,,,,,,,,2.0,1.2,1.5*29
$QZGSA,A,3,,,,,,,,,,,,,2.0,1.2,1.5*2B
$GPRMC,154505.00,A,3206.345043,N,03512.417513,E,002.7,146.8,120416,,,A*52
$GPGGA,154506.00,3206.344596,N,03512.418358,E,1,09,0.8,647.8,M,19.0,M,,*63
$GPGSV,4,1,13,12,62,016,33,02,60,088,30,24,57,182,22,25,41,319,20*7D
$GPGSV,4,2,13,29,34,254,21,06,25,046,30,14,13,294,16,19,10,050,31*70
$GPGSV,4,3,13,32,10,293,18,07,01,000,,17,01,000,,05,05,137,*79
$GPGSV,4,4,13,15,01,193,*45
$GLGSV,2,1,05,74,01,000,30,66,01,000,,82,01,000,,73,01,000,*6D
$GLGSV,2,2,05,76,01,000,*50
$GPGSA,A,3,02,06,12,14,19,24,25,29,32,,,,1.9,1.2,1.5*3C
$GNGSA,A,3,02,06,12,14,19,24,25,29,32,,,,1.9,1.2,1.5*22
$GNGSA,A,3,,,,,,,,,,,,,1.9,1.2,1.5*23
$QZGSA,A,3,,,,,,,,,,,,,1.9,1.2,1.5*21
$GPRMC,154506.00,A,3206.344596,N,03512.418358,E,000.0,140.1,120416,,,A*51
$GPGGA,154507.00,3206.343976,N,03512.419387,E,1,09,0.8,647.9,M,19.0,M,,*65
$GPGSV,4,1,13,12,62,016,31,02,60,088,25,24,57,182,21,25,41,319,18*73
$GPGSV,4,2,13,29,34,254,20,06,25,046,30,14,13,294,16,19,10,050,28*79
$GPGSV,4,3,13,32,10,293,16,07,01,000,,17,01,000,,05,05,137,*77
$GPGSV,4,4,13,15,01,193,*45
$GLGSV,2,1,06,74,01,000,29,66,01,000,,82,01,000,,73,01,000,*66
$GLGSV,2,2,06,76,01,000,,75,01,000,*60
$GPGSA,A,3,02,06,12,14,19,24,25,29,32,,,,1.9,1.2,1.5*3C
$GNGSA,A,3,02,06,12,14,19,24,25,29,32,,,,1.9,1.2,1.5*22
$GNGSA,A,3,,,,,,,,,,,,,1.9,1.2,1.5*23
$QZGSA,A,3,,,,,,,,,,,,,1.9,1.2,1.5*21
$GPRMC,154507.00,A,3206.343976,N,03512.419387,E,002.9,138.0,120416,,,A*53
$GPGGA,154508.00,3206.343635,N,03512.420391,E,1,09,0.8,648.0,M,19.0,M,,*69
$GPGSV,4,1,13,12,62,016,32,02,60,088,26,24,57,182,21,25,41,319,18*73
$GPGSV,4,2,13,29,34,254,19,06,25,046,30,14,13,294,16,19,10,050,28*73
$GPGSV,4,3,13,32,10,293,16,07,01,000,,17,01,000,,05,05,137,*77
$GPGSV,4,4,13,15,01,193,*45
$GLGSV,2,1,05,74,01,000,26,75,01,000,,73,01,000,,76,01,000,*63
$GLGSV,2,2,05,82,01,000,*5B
$GPGSA,A,3,02,06,12,14,19,24,25,29,32,,,,1.9,1.2,1.5*3C
$GNGSA,A,3,02,06,12,14,19,24,25,29,32,,,,1.9,1.2,1.5*22
$GNGSA,A,3,,,,,,,,,,,,,1.9,1.2,1.5*23
$QZGSA,A,3,,,,,,,,,,,,,1.9,1.2,1.5*21
$GPRMC,154508.00,A,3206.343635,N,03512.420391,E,002.9,128.1,120416,,,A*59
$GPGGA,154509.00,3206.343223,N,03512.421209,E,1,09,0.8,648.2,M,19.0,M,,*68
$GPGSV,4,1,13,12,62,016,32,02,60,088,29,24,57,182,21,25,41,319,18*7C
$GPGSV,4,2,13,29,34,254,19,06,25,046,29,14,13,294,16,19,10,050,28*7B
$GPGSV,4,3,13,32,10,293,16,07,01,000,,17,01,000,,05,05,137,*77
$GPGSV,4,4,13,15,01,193,*45
$GLGSV,2,1,05,74,01,000,29,82,01,000,,73,01,000,,76,01,000,*64
$GLGSV,2,2,05,75,01,000,*53
$GPGSA,A,3,02,06,12,14,19,24,25,29,32,,,,1.9,1.2,1.5*3C
$GNGSA,A,3,02,06,12,14,19,24,25,29,32,,,,1.9,1.2,1.5*22
$GNGSA,A,3,,,,,,,,,,,,,1.9,1.2,1.5*23
$QZGSA,A,3,,,,,,,,,,,,,1.9,1.2,1.5*21
$GPRMC,154509.00,A,3206.343223,N,03512.421209,E,002.9,139.9,120416,,,A*52
$GPGGA,154510.00,3206.342999,N,03512.421878,E,1,09,0.8,648.3,M,19.0,M,,*66
$GPGSV,4,1,13,12,62,016,32,02,60,088,29,24,57,182,21,25,41,319,18*7C
$GPGSV,4,2,13,29,34,254,19,06,25,046,29,14,13,294,16,19,10,050,28*7B
$GPGSV,4,3,13,32,10,293,16,07,01,000,,17,01,000,,05,05,137,*77
$GPGSV,4,4,13,15,01,193,*45
$GLGSV,2,1,05,74,01,000,29,82,01,000,,73,01,000,,76,01,000,*64
$GLGSV,2,2,05,75,01,000,*53
$GPGSA,A,3,02,06,12,14,19,24,25,29,32,,,,2.0,1.2,1.5*36
$GNGSA,A,3,02,06,12,14,19,24,25,29,32,,,,2.0,1.2,1.5*28
$GNGSA,A,3,,,,,,,,,,,,,2.0,1.2,1.5*29
$QZGSA,A,3,,,,,,,,,,,,,2.0,1.2,1.5*2B
$GPRMC,154510.00,A,3206.342999,N,03512.421878,E,002.8,135.4,120416,,,A*5D
$GPGGA,154511.00,3206.342466,N,03512.422743,E,1,09,0.8,648.4,M,19.0,M,,*69
$GPGSV,4,1,16,12,62,016,32,02,60,088,29,24,57,182,21,25,41,319,18*79
$GPGSV,4,2,16,29,34,254,25,06,25,046,31,14,13,294,16,19,10,050,28*78
$GPGSV,4,3,16,32,10,293,16,01,01,000,,07,01,000,,08,01,000,*79
$GPGSV,4,4,16,11,01,000,,17,01,000,,05,05,137,,15,01,193,*73
$GLGSV,2,1,07,74,01,000,29,84,01,000,,75,01,000,,65,01,000,*64
$GLGSV,2,2,07,82,01,000,,73,01,000,,76,01,000,*5C
$GPGSA,A,3,02,06,12,14,19,24,25,29,32,,,,2.0,1.2,1.5*36
$GNGSA,A,3,02,06,12,14,19,24,25,29,32,,,,2.0,1.2,1.5*28
$GNGSA,A,3,,,,,,,,,,,,,2.0,1.2,1.5*29
$QZGSA,A,3,,,,,,,,,,,,,2.0,1.2,1.5*2B
$GPRMC,154511.00,A,3206.342466,N,03512.422743,E,002.9,143.6,120416,,,A*57
$GPGGA,154512.00,3206.341939,N,03512.423687,E,1,09,0.8,648.5,M,19.0,M,,*67
$GPGSV,4,1,14,12,62,016,32,02,60,088,28,24,57,182,21,25,42,319,18*79
$GPGSV,4,2,14,29,34,254,25,06,25,046,31,14,13,294,15,19,10,050,27*76
$GPGSV,4,3,14,32,10,293,16,01,01,000,,08,01,000,,11,01,000,*7C
$GPGSV,4,4,14,05,05,137,,15,01,193,*77
$GLGSV,1,1,04,74,01,000,30,75,01,000,,65,01,000,,84,01,000,*6C
$GPGSA,A,3,02,06,12,14,19,24,25,29,32,,,,2.0,1.2,1.5*36
$GNGSA,A,3,02,06,12,14,19,24,25,29,32,,,,2.0,1.2,1.5*28
$GNGSA,A,3,,,,,,,,,,,,,2.0,1.2,1.5*29
$QZGSA,A,3,,,,,,,,,,,,,2.0,1.2,1.5*2B
