$GPGSV,4,1,16,01,00,054,13,12,07,244,23,13,75,239,30,15,41,300,30*74
$GPGSV,4,2,16,17,59,099,28,19,48,160,31,20,09,258,31,24,14,303,17*7A
$GPGSV,4,3,16,28,41,036,22,30,26,091,28,40,,,30,41,,,30*77
$GPGSV,4,4,16,05,07,213,,06,01,149,,07,01,105,,11,,,*45
$GLGSV,3,1,10,78,27,309,19,86,15,032,21,77,45,018,20,88,29,153,18*69
$GLGSV,3,2,10,87,46,090,25,67,30,233,29,68,28,296,22,66,02,189,*66
$GLGSV,3,3,10,76,15,073,,69,00,337,*6D
$GPGGA,,,,,,0,,,,,,,,*66
$GPVTG,,T,,M,,N,,K,N*2C
$GPRMC,,V,,,,,,,,,,N*53
$GPGSA,A,1,,,,,,,,,,,,,,,*1E
$GNGSA,A,1,,,,,,,,,,,,,,,*00
$GPGGA,,,,,,0,,,,,,,,*66
$GPVTG,,T,,M,,N,,K,N*2C
$GPRMC,,V,,,,,,,,,,N*53
$GPGSA,A,1,,,,,,,,,,,,,,,*1E
$GNGSA,A,1,,,,,,,,,,,,,,,*00
$GLGSV,2,1,07,74,34,135,,86,54,241,,76,28,330,,75,79,037,*69
$GLGSV,2,2,07,84,10,032,,87,02,222,,85,59,011,*50
$GPGGA,,,,,,0,,,,,,,,*66
$GPVTG,,T,,M,,N,,K,N*2C
$GPRMC,,V,,,,,,,,,,N*53
$GPGSA,A,1,,,,,,,,,,,,,,,*1E
$GNGSA,A,1,,,,,,,,,,,,,,,*00
$GPGSV,3,1,11,02,58,088,,05,03,136,,06,24,046,,12,60,014,*74
$GPGSV,3,2,11,14,12,293,,15,00,192,,19,10,049,,24,56,181,*71
$GPGSV,3,3,11,25,39,317,,29,32,251,,32,08,292,*4D
$GLGSV,2,1,07,74,34,135,,86,54,241,,76,28,330,,75,79,037,*69
$GLGSV,2,2,07,84,10,032,,87,02,222,,85,59,011,*50
$GPGGA,,,,,,0,,,,,,,,*66
$GPVTG,,T,,M,,N,,K,N*2C
$GPRMC,,V,,,,,,,,,,N*53
$GPGSA,A,1,,,,,,,,,,,,,,,*1E
$GNGSA,A,1,,,,,,,,,,,,,,,*00
$GPGSV,3,1,11,02,58,088,,05,03,136,,06,24,046,,12,60,014,*74
$GPGSV,3,2,11,14,12,293,,15,00,192,,19,10,049,,24,56,181,*71
$GPGSV,3,3,11,25,39,317,,29,32,251,,32,08,292,*4D
$GLGSV,2,1,07,74,34,135,,86,54,241,,76,28,330,,75,79,037,*69
$GLGSV,2,2,07,84,10,032,,87,02,222,,85,59,011,*50
$GPGGA,,,,,,0,,,,,,,,*66
$GPVTG,,T,,M,,N,,K,N*2C
$GPRMC,,V,,,,,,,,,,N*53
$GPGSA,A,1,,,,,,,,,,,,,,,*1E
$GNGSA,A,1,,,,,,,,,,,,,,,*00
$GPGSV,3,1,11,02,58,088,,05,03,136,,06,24,046,,12,60,014,*74
$GPGSV,3,2,11,14,12,293,,15,00,192,,19,10,049,,24,56,181,*71
$GPGSV,3,3,11,25,39,317,,29,32,251,,32,08,292,*4D
$GLGSV,2,1,07,74,34,135,22,86,54,241,,76,28,330,,75,79,037,*69
$GLGSV,2,2,07,84,10,032,,87,02,222,,85,59,011,*50
$GPGGA,,,,,,0,,,,,,,,*66
$GPVTG,,T,,M,,N,,K,N*2C
$GPRMC,,V,,,,,,,,,,N*53
$GPGSA,A,1,,,,,,,,,,,,,,,*1E
$GNGSA,A,1,,,,,,,,,,,,,,,*00
$GPGSV,3,1,11,02,58,088,,05,03,136,,06,24,046,,12,60,014,*74
$GPGSV,3,2,11,14,12,293,,15,00,192,,19,10,049,,24,56,181,*71
$GPGSV,3,3,11,25,39,317,,29,32,251,,32,08,292,*4D
$GLGSV,2,1,07,74,34,135,22,86,54,241,,76,28,330,,75,79,037,*69
$GLGSV,2,2,07,84,10,032,,87,02,222,,85,59,011,*50
$GPGGA,,,,,,0,,,,,,,,*66
$GPVTG,,T,,M,,N,,K,N*2C
$GPRMC,,V,,,,,,,,,,N*53
$GPGSA,A,1,,,,,,,,,,,,,,,*1E
$GNGSA,A,1,,,,,,,,,,,,,,,*00
$GPGSV,3,1,11,02,58,088,,05,03,136,,06,24,046,,12,60,014,*74
$GPGSV,3,2,11,14,12,293,,15,00,192,,19,10,049,,24,56,181,*71
$GPGSV,3,3,11,25,39,317,,29,32,251,,32,08,292,*4D
$GLGSV,2,1,07,74,34,135,22,86,54,241,,76,28,330,,75,79,037,*69
$GLGSV,2,2,07,84,10,032,,87,02,222,,85,59,011,*50
$GPGGA,,,,,,0,,,,,,,,*66
$GPVTG,,T,,M,,N,,K,N*2C
$GPRMC,,V,,,,,,,,,,N*53
$GPGSA,A,1,,,,,,,,,,,,,,,*1E
$GNGSA,A,1,,,,,,,,,,,,,,,*00
$GPGSV,3,1,11,02,58,088,,05,03,136,,06,24,046,,12,60,014,*74
$GPGSV,3,2,11,14,12,293,,15,00,192,,19,10,049,,24,56,181,*71
$GPGSV,3,3,11,25,39,317,,29,32,251,,32,08,292,*4D
$GLGSV,2,1,07,74,34,135,23,86,54,241,,76,28,330,,75,79,037,*68
$GLGSV,2,2,07,84,10,032,,87,02,222,,85,59,011,*50
$GPGGA,,,,,,0,,,,,,,,*66
$GPVTG,,T,,M,,N,,K,N*2C
$GPRMC,,V,,,,,,,,,,N*53
$GPGSA,A,1,,,,,,,,,,,,,,,*1E
$GNGSA,A,1,,,,,,,,,,,,,,,*00
$GPGSV,3,1,11,24,56,181,23,02,58,088,,05,03,136,,06,24,046,*78
$GPGSV,3,2,11,12,60,014,,14,12,293,,15,00,192,,19,10,049,*7C
$GPGSV,3,3,11,25,39,317,,29,32,251,,32,08,292,*4D
$GLGSV,2,1,07,74,34,135,23,86,54,241,,76,28,330,,75,79,037,*68
$GLGSV,2,2,07,84,10,032,,87,02,222,,85,59,011,*50
$GPGGA,,,,,,0,,,,,,,,*66
$GPVTG,,T,,M,,N,,K,N*2C
$GPRMC,,V,,,,,,,,,,N*53
$GPGSA,A,1,,,,,,,,,,,,,,,*1E
$GNGSA,A,1,,,,,,,,,,,,,,,*00
$GPGSV,3,1,11,12,60,014,25,24,56,181,23,02,58,088,,05,03,136,*7D
$GPGSV,3,2,11,06,24,046,,14,12,293,,15,00,192,,19,10,049,*7E
$GPGSV,3,3,11,25,39,317,,29,32,251,,32,08,292,*4D
$GLGSV,2,1,07,74,34,135,23,86,54,241,23,76,28,330,,75,79,037,*69
$GLGSV,2,2,07,84,10,032,,87,02,222,,85,59,011,*50
$GPGGA,,,,,,0,,,,,,,,*66
$GPVTG,,T,,M,,N,,K,N*2C
$GPRMC,,V,,,,,,,,,,N*53
$GPGSA,A,1,,,,,,,,,,,,,,,*1E
$GNGSA,A,1,,,,,,,,,,,,,,,*00
$GPGSV,3,1,11,02,58,088,28,12,60,014,27,24,56,181,23,29,32,251,20*79
$GPGSV,3,2,11,05,03,136,,06,24,046,,14,12,293,,15,00,192,*78
$GPGSV,3,3,11,19,10,049,,25,39,317,,32,08,292,*45
$GLGSV,2,1,07,74,34,135,29,86,54,241,27,85,59,011,21,76,28,330,*6D
$GLGSV,2,2,07,75,79,037,,84,10,032,,87,02,222,*59
$GPGGA,,,,,,0,,,,,,,,*66
$GPVTG,,T,,M,,N,,K,N*2C
$GPRMC,,V,,,,,,,,,,N*53
$GPGSA,A,1,,,,,,,,,,,,,,,*1E
$GNGSA,A,1,,,,,,,,,,,,,,,*00
$GPGSV,3,1,11,02,58,088,28,12,60,014,27,24,56,181,23,29,32,251,20*79
$GPGSV,3,2,11,05,03,136,,06,24,046,,14,12,293,,15,00,192,*78
$GPGSV,3,3,11,19,10,049,,25,39,317,,32,08,292,*45
$GLGSV,2,1,07,74,34,135,29,86,54,241,27,85,59,011,21,76,28,330,*6D
$GLGSV,2,2,07,75,79,037,,84,10,032,,87,02,222,*59
$GPGGA,,,,,,0,,,,,,,,*66
$GPVTG,,T,,M,,N,,K,N*2C
$GPRMC,,V,,,,,,,,,,N*53
$GPGSA,A,1,,,,,,,,,,,,,,,*1E
$GNGSA,A,1,,,,,,,,,,,,,,,*00
$GPGSV,3,1,11,02,58,088,27,12,60,014,28,24,56,181,26,25,39,317,22*7A
$GPGSV,3,2,11,29,32,251,21,05,03,136,,06,24,046,,14,12,293,*79
$GPGSV,3,3,11,15,00,192,,19,09,049,,32,08,292,*4B
$GLGSV,2,1,07,74,33,135,26,86,54,241,21,85,59,011,21,76,28,330,*63
$GLGSV,2,2,07,75,79,037,,84,10,032,,87,02,222,*59
$GPGGA,,,,,,0,,,,,,,,*66
$GPVTG,,T,,M,,N,,K,N*2C
$GPRMC,,V,,,,,,,,,,N*53
$GPGSA,A,1,,,,,,,,,,,,,,,*1E
$GNGSA,A,1,,,,,,,,,,,,,,,*00
$GPGSV,3,1,11,02,58,088,27,06,24,046,18,12,60,014,27,24,56,181,27*77
$GPGSV,3,2,11,25,39,317,18,29,32,251,18,05,03,136,,14,12,293,*70
$GPGSV,3,3,11,15,00,192,,19,09,049,,32,08,292,*4B
$GLGSV,2,1,07,74,33,135,27,86,54,241,18,85,59,011,21,76,28,330,*68
$GLGSV,2,2,07,75,79,037,,84,10,032,,87,02,222,*59
$GPGGA,,,,,,0,,,,,,,,*66
$GPVTG,,T,,M,,N,,K,N*2C
$GPRMC,,V,,,,,,,,,,N*53
$GPGSA,A,1,,,,,,,,,,,,,,,*1E
$GNGSA,A,1,,,,,,,,,,,,,,,*00
$GPGSV,3,1,11,02,58,088,26,06,24,046,20,12,60,014,27,19,09,049,21*7A
$GPGSV,3,2,11,24,56,181,28,25,39,317,18,29,32,251,24,05,03,136,*76
$GPGSV,3,3,11,14,12,293,,15,00,192,,32,08,292,*49
$GLGSV,2,1,07,74,33,135,29,86,54,241,19,75,79,037,17,85,59,011,20*63
$GLGSV,2,2,07,76,28,330,,84,10,032,,87,02,222,*5A
$GPGGA,154315.0,3205.425706,N,03458.701567,E,1,07,1.3,79.7,M,19.0,M,,*61
$GPVTG,264.0,T,261.0,M,2.5,N,4.7,K,A*22
$GPRMC,154315.0,A,3205.425706,N,03458.701567,E,2.5,264.0,120416,3.0,E,A*08
$GPGSA,A,3,02,06,12,19,24,25,29,,,,,,2.3,1.3,1.8*3D
$GNGSA,A,3,02,06,12,19,24,25,29,,,,,,2.3,1.3,1.8*23
$GNGSA,A,3,,,,,,,,,,,,,2.3,1.3,1.8*26
$GPGSV,3,1,11,02,58,088,26,06,24,046,24,12,60,014,25,19,09,049,23*7E
$GPGSV,3,2,11,24,56,181,29,25,39,317,18,29,32,251,24,05,03,136,*77
$GPGSV,3,3,11,14,12,293,,15,00,192,,32,08,292,*49
$GLGSV,2,1,07,74,33,135,28,86,54,241,19,75,79,037,16,85,59,011,21*62
$GLGSV,2,2,07,76,28,330,,84,10,032,,87,02,222,*5A
$GPGGA,154316.0,3205.426012,N,03458.698289,E,1,07,1.2,87.0,M,19.0,M,,*62
$GPVTG,264.0,T,261.0,M,0.0,N,0.0,K,A*26
$GPRMC,154316.0,A,3205.426012,N,03458.698289,E,0.0,264.0,120416,3.0,E,A*0B
$GPGSA,A,2,02,06,12,19,24,25,29,,,,,,1.5,1.2,0.9*38
$GNGSA,A,2,02,06,12,19,24,25,29,,,,,,1.5,1.2,0.9*26
$GNGSA,A,2,,,,,,,,,,,,,1.5,1.2,0.9*23
$GPGSV,3,1,11,02,58,088,25,06,24,046,22,12,60,014,25,19,09,049,22*7A
$GPGSV,3,2,11,24,56,181,28,25,39,317,17,29,32,251,25,05,03,136,*78
$GPGSV,3,3,11,14,12,293,,15,00,192,,32,08,292,*49
$GLGSV,2,1,07,74,33,135,26,86,54,241,19,75,79,037,16,85,59,011,22*6F
$GLGSV,2,2,07,76,28,330,,84,10,032,,87,02,222,*5A
$GPGGA,154317.0,3205.425259,N,03458.695515,E,1,07,1.2,90.5,M,19.0,M,,*61
$GPVTG,264.0,T,261.0,M,0.0,N,0.0,K,A*26
$GPRMC,154317.0,A,3205.425259,N,03458.695515,E,0.0,264.0,120416,3.0,E,A*0B
$GPGSA,A,2,02,06,12,19,24,25,29,,,,,,1.5,1.2,0.9*38
$GNGSA,A,2,02,06,12,19,24,25,29,,,,,,1.5,1.2,0.9*26
$GNGSA,A,2,,,,,,,,,,,,,1.5,1.2,0.9*23
$GPGSV,3,1,11,02,58,088,27,06,24,046,22,12,60,014,25,19,09,049,23*79
$GPGSV,3,2,11,24,56,181,26,25,39,317,18,29,32,251,21,05,03,136,*7D
$GPGSV,3,3,11,14,12,293,,15,00,192,,32,08,292,*49
$GLGSV,2,1,07,74,33,135,26,86,54,241,19,75,79,037,16,85,59,011,22*6F
$GLGSV,2,2,07,76,28,330,,84,10,032,,87,02,222,*5A
$GPGGA,154318.0,3205.424578,N,03458.696368,E,1,07,1.2,90.5,M,19.0,M,,*64
$GPVTG,264.0,T,261.0,M,0.0,N,0.0,K,A*26
$GPRMC,154318.0,A,3205.424578,N,03458.696368,E,0.0,264.0,120416,3.0,E,A*0E
$GPGSA,A,2,02,06,12,19,24,25,29,,,,,,1.5,1.2,0.9*38
$GNGSA,A,2,02,06,12,19,24,25,29,,,,,,1.5,1.2,0.9*26
$GNGSA,A,2,,,,,,,,,,,,,1.5,1.2,0.9*23
$GPGSV,3,1,11,02,58,088,25,06,24,046,21,12,60,014,22,19,09,049,24*78
$GPGSV,3,2,11,24,56,181,25,25,39,317,18,29,32,251,23,05,03,136,*7C
$GPGSV,3,3,11,14,12,293,,15,00,192,,32,08,292,*49
$GLGSV,2,1,07,74,33,135,26,86,54,241,19,75,79,037,15,85,59,011,17*6A
$GLGSV,2,2,07,76,28,330,,84,10,032,,87,02,222,*5A
$GPGGA,154319.0,3205.424605,N,03458.695153,E,1,07,1.2,90.5,M,19.0,M,,*65
$GPVTG,264.0,T,261.0,M,0.0,N,0.0,K,A*26
$GPRMC,154319.0,A,3205.424605,N,03458.695153,E,0.0,264.0,120416,3.0,E,A*0F
$GPGSA,A,2,02,06,12,19,24,25,29,,,,,,1.5,1.2,0.9*38
$GNGSA,A,2,02,06,12,19,24,25,29,,,,,,1.5,1.2,0.9*26
$GNGSA,A,2,,,,,,,,,,,,,1.5,1.2,0.9*23
$GPGSV,3,1,11,02,58,088,24,06,24,046,19,12,60,014,25,19,09,049,22*73
$GPGSV,3,2,11,24,56,181,27,25,39,317,18,29,32,251,20,05,03,136,*7D
$GPGSV,3,3,11,14,12,293,,15,00,192,,32,08,292,*49
$GLGSV,2,1,07,74,33,135,29,86,54,241,17,75,79,037,14,85,59,011,20*6E
$GLGSV,2,2,07,76,28,330,,84,10,032,,87,02,222,*5A
$GPGGA,154320.0,3205.424119,N,03458.695198,E,1,07,1.2,89.5,M,19.0,M,,*6A
$GPVTG,264.0,T,261.0,M,0.0,N,0.0,K,A*26
$GPRMC,154320.0,A,3205.424119,N,03458.695198,E,0.0,264.0,120416,3.0,E,A*08
$GPGSA,A,2,02,06,12,19,24,25,29,,,,,,1.5,1.2,0.9*38
$GNGSA,A,2,02,06,12,19,24,25,29,,,,,,1.5,1.2,0.9*26
$GNGSA,A,2,,,,,,,,,,,,,1.5,1.2,0.9*23
$GPGSV,3,1,11,02,58,088,25,06,24,046,17,12,60,014,21,19,09,049,20*7A
$GPGSV,3,2,11,24,56,181,28,25,39,317,17,29,32,251,22,05,03,136,*7F
$GPGSV,3,3,11,14,12,293,,15,00,192,,32,08,292,*49
$GLGSV,2,1,07,74,33,135,27,86,54,241,19,75,79,037,14,85,59,011,18*65
$GLGSV,2,2,07,76,28,330,,84,10,032,,87,02,222,*5A
$GPGGA,154321.0,3205.424342,N,03458.694124,E,1,07,1.2,92.7,M,19.0,M,,*69
$GPVTG,264.0,T,261.0,M,0.0,N,0.0,K,A*26
$GPRMC,154321.0,A,3205.424342,N,03458.694124,E,0.0,264.0,120416,3.0,E,A*03
$GPGSA,A,2,02,06,12,19,24,25,29,,,,,,1.5,1.2,0.9*38
$GNGSA,A,2,02,06,12,19,24,25,29,,,,,,1.5,1.2,0.9*26
$GNGSA,A,2,,,,,,,,,,,,,1.5,1.2,0.9*23
$GPGSV,3,1,11,02,58,088,25,06,24,046,16,12,60,014,23,19,09,049,18*72
$GPGSV,3,2,11,24,56,181,27,25,39,317,17,29,32,251,19,05,03,136,*78
$GPGSV,3,3,11,14,12,293,,15,00,192,,32,08,292,*49
$GLGSV,2,1,07,74,33,135,27,86,54,241,19,75,79,037,13,85,59,011,18*62
$GLGSV,2,2,07,76,28,330,,84,10,032,,87,02,222,*5A
$GPGGA,154322.0,3205.424708,N,03458.693099,E,1,07,1.2,94.2,M,19.0,M,,*63
$GPVTG,264.0,T,261.0,M,0.0,N,0.0,K,A*26
$GPRMC,154322.0,A,3205.424708,N,03458.693099,E,0.0,264.0,120416,3.0,E,A*0A
$GPGSA,A,2,02,06,12,19,24,25,29,,,,,,1.5,1.2,0.9*38
$GNGSA,A,2,02,06,12,19,24,25,29,,,,,,1.5,1.2,0.9*26
$GNGSA,A,2,,,,,,,,,,,,,1.5,1.2,0.9*23
$GPGSV,3,1,11,02,58,088,23,06,24,046,18,12,60,014,25,19,09,049,18*7C
$GPGSV,3,2,11,24,56,181,29,25,39,317,17,29,32,251,25,05,03,136,*79
$GPGSV,3,3,11,14,12,293,,15,00,192,,32,08,292,*49
$GLGSV,2,1,07,74,33,135,27,86,54,241,19,75,79,037,13,85,59,011,18*62
$GLGSV,2,2,07,76,28,330,,84,10,032,,87,02,222,*5A
$GPGGA,154323.0,3205.423578,N,03458.693144,E,1,07,1.2,92.1,M,19.0,M,,*64
$GPVTG,264.0,T,261.0,M,0.0,N,0.0,K,A*26
$GPRMC,154323.0,A,3205.423578,N,03458.693144,E,0.0,264.0,120416,3.0,E,A*08
$GPGSA,A,2,02,06,12,19,24,25,29,,,,,,1.5,1.2,0.9*38
$GNGSA,A,2,02,06,12,19,24,25,29,,,,,,1.5,1.2,0.9*26
$GNGSA,A,2,,,,,,,,,,,,,1.5,1.2,0.9*23
$GPGSV,3,1,11,02,58,088,24,06,24,046,18,12,60,014,23,19,09,049,16*73
$GPGSV,3,2,11,24,56,181,27,25,39,317,21,29,32,251,28,05,03,136,*7F
$GPGSV,3,3,11,14,12,293,,15,00,192,,32,08,292,*49
$GLGSV,2,1,07,74,33,135,25,86,54,241,15,75,79,037,14,85,59,011,18*6B
$GLGSV,2,2,07,76,28,330,,84,10,032,,87,02,222,*5A
$GPGGA,154324.0,3205.423728,N,03458.692522,E,1,07,1.2,92.6,M,19.0,M,,*66
$GPVTG,264.0,T,261.0,M,0.0,N,0.0,K,A*26
$GPRMC,154324.0,A,3205.423728,N,03458.692522,E,0.0,264.0,120416,3.0,E,A*0D
$GPGSA,A,2,02,06,12,19,24,25,29,,,,,,1.5,1.2,0.9*38
$GNGSA,A,2,02,06,12,19,24,25,29,,,,,,1.5,1.2,0.9*26
$GNGSA,A,2,,,,,,,,,,,,,1.5,1.2,0.9*23
$GPGSV,3,1,11,02,58,088,26,06,24,046,18,12,60,014,27,19,09,049,16*75
$GPGSV,3,2,11,24,56,181,27,25,39,317,23,29,32,251,22,05,03,136,*77
$GPGSV,3,3,11,14,12,293,,15,00,192,,32,08,292,*49
$GLGSV,2,1,07,74,33,135,24,86,54,241,15,75,79,037,14,85,59,011,22*63
$GLGSV,2,2,07,76,28,330,,84,10,032,,87,02,222,*5A
$GPGGA,154325.0,3205.423146,N,03458.692335,E,1,07,1.2,92.3,M,19.0,M,,*6C
$GPVTG,264.0,T,261.0,M,0.0,N,0.0,K,A*26
$GPRMC,154325.0,A,3205.423146,N,03458.692335,E,0.0,264.0,120416,3.0,E,A*02
$GPGSA,A,2,02,06,12,19,24,25,29,,,,,,1.5,1.2,0.9*38
$GNGSA,A,2,02,06,12,19,24,25,29,,,,,,1.5,1.2,0.9*26
$GNGSA,A,2,,,,,,,,,,,,,1.5,1.2,0.9*23
$GPGSV,3,1,11,02,58,088,25,06,24,046,17,12,60,014,25,19,09,049,16*7B
$GPGSV,3,2,11,24,56,181,28,25,39,317,19,29,32,251,20,05,03,136,*73
$GPGSV,3,3,11,14,12,293,,15,00,192,,32,08,292,*49
$GLGSV,2,1,07,74,33,135,24,86,54,241,15,75,79,037,14,85,59,011,20*61
$GLGSV,2,2,07,76,28,330,,84,10,032,,87,02,222,*5A
$GPGGA,154326.0,3205.423117,N,03458.692186,E,1,07,1.2,92.4,M,19.0,M,,*66
$GPVTG,264.0,T,261.0,M,0.0,N,0.0,K,A*26
$GPRMC,154326.0,A,3205.423117,N,03458.692186,E,0.0,264.0,120416,3.0,E,A*0F
$GPGSA,A,2,02,06,12,19,24,25,29,,,,,,1.5,1.2,0.9*38
$GNGSA,A,2,02,06,12,19,24,25,29,,,,,,1.5,1.2,0.9*26
$GNGSA,A,2,,,,,,,,,,,,,1.5,1.2,0.9*23
$GPGSV,3,1,11,02,58,088,26,06,24,046,20,12,60,014,23,19,09,049,14*78
$GPGSV,3,2,11,24,56,181,27,25,39,317,22,29,32,251,18,05,03,136,*7F
$GPGSV,3,3,11,14,12,293,,15,00,192,,32,08,292,*49
$GLGSV,2,1,07,74,33,135,23,86,54,241,15,75,79,037,14,85,59,011,19*6C
$GLGSV,2,2,07,76,28,330,,84,10,032,,87,02,222,*5A
$GPGGA,154327.0,3205.423205,N,03458.691896,E,1,07,1.2,92.6,M,19.0,M,,*6E
$GPVTG,264.0,T,261.0,M,0.0,N,0.0,K,A*26
$GPRMC,154327.0,A,3205.423205,N,03458.691896,E,0.0,264.0,120416,3.0,E,A*05
$GPGSA,A,2,02,06,12,19,24,25,29,,,,,,1.5,1.2,0.9*38
$GNGSA,A,2,02,06,12,19,24,25,29,,,,,,1.5,1.2,0.9*26
$GNGSA,A,2,,,,,,,,,,,,,1.5,1.2,0.9*23
$GPGSV,3,1,11,02,58,088,24,06,24,046,18,12,60,014,24,19,09,049,19*7B
$GPGSV,3,2,11,24,56,181,25,25,39,317,22,29,32,251,22,05,03,136,*74
$GPGSV,3,3,11,14,12,293,,15,00,192,,32,08,292,*49
$GLGSV,2,1,07,74,33,135,22,86,54,241,15,75,79,037,14,85,59,011,19*6D
$GLGSV,2,2,07,76,28,330,,84,10,032,,87,02,222,*5A
$GPGGA,154328.0,3205.423276,N,03458.691549,E,1,07,1.2,94.1,M,19.0,M,,*6B
$GPVTG,264.0,T,261.0,M,0.0,N,0.0,K,A*26
$GPRMC,154328.0,A,3205.423276,N,03458.691549,E,0.0,264.0,120416,3.0,E,A*01
$GPGSA,A,2,02,06,12,19,24,25,29,,,,,,1.5,1.2,0.9*38
$GNGSA,A,2,02,06,12,19,24,25,29,,,,,,1.5,1.2,0.9*26
$GNGSA,A,2,,,,,,,,,,,,,1.5,1.2,0.9*23
$GPGSV,3,1,11,02,58,088,26,06,24,046,18,12,60,014,24,19,09,049,18*78
$GPGSV,3,2,11,24,56,181,25,25,39,317,18,29,32,251,19,05,03,136,*75
$GPGSV,3,3,11,14,12,293,,15,00,192,,32,08,292,*49
$GLGSV,2,1,07,74,33,135,27,86,54,241,21,75,79,037,14,85,59,011,22*67
$GLGSV,2,2,07,76,28,330,,84,10,032,,87,02,222,*5A
$GPGGA,154329.0,3205.423309,N,03458.691496,E,1,07,1.2,94.5,M,19.0,M,,*64
$GPVTG,264.0,T,261.0,M,0.0,N,0.0,K,A*26
$GPRMC,154329.0,A,3205.423309,N,03458.691496,E,0.0,264.0,120416,3.0,E,A*0A
$GPGSA,A,2,02,06,12,19,24,25,29,,,,,,1.5,1.2,0.9*38
$GNGSA,A,2,02,06,12,19,24,25,29,,,,,,1.5,1.2,0.9*26
$GNGSA,A,2,,,,,,,,,,,,,1.5,1.2,0.9*23
$GPGSV,3,1,11,02,58,088,25,06,24,046,21,12,60,014,25,19,09,049,24*7F
$GPGSV,3,2,11,24,56,181,28,25,39,317,17,29,32,251,22,05,03,136,*7F
$GPGSV,3,3,11,14,12,293,,15,00,192,,32,08,292,*49
$GLGSV,2,1,07,74,33,135,28,86,54,241,21,75,79,037,14,85,59,011,21*6B
$GLGSV,2,2,07,76,28,330,,84,10,032,,87,02,222,*5A
$GPGGA,154330.0,3205.423337,N,03458.691438,E,1,07,1.2,94.9,M,19.0,M,,*69
$GPVTG,264.0,T,261.0,M,0.0,N,0.0,K,A*26
$GPRMC,154330.0,A,3205.423337,N,03458.691438,E,0.0,264.0,120416,3.0,E,A*0B
$GPGSA,A,2,02,06,12,19,24,25,29,,,,,,1.5,1.2,0.9*38
$GNGSA,A,2,02,06,12,19,24,25,29,,,,,,1.5,1.2,0.9*26
$GNGSA,A,2,,,,,,,,,,,,,1.5,1.2,0.9*23
$GPGSV,3,1,11,02,58,088,26,06,24,046,17,12,60,014,26,19,09,049,23*7D
$GPGSV,3,2,11,24,56,181,27,25,39,317,21,29,32,251,18,05,03,136,*7C
$GPGSV,3,3,11,14,12,293,,15,00,192,,32,08,292,*49
$GLGSV,2,1,07,74,33,135,28,86,54,241,18,75,79,037,14,85,59,011,21*61
$GLGSV,2,2,07,76,28,330,,84,10,032,,87,02,222,*5A
$GPGGA,154331.0,3205.423338,N,03458.691418,E,1,07,1.2,95.0,M,19.0,M,,*6D
$GPVTG,264.0,T,261.0,M,0.0,N,0.0,K,A*26
$GPRMC,154331.0,A,3205.423338,N,03458.691418,E,0.0,264.0,120416,3.0,E,A*07
$GPGSA,A,2,02,06,12,19,24,25,29,,,,,,1.5,1.2,0.9*38
$GNGSA,A,2,02,06,12,19,24,25,29,,,,,,1.5,1.2,0.9*26
$GNGSA,A,2,,,,,,,,,,,,,1.5,1.2,0.9*23
$GPGSV,3,1,11,02,58,088,25,06,24,046,19,12,60,014,24,19,09,049,23*72
$GPGSV,3,2,11,24,56,181,29,25,39,317,18,29,32,251,21,05,03,136,*72
$GPGSV,3,3,11,14,12,293,,15,00,192,,32,08,292,*49
$GLGSV,2,1,07,74,33,135,27,86,54,241,18,75,79,037,16,85,59,011,19*67
$GLGSV,2,2,07,76,28,330,,84,10,032,,87,02,222,*5A
$GPGGA,154332.0,3205.423328,N,03458.691413,E,1,07,1.2,95.0,M,19.0,M,,*64
$GPVTG,264.0,T,261.0,M,0.0,N,0.0,K,A*26
$GPRMC,154332.0,A,3205.423328,N,03458.691413,E,0.0,264.0,120416,3.0,E,A*0E
$GPGSA,A,2,02,06,12,19,24,25,29,,,,,,1.5,1.2,0.9*38
$GNGSA,A,2,02,06,12,19,24,25,29,,,,,,1.5,1.2,0.9*26
$GNGSA,A,2,,,,,,,,,,,,,1.5,1.2,0.9*23
$GPGSV,3,1,11,02,58,088,25,06,24,046,21,12,60,014,22,19,09,049,16*79
$GPGSV,3,2,11,24,56,181,29,25,39,317,18,29,32,251,20,05,03,136,*73
$GPGSV,3,3,11,14,12,293,,15,00,192,,32,08,292,*49
$GLGSV,2,1,07,74,33,135,30,86,54,241,25,75,79,037,22,85,59,011,22*60
$GLGSV,2,2,07,76,28,330,,84,10,032,,87,02,222,*5A
$GPGGA,154333.0,3205.423320,N,03458.691404,E,1,07,1.2,95.0,M,19.0,M,,*6B
$GPVTG,264.0,T,261.0,M,0.0,N,0.0,K,A*26
$GPRMC,154333.0,A,3205.423320,N,03458.691404,E,0.0,264.0,120416,3.0,E,A*01
$GPGSA,A,2,02,06,12,19,24,25,29,,,,,,1.5,1.2,0.9*38
$GNGSA,A,2,02,06,12,19,24,25,29,,,,,,1.5,1.2,0.9*26
$GNGSA,A,2,,,,,,,,,,,,,1.5,1.2,0.9*23
$GPGSV,3,1,11,02,58,088,25,06,24,046,25,12,60,014,23,19,09,049,21*78
$GPGSV,3,2,11,24,56,181,26,25,39,317,18,29,32,251,20,05,03,136,*7C
$GPGSV,3,3,11,14,12,293,,15,00,192,,32,08,292,*49
$GLGSV,2,1,07,74,33,135,28,86,54,241,24,75,79,037,19,85,59,011,22*60
$GLGSV,2,2,07,76,28,330,,84,10,032,,87,02,222,*5A
$GPGGA,154334.0,3205.423319,N,03458.691397,E,1,07,1.2,95.0,M,19.0,M,,*6B
$GPVTG,264.0,T,261.0,M,0.0,N,0.0,K,A*26
$GPRMC,154334.0,A,3205.423319,N,03458.691397,E,0.0,264.0,120416,3.0,E,A*01
$GPGSA,A,2,02,06,12,19,24,25,29,,,,,,1.5,1.2,0.9*38
$GNGSA,A,2,02,06,12,19,24,25,29,,,,,,1.5,1.2,0.9*26
$GNGSA,A,2,,,,,,,,,,,,,1.5,1.2,0.9*23
$GPGSV,3,1,11,02,58,088,23,06,24,046,22,12,60,014,21,19,09,049,19*70
$GPGSV,3,2,11,24,56,181,29,25,39,317,15,29,32,251,21,05,03,136,*7F
$GPGSV,3,3,11,14,12,293,,15,00,192,,32,08,292,*49
$GLGSV,2,1,07,74,33,135,26,86,54,241,22,75,79,037,18,85,59,011,22*69
$GLGSV,2,2,07,76,28,330,,84,10,032,,87,02,222,*5A
$GPGGA,154335.0,3205.423310,N,03458.691379,E,1,07,1.2,95.1,M,19.0,M,,*62
$GPVTG,264.0,T,261.0,M,0.0,N,0.0,K,A*26
$GPRMC,154335.0,A,3205.423310,N,03458.691379,E,0.0,264.0,120416,3.0,E,A*09
$GPGSA,A,2,02,06,12,19,24,25,29,,,,,,1.5,1.2,0.9*38
$GNGSA,A,2,02,06,12,19,24,25,29,,,,,,1.5,1.2,0.9*26
$GNGSA,A,2,,,,,,,,,,,,,1.5,1.2,0.9*23
$GPGSV,3,1,11,02,58,088,22,06,24,046,20,12,60,014,22,19,09,049,18*71
$GPGSV,3,2,11,24,56,181,24,25,39,317,17,29,32,251,20,05,03,136,*71
$GPGSV,3,3,11,14,12,293,,15,00,192,,32,08,292,*49
$GLGSV,2,1,07,74,33,135,25,86,54,241,23,75,79,037,18,85,59,011,19*63
$GLGSV,2,2,07,76,28,330,,84,10,032,,87,02,222,*5A
$GPGGA,154336.0,3205.423306,N,03458.691372,E,1,07,1.2,95.1,M,19.0,M,,*6D
$GPVTG,264.0,T,261.0,M,0.0,N,0.0,K,A*26
$GPRMC,154336.0,A,3205.423306,N,03458.691372,E,0.0,264.0,120416,3.0,E,A*06
$GPGSA,A,2,02,06,12,19,24,25,29,,,,,,1.5,1.2,0.9*38
$GNGSA,A,2,02,06,12,19,24,25,29,,,,,,1.5,1.2,0.9*26
$GNGSA,A,2,,,,,,,,,,,,,1.5,1.2,0.9*23
$GPGSV,3,1,11,02,58,088,21,06,24,045,20,12,60,014,23,19,09,049,18*70
$GPGSV,3,2,11,24,56,181,25,25,40,317,19,29,32,251,23,05,03,136,*73
$GPGSV,3,3,11,14,12,293,,15,00,192,,32,08,292,*49
$GLGSV,2,1,07,74,33,136,26,86,54,241,22,75,80,039,17,85,58,011,20*6E
$GLGSV,2,2,07,76,28,330,,84,10,032,,87,02,222,*5A
$GPGGA,154337.0,3205.423299,N,03458.691363,E,1,07,1.2,95.1,M,19.0,M,,*6B
$GPVTG,264.0,T,261.0,M,0.0,N,0.0,K,A*26
$GPRMC,154337.0,A,3205.423299,N,03458.691363,E,0.0,264.0,120416,3.0,E,A*00
$GPGSA,A,2,02,06,12,19,24,25,29,,,,,,1.5,1.2,0.9*38
$GNGSA,A,2,02,06,12,19,24,25,29,,,,,,1.5,1.2,0.9*26
$GNGSA,A,2,,,,,,,,,,,,,1.5,1.2,0.9*23
$GPGSV,3,1,11,02,58,088,23,06,24,045,16,12,60,014,25,19,09,049,19*70
$GPGSV,3,2,11,24,56,181,26,25,40,317,19,29,32,251,21,05,03,136,*72
$GPGSV,3,3,11,14,12,293,,15,00,192,,32,08,292,*49
$GLGSV,2,1,07,74,33,136,25,86,54,241,26,75,80,039,17,85,58,011,22*6B
$GLGSV,2,2,07,76,28,330,,84,10,032,,87,02,222,*5A
$GPGGA,154338.0,3205.423065,N,03458.690890,E,1,07,1.2,95.0,M,19.0,M,,*62
$GPVTG,239.7,T,236.8,M,2.8,N,5.1,K,A*2D
$GPRMC,154338.0,A,3205.423065,N,03458.690890,E,2.8,239.7,120416,3.0,E,A*0D
$GPGSA,A,2,02,06,12,19,24,25,29,,,,,,1.5,1.2,0.9*38
$GNGSA,A,2,02,06,12,19,24,25,29,,,,,,1.5,1.2,0.9*26
$GNGSA,A,2,,,,,,,,,,,,,1.5,1.2,0.9*23
$GPGSV,3,1,11,02,58,088,20,06,24,045,18,12,60,014,21,19,09,049,19*79
$GPGSV,3,2,11,24,56,181,26,25,40,317,18,29,32,251,22,05,03,136,*70
$GPGSV,3,3,11,14,12,293,,15,00,192,,32,08,292,*49
$GLGSV,2,1,07,74,33,136,27,86,54,241,23,75,80,039,17,85,58,011,22*6C
$GLGSV,2,2,07,76,28,330,,84,10,032,,87,02,222,*5A
$GPGGA,154339.0,3205.423131,N,03458.686729,E,1,07,1.2,94.0,M,19.0,M,,*68
$GPVTG,239.7,T,236.8,M,3.0,N,5.6,K,A*23
$GPRMC,154339.0,A,3205.423131,N,03458.686729,E,3.0,239.7,120416,3.0,E,A*0F
$GPGSA,A,2,02,06,12,19,24,25,29,,,,,,1.5,1.2,0.9*38
$GNGSA,A,2,02,06,12,19,24,25,29,,,,,,1.5,1.2,0.9*26
$GNGSA,A,2,,,,,,,,,,,,,1.5,1.2,0.9*23
$GPGSV,3,1,11,02,58,088,22,06,24,045,18,12,60,014,23,19,09,049,16*76
$GPGSV,3,2,11,24,56,181,23,25,40,317,19,29,32,251,21,05,03,136,*77
$GPGSV,3,3,11,14,12,293,,15,00,192,,32,08,292,*49
$GLGSV,2,1,07,74,33,136,24,86,54,241,20,75,80,039,17,85,58,011,17*6A
$GLGSV,2,2,07,76,28,330,,84,10,032,,87,02,222,*5A
$GPGGA,154340.0,3205.421138,N,03458.684966,E,1,07,1.2,92.7,M,19.0,M,,*6B
$GPVTG,217.6,T,214.6,M,2.1,N,3.8,K,A*28
$GPRMC,154340.0,A,3205.421138,N,03458.684966,E,2.1,217.6,120416,3.0,E,A*00
$GPGSA,A,2,02,06,12,19,24,25,29,,,,,,1.5,1.2,0.9*38
$GNGSA,A,2,02,06,12,19,24,25,29,,,,,,1.5,1.2,0.9*26
$GNGSA,A,2,,,,,,,,,,,,,1.5,1.2,0.9*23
$GPGSV,3,1,11,02,58,088,25,06,24,045,18,12,60,014,18,19,09,049,18*77
$GPGSV,3,2,11,24,56,181,27,25,40,317,20,29,32,251,24,05,03,136,*7C
$GPGSV,3,3,11,14,12,293,,15,00,192,,32,08,292,*49
$GLGSV,2,1,07,74,33,136,20,86,54,241,20,75,80,039,17,85,58,011,17*6E
$GLGSV,2,2,07,76,28,330,,84,10,032,,87,02,222,*5A
$GPGGA,154341.0,3205.420185,N,03458.683266,E,1,07,1.2,92.4,M,19.0,M,,*62
$GPVTG,217.6,T,214.6,M,2.5,N,4.6,K,A*25
$GPRMC,154341.0,A,3205.420185,N,03458.683266,E,2.5,217.6,120416,3.0,E,A*0E
$GPGSA,A,2,02,06,12,19,24,25,29,,,,,,1.5,1.2,0.9*38
$GNGSA,A,2,02,06,12,19,24,25,29,,,,,,1.5,1.2,0.9*26
$GNGSA,A,2,,,,,,,,,,,,,1.5,1.2,0.9*23
$GPGSV,3,1,11,02,58,088,23,06,24,045,15,12,60,014,21,19,09,049,18*76
$GPGSV,3,2,11,24,56,181,29,25,40,317,18,29,32,251,24,32,08,292,14*7E
$GPGSV,3,3,11,05,03,136,,14,12,293,,15,00,192,*4B
$GLGSV,2,1,07,74,33,136,23,86,54,241,20,75,80,039,17,85,58,011,16*6C
$GLGSV,2,2,07,76,28,330,,84,10,032,,87,02,222,*5A
$GPGGA,154342.0,3205.418260,N,03458.680866,E,1,08,1.1,91.2,M,19.0,M,,*62
$GPVTG,217.6,T,214.6,M,4.1,N,7.6,K,A*24
$GPRMC,154342.0,A,3205.418260,N,03458.680866,E,4.1,217.6,120416,3.0,E,A*05
$GPGSA,A,2,02,06,12,19,24,25,29,32,,,,,1.4,1.1,0.8*3A
$GNGSA,A,2,02,06,12,19,24,25,29,32,,,,,1.4,1.1,0.8*24
$GNGSA,A,2,,,,,,,,,,,,,1.4,1.1,0.8*20
$GPGSV,3,1,11,02,58,088,24,06,24,045,15,12,60,014,23,19,09,049,18*73
$GPGSV,3,2,11,24,56,181,26,25,40,317,18,29,32,251,27,32,08,292,15*73
$GPGSV,3,3,11,05,03,136,,14,12,293,,15,00,192,*4B
$GLGSV,2,1,07,74,33,136,20,86,54,241,20,75,80,039,13,85,58,011,19*64
$GLGSV,2,2,07,76,28,330,,84,10,032,,87,02,222,*5A
$GPGGA,154343.0,3205.416838,N,03458.678208,E,1,08,1.1,90.5,M,19.0,M,,*69
$GPVTG,231.3,T,228.3,M,5.9,N,10.8,K,A*1E
$GPRMC,154343.0,A,3205.416838,N,03458.678208,E,5.9,231.3,120416,3.0,E,A*00
$GPGSA,A,2,02,06,12,19,24,25,29,32,,,,,1.4,1.1,0.8*3A
$GNGSA,A,2,02,06,12,19,24,25,29,32,,,,,1.4,1.1,0.8*24
$GNGSA,A,2,,,,,,,,,,,,,1.4,1.1,0.8*20
$GPGSV,3,1,11,02,58,088,24,06,24,045,17,12,60,014,21,19,09,049,14*7F
$GPGSV,3,2,11,24,56,181,24,25,40,317,16,29,32,251,26,32,08,292,15*7E
$GPGSV,3,3,11,05,03,136,,14,12,293,,15,00,192,*4B
$GLGSV,2,1,07,74,33,136,21,86,54,241,20,75,80,039,13,85,58,011,19*65
$GLGSV,2,2,07,76,28,330,,84,10,032,,87,02,222,*5A
$GPGGA,154344.0,3205.416853,N,03458.676839,E,1,08,1.1,90.5,M,19.0,M,,*65
$GPVTG,231.3,T,228.3,M,4.2,N,7.9,K,A*23
$GPRMC,154344.0,A,3205.416853,N,03458.676839,E,4.2,231.3,120416,3.0,E,A*06
$GPGSA,A,2,02,06,12,19,24,25,29,32,,,,,1.4,1.1,0.8*3A
$GNGSA,A,2,02,06,12,19,24,25,29,32,,,,,1.4,1.1,0.8*24
$GNGSA,A,2,,,,,,,,,,,,,1.4,1.1,0.8*20
$GPGSV,3,1,11,02,58,088,22,06,24,045,17,12,60,014,23,19,09,049,14*7B
$GPGSV,3,2,11,24,56,181,26,25,40,317,17,29,32,251,25,32,08,292,15*7E
$GPGSV,3,3,11,05,03,136,,14,12,293,,15,00,192,*4B
$GLGSV,2,1,07,74,33,136,22,86,54,241,20,75,80,039,13,85,58,011,20*6C
$GLGSV,2,2,07,76,28,330,,84,10,032,,87,02,222,*5A
$GPGGA,154345.0,3205.416160,N,03458.676883,E,1,08,1.1,91.0,M,19.0,M,,*68
$GPVTG,231.3,T,228.3,M,3.5,N,6.5,K,A*2E
$GPRMC,154345.0,A,3205.416160,N,03458.676883,E,3.5,231.3,120416,3.0,E,A*0F
$GPGSA,A,2,02,06,12,19,24,25,29,32,,,,,1.4,1.1,0.8*3A
$GNGSA,A,2,02,06,12,19,24,25,29,32,,,,,1.4,1.1,0.8*24
$GNGSA,A,2,,,,,,,,,,,,,1.4,1.1,0.8*20
$GPGSV,3,1,11,02,58,088,20,06,24,045,19,12,60,014,21,19,09,049,14*75
$GPGSV,3,2,11,24,56,181,26,25,40,317,20,29,32,251,26,32,08,292,14*78
$GPGSV,3,3,11,05,03,136,,14,12,293,,15,00,192,*4B
$GLGSV,2,1,07,74,33,136,22,86,54,241,20,75,80,039,13,85,58,011,20*6C
$GLGSV,2,2,07,76,28,330,,84,10,032,,87,02,222,*5A
$GPGGA,154346.0,3205.414414,N,03458.675108,E,1,08,1.1,92.0,M,19.0,M,,*65
$GPVTG,224.3,T,221.4,M,4.0,N,7.4,K,A*26
$GPRMC,154346.0,A,3205.414414,N,03458.675108,E,4.0,224.3,120416,3.0,E,A*07
$GPGSA,A,2,02,06,12,19,24,25,29,32,,,,,1.4,1.1,0.8*3A
$GNGSA,A,2,02,06,12,19,24,25,29,32,,,,,1.4,1.1,0.8*24
$GNGSA,A,2,,,,,,,,,,,,,1.4,1.1,0.8*20
$GPGSV,3,1,11,02,58,088,20,06,24,045,21,12,60,014,18,19,09,049,14*74
$GPGSV,3,2,11,24,56,181,26,25,40,317,17,29,32,251,26,32,08,292,14*7C
$GPGSV,3,3,11,05,03,136,,14,12,293,,15,00,192,*4B
$GLGSV,2,1,07,74,33,136,23,86,54,241,20,75,80,039,13,85,58,011,20*6D
$GLGSV,2,2,07,76,28,330,,84,10,032,,87,02,222,*5A
$GPGGA,154347.0,3205.415495,N,03458.673824,E,1,08,1.1,90.6,M,19.0,M,,*69
$GPVTG,224.3,T,221.4,M,2.5,N,4.6,K,A*24
$GPRMC,154347.0,A,3205.415495,N,03458.673824,E,2.5,224.3,120416,3.0,E,A*0C
$GPGSA,A,2,02,06,12,19,24,25,29,32,,,,,1.4,1.1,0.8*3A
$GNGSA,A,2,02,06,12,19,24,25,29,32,,,,,1.4,1.1,0.8*24
$GNGSA,A,2,,,,,,,,,,,,,1.4,1.1,0.8*20
$GPGSV,3,1,11,02,58,088,21,06,24,045,21,12,60,014,19,19,09,049,14*74
$GPGSV,3,2,11,24,56,181,27,25,40,317,18,29,32,251,26,32,08,292,14*72
$GPGSV,3,3,11,05,03,136,,14,12,293,,15,00,192,*4B
$GLGSV,2,1,07,74,33,136,22,86,54,241,20,75,80,039,13,85,58,011,15*6A
$GLGSV,2,2,07,76,28,330,,84,10,032,,87,02,222,*5A
$GPGGA,154348.0,3205.414857,N,03458.673152,E,1,08,1.1,89.8,M,19.0,M,,*6B
$GPVTG,224.3,T,221.4,M,2.9,N,5.4,K,A*2B
$GPRMC,154348.0,A,3205.414857,N,03458.673152,E,2.9,224.3,120416,3.0,E,A*04
$GPGSA,A,2,02,06,12,19,24,25,29,32,,,,,1.4,1.1,0.8*3A
$GNGSA,A,2,02,06,12,19,24,25,29,32,,,,,1.4,1.1,0.8*24
$GNGSA,A,2,,,,,,,,,,,,,1.4,1.1,0.8*20
$GPGSV,3,1,11,02,58,088,21,06,24,045,21,12,60,014,20,19,09,049,14*7E
$GPGSV,3,2,11,24,56,181,24,25,40,317,21,29,32,251,28,32,08,292,14*75
$GPGSV,3,3,11,05,03,136,,14,12,293,,15,00,192,*4B
$GLGSV,2,1,07,74,33,136,22,86,54,241,20,75,80,039,13,85,58,011,15*6A
$GLGSV,2,2,07,76,28,330,,84,10,032,,87,02,222,*5A
$GPGGA,154349.0,3205.414089,N,03458.670487,E,1,08,1.1,88.2,M,19.0,M,,*64
$GPVTG,224.3,T,221.4,M,3.8,N,7.1,K,A*2C
$GPRMC,154349.0,A,3205.414089,N,03458.670487,E,3.8,224.3,120416,3.0,E,A*00
$GPGSA,A,2,02,06,12,19,24,25,29,32,,,,,1.4,1.1,0.8*3A
$GNGSA,A,2,02,06,12,19,24,25,29,32,,,,,1.4,1.1,0.8*24
$GNGSA,A,2,,,,,,,,,,,,,1.4,1.1,0.8*20
$GPGSV,3,1,11,02,58,088,21,06,24,045,21,12,60,014,23,19,09,049,14*7D
$GPGSV,3,2,11,24,56,181,24,25,40,317,19,29,32,251,23,32,08,292,14*75
$GPGSV,3,3,11,05,03,136,,14,12,293,,15,00,192,*4B
$GLGSV,2,1,07,74,33,136,22,86,54,241,12,75,80,039,13,85,58,011,18*66
$GLGSV,2,2,07,76,28,330,,84,10,032,,87,02,222,*5A
$GPGGA,154350.0,3205.414012,N,03458.669113,E,1,08,1.1,88.8,M,19.0,M,,*64
$GPVTG,224.3,T,221.4,M,3.3,N,6.1,K,A*26
$GPRMC,154350.0,A,3205.414012,N,03458.669113,E,3.3,224.3,120416,3.0,E,A*01
$GPGSA,A,2,02,06,12,19,24,25,29,32,,,,,1.4,1.1,0.8*3A
$GNGSA,A,2,02,06,12,19,24,25,29,32,,,,,1.4,1.1,0.8*24
$GNGSA,A,2,,,,,,,,,,,,,1.4,1.1,0.8*20
$GPGSV,3,1,11,02,58,088,20,06,24,045,15,12,60,014,26,19,09,049,14*7E
$GPGSV,3,2,11,24,56,181,25,25,40,317,20,29,32,251,17,32,08,292,14*79
$GPGSV,3,3,11,05,03,136,,14,12,293,,15,00,192,*4B
$GLGSV,2,1,07,74,33,136,27,86,54,241,24,75,80,040,12,85,58,011,22*60
$GLGSV,2,2,07,76,28,330,,84,10,032,,87,03,222,*5B
$GPGGA,154351.0,3205.415168,N,03458.667274,E,1,08,1.1,90.6,M,19.0,M,,*63
$GPVTG,224.3,T,221.4,M,3.4,N,6.3,K,A*23
$GPRMC,154351.0,A,3205.415168,N,03458.667274,E,3.4,224.3,120416,3.0,E,A*06
$GPGSA,A,2,02,06,12,19,24,25,29,32,,,,,1.4,1.1,0.8*3A
$GNGSA,A,2,02,06,12,19,24,25,29,32,,,,,1.4,1.1,0.8*24
$GNGSA,A,2,,,,,,,,,,,,,1.4,1.1,0.8*20
$GPGSV,3,1,11,02,58,088,23,06,24,045,15,12,60,014,25,19,09,049,14*7E
$GPGSV,3,2,11,24,56,181,24,25,40,317,18,29,32,251,23,32,08,292,14*74
$GPGSV,3,3,11,05,03,136,,14,12,293,,15,00,192,*4B
$GLGSV,2,1,07,74,33,136,24,86,54,241,19,75,80,040,12,85,58,011,21*6E
$GLGSV,2,2,07,76,28,330,,84,10,032,,87,03,222,*5B
$GPGGA,154352.0,3205.415410,N,03458.666046,E,1,08,1.1,90.0,M,19.0,M,,*6E
$GPVTG,224.3,T,221.4,M,3.8,N,7.0,K,A*2D
$GPRMC,154352.0,A,3205.415410,N,03458.666046,E,3.8,224.3,120416,3.0,E,A*01
$GPGSA,A,2,02,06,12,19,24,25,29,32,,,,,1.4,1.1,0.8*3A
$GNGSA,A,2,02,06,12,19,24,25,29,32,,,,,1.4,1.1,0.8*24
$GNGSA,A,2,,,,,,,,,,,,,1.4,1.1,0.8*20
$GPGSV,3,1,11,02,58,088,21,06,24,045,15,12,60,014,27,19,09,049,12*78
$GPGSV,3,2,11,24,56,181,26,25,40,317,18,29,32,251,22,32,08,292,15*76
$GPGSV,3,3,11,05,03,136,,14,12,293,,15,00,192,*4B
$GLGSV,2,1,07,74,33,136,23,86,54,241,18,75,80,040,12,85,58,011,17*6D
$GLGSV,2,2,07,76,28,330,,84,10,032,,87,03,222,*5B
$GPGGA,154353.0,3205.413954,N,03458.665217,E,1,08,1.1,90.2,M,19.0,M,,*63
$GPVTG,224.3,T,221.4,M,3.7,N,6.8,K,A*2B
$GPRMC,154353.0,A,3205.413954,N,03458.665217,E,3.7,224.3,120416,3.0,E,A*01
$GPGSA,A,2,02,06,12,19,24,25,29,32,,,,,1.4,1.1,0.8*3A
$GNGSA,A,2,02,06,12,19,24,25,29,32,,,,,1.4,1.1,0.8*24
$GNGSA,A,2,,,,,,,,,,,,,1.4,1.1,0.8*20
$GPGSV,3,1,11,02,58,088,20,06,24,045,15,12,60,014,23,19,09,049,12*7D
$GPGSV,3,2,11,24,56,181,25,25,40,317,18,29,32,251,18,32,08,292,18*71
$GPGSV,3,3,11,05,03,136,,14,12,293,,15,00,192,*4B
$GLGSV,2,1,07,74,33,136,21,86,54,241,18,75,80,040,12,85,58,011,20*6B
$GLGSV,2,2,07,76,28,330,,84,10,032,,87,03,222,*5B
$GPGGA,154354.0,3205.414004,N,03458.664545,E,1,08,1.1,89.0,M,19.0,M,,*64
$GPVTG,231.2,T,228.2,M,1.8,N,3.3,K,A*22
$GPRMC,154354.0,A,3205.414004,N,03458.664545,E,1.8,231.2,120416,3.0,E,A*04
$GPGSA,A,2,02,06,12,19,24,25,29,32,,,,,1.4,1.1,0.8*3A
$GNGSA,A,2,02,06,12,19,24,25,29,32,,,,,1.4,1.1,0.8*24
$GNGSA,A,2,,,,,,,,,,,,,1.4,1.1,0.8*20
$GPGSV,3,1,11,02,58,088,22,06,24,045,17,12,60,014,19,14,12,293,15*71
$GPGSV,3,2,11,19,09,049,12,24,56,181,27,25,40,317,20,29,32,251,23*76
$GPGSV,3,3,11,32,08,292,18,05,03,136,,15,00,192,*4C
$GLGSV,2,1,07,74,33,136,23,86,54,241,18,75,80,040,12,85,58,011,20*69
$GLGSV,2,2,07,76,28,330,,84,10,032,,87,03,222,*5B
$GPGGA,154355.0,3205.414436,N,03458.664184,E,1,08,1.1,89.3,M,19.0,M,,*6A
$GPVTG,231.2,T,228.2,M,1.9,N,3.6,K,A*26
$GPRMC,154355.0,A,3205.414436,N,03458.664184,E,1.9,231.2,120416,3.0,E,A*08
$GPGSA,A,2,02,06,12,19,24,25,29,32,,,,,1.4,1.1,0.8*3A
$GNGSA,A,2,02,06,12,19,24,25,29,32,,,,,1.4,1.1,0.8*24
$GNGSA,A,2,,,,,,,,,,,,,1.4,1.1,0.8*20
$GPGSV,3,1,11,02,58,088,18,06,24,045,19,12,60,014,22,14,12,293,16*7D
$GPGSV,3,2,11,19,09,049,15,24,56,181,27,25,40,317,18,29,32,251,23*7A
$GPGSV,3,3,11,32,08,292,18,05,03,136,,15,00,192,*4C
$GLGSV,2,1,07,74,33,136,22,86,54,241,18,75,80,040,12,85,58,011,20*68
$GLGSV,2,2,07,76,28,330,,84,10,032,,87,03,222,*5B
$GPGGA,154356.0,3205.413205,N,03458.664021,E,1,08,1.1,89.4,M,19.0,M,,*61
$GPVTG,231.2,T,228.2,M,2.2,N,4.1,K,A*2E
$GPRMC,154356.0,A,3205.413205,N,03458.664021,E,2.2,231.2,120416,3.0,E,A*0C
$GPGSA,A,2,02,06,12,19,24,25,29,32,,,,,1.4,1.1,0.8*3A
$GNGSA,A,2,02,06,12,19,24,25,29,32,,,,,1.4,1.1,0.8*24
$GNGSA,A,2,,,,,,,,,,,,,1.4,1.1,0.8*20
$GPGSV,3,1,11,02,58,088,20,06,24,045,19,12,60,014,23,14,12,293,15*74
$GPGSV,3,2,11,19,09,049,15,24,56,181,26,25,40,317,22,29,32,251,24*75
$GPGSV,3,3,11,32,08,292,18,05,03,136,,15,00,192,*4C
$GLGSV,2,1,07,74,33,136,22,86,54,241,12,75,80,040,12,85,58,011,13*62
$GLGSV,2,2,07,76,28,330,,84,10,032,,87,03,222,*5B
$GPGGA,154357.0,3205.411811,N,03458.663172,E,1,08,1.1,89.2,M,19.0,M,,*6B
$GPVTG,231.2,T,228.2,M,2.8,N,5.1,K,A*25
$GPRMC,154357.0,A,3205.411811,N,03458.663172,E,2.8,231.2,120416,3.0,E,A*0A
$GPGSA,A,2,02,06,12,19,24,25,29,32,,,,,1.4,1.1,0.8*3A
$GNGSA,A,2,02,06,12,19,24,25,29,32,,,,,1.4,1.1,0.8*24
$GNGSA,A,2,,,,,,,,,,,,,1.4,1.1,0.8*20
$GPGSV,3,1,11,02,58,088,21,06,24,045,19,12,60,014,24,14,12,293,15*72
$GPGSV,3,2,11,19,09,049,15,24,56,181,28,25,40,317,20,29,32,251,24*79
$GPGSV,3,3,11,32,08,292,18,05,03,136,,15,00,192,*4C
$GLGSV,2,1,07,74,33,136,22,86,54,241,12,75,80,040,12,85,58,011,18*69
$GLGSV,2,2,07,76,28,330,,84,10,032,,87,03,222,*5B
$GPGGA,154358.0,3205.409953,N,03458.661809,E,1,08,1.1,88.9,M,19.0,M,,*67
$GPVTG,231.2,T,228.2,M,3.8,N,7.1,K,A*26
$GPRMC,154358.0,A,3205.409953,N,03458.661809,E,3.8,231.2,120416,3.0,E,A*0D
$GPGSA,A,2,02,06,12,19,24,25,29,32,,,,,1.4,1.1,0.8*3A
$GNGSA,A,2,02,06,12,19,24,25,29,32,,,,,1.4,1.1,0.8*24
$GNGSA,A,2,,,,,,,,,,,,,1.4,1.1,0.8*20
$GPGSV,3,1,11,02,58,088,22,06,24,045,15,12,60,014,22,14,12,293,14*7A
$GPGSV,3,2,11,19,09,049,15,24,56,181,27,25,40,317,22,29,32,251,25*75
$GPGSV,3,3,11,32,08,292,14,05,03,136,,15,00,192,*40
$GLGSV,2,1,07,74,33,136,24,86,54,241,12,75,80,040,12,85,58,011,18*6F
$GLGSV,2,2,07,76,28,330,,84,10,032,,87,03,222,*5B
$GPGGA,154359.0,3205.412238,N,03458.658781,E,1,08,1.1,89.0,M,19.0,M,,*67
$GPVTG,231.2,T,228.2,M,3.6,N,6.7,K,A*2F
$GPRMC,154359.0,A,3205.412238,N,03458.658781,E,3.6,231.2,120416,3.0,E,A*0B
$GPGSA,A,2,02,06,12,19,24,25,29,32,,,,,1.4,1.1,0.8*3A
$GNGSA,A,2,02,06,12,19,24,25,29,32,,,,,1.4,1.1,0.8*24
$GNGSA,A,2,,,,,,,,,,,,,1.4,1.1,0.8*20
$GPGSV,3,1,11,02,58,088,21,06,24,045,19,12,60,014,23,14,12,293,14*74
$GPGSV,3,2,11,19,09,049,15,24,56,181,27,25,40,317,25,29,32,251,23*74
$GPGSV,3,3,11,32,08,292,14,05,03,136,,15,00,192,*40
$GLGSV,2,1,07,74,33,136,23,86,54,241,12,75,80,040,12,85,58,011,18*68
$GLGSV,2,2,07,76,28,330,,84,10,032,,87,03,222,*5B
$GPGGA,154400.0,3205.412647,N,03458.657969,E,1,08,1.1,90.6,M,19.0,M,,*69
$GPVTG,231.2,T,228.2,M,3.3,N,6.1,K,A*2C
$GPRMC,154400.0,A,3205.412647,N,03458.657969,E,3.3,231.2,120416,3.0,E,A*0E
$GPGSA,A,2,02,06,12,19,24,25,29,32,,,,,1.4,1.1,0.8*3A
$GNGSA,A,2,02,06,12,19,24,25,29,32,,,,,1.4,1.1,0.8*24
$GNGSA,A,2,,,,,,,,,,,,,1.4,1.1,0.8*20
$GPGSV,3,1,11,02,58,088,22,06,24,045,19,12,60,014,26,14,12,293,14*72
$GPGSV,3,2,11,19,09,049,15,24,56,181,26,25,40,317,25,29,32,251,24*72
$GPGSV,3,3,11,32,08,292,14,05,03,136,,15,00,192,*40
$GLGSV,2,1,07,74,33,136,24,86,54,241,13,75,80,040,12,85,58,011,15*63
$GLGSV,2,2,07,76,28,330,,84,10,032,,87,03,222,*5B
$GPGGA,154401.0,3205.411747,N,03458.657434,E,1,08,1.1,90.1,M,19.0,M,,*68
$GPVTG,231.2,T,228.2,M,3.0,N,5.6,K,A*2B
$GPRMC,154401.0,A,3205.411747,N,03458.657434,E,3.0,231.2,120416,3.0,E,A*0B
$GPGSA,A,2,02,06,12,19,24,25,29,32,,,,,1.4,1.1,0.8*3A
$GNGSA,A,2,02,06,12,19,24,25,29,32,,,,,1.4,1.1,0.8*24
$GNGSA,A,2,,,,,,,,,,,,,1.4,1.1,0.8*20
$GPGSV,3,1,11,02,58,088,21,06,24,045,18,12,60,014,24,14,12,293,13*75
$GPGSV,3,2,11,19,09,049,12,24,56,181,27,25,40,317,17,29,32,251,22*73
$GPGSV,3,3,11,32,08,292,14,05,03,136,,15,00,192,*40
$GLGSV,2,1,07,74,33,136,23,86,54,241,13,75,80,040,12,85,58,011,17*66
$GLGSV,2,2,07,76,28,330,,84,10,032,,87,03,222,*5B
$GPGGA,154402.0,3205.410899,N,03458.655473,E,1,08,1.1,90.4,M,19.0,M,,*62
$GPVTG,231.2,T,228.2,M,3.7,N,6.9,K,A*20
$GPRMC,154402.0,A,3205.410899,N,03458.655473,E,3.7,231.2,120416,3.0,E,A*03
$GPGSA,A,2,02,06,12,19,24,25,29,32,,,,,1.4,1.1,0.8*3A
$GNGSA,A,2,02,06,12,19,24,25,29,32,,,,,1.4,1.1,0.8*24
$GNGSA,A,2,,,,,,,,,,,,,1.4,1.1,0.8*20
$GPGSV,3,1,11,02,58,088,20,06,24,045,21,12,60,014,23,14,12,293,13*79
$GPGSV,3,2,11,19,09,049,12,24,56,181,27,25,40,317,20,29,32,251,23*76
$GPGSV,3,3,11,32,08,292,14,05,03,136,,15,00,192,*40
$GLGSV,2,1,07,74,33,136,21,86,54,241,13,75,80,040,12,85,58,011,21*61
$GLGSV,2,2,07,76,28,330,,84,10,032,,87,03,222,*5B
$GPGGA,154403.0,3205.408728,N,03458.654891,E,1,08,1.1,92.1,M,19.0,M,,*69
$GPVTG,231.2,T,228.2,M,3.4,N,6.3,K,A*29
$GPRMC,154403.0,A,3205.408728,N,03458.654891,E,3.4,231.2,120416,3.0,E,A*0C
$GPGSA,A,2,02,06,12,19,24,25,29,32,,,,,1.4,1.1,0.8*3A
$GNGSA,A,2,02,06,12,19,24,25,29,32,,,,,1.4,1.1,0.8*24
$GNGSA,A,2,,,,,,,,,,,,,1.4,1.1,0.8*20
$GPGSV,3,1,11,02,58,088,19,06,24,045,18,12,60,014,24,14,12,293,13*7E
$GPGSV,3,2,11,19,09,049,12,24,56,181,28,25,40,317,22,29,32,251,21*79
$GPGSV,3,3,11,32,08,292,14,05,03,136,,15,00,192,*40
$GLGSV,2,1,07,74,33,136,23,86,54,241,13,75,80,040,12,85,58,011,17*66
$GLGSV,2,2,07,76,28,330,,84,10,032,,87,03,222,*5B
$GPGGA,154404.0,3205.407904,N,03458.653572,E,1,08,1.1,93.5,M,19.0,M,,*63
$GPVTG,231.2,T,228.2,M,3.6,N,6.7,K,A*2F
$GPRMC,154404.0,A,3205.407904,N,03458.653572,E,3.6,231.2,120416,3.0,E,A*01
$GPGSA,A,2,02,06,12,19,24,25,29,32,,,,,1.4,1.1,0.8*3A
$GNGSA,A,2,02,06,12,19,24,25,29,32,,,,,1.4,1.1,0.8*24
$GNGSA,A,2,,,,,,,,,,,,,1.4,1.1,0.8*20
$GPGSV,3,1,11,02,58,088,26,05,03,136,16,06,24,045,20,12,60,014,26*72
$GPGSV,3,2,11,14,12,293,13,19,09,049,14,24,56,181,27,25,40,317,20*71
$GPGSV,3,3,11,29,32,251,26,32,08,292,14,15,00,192,*4A
$GLGSV,2,1,07,74,33,136,24,86,54,241,13,75,80,040,12,85,58,011,21*64
$GLGSV,2,2,07,76,28,330,,84,10,032,,87,03,222,*5B
$GPGGA,154405.0,3205.408114,N,03458.651719,E,1,08,1.1,93.6,M,19.0,M,,*6A
$GPVTG,249.7,T,246.7,M,3.0,N,5.6,K,A*2C
$GPRMC,154405.0,A,3205.408114,N,03458.651719,E,3.0,249.7,120416,3.0,E,A*07
$GPGSA,A,2,02,06,12,19,24,25,29,32,,,,,1.4,1.1,0.8*3A
$GNGSA,A,2,02,06,12,19,24,25,29,32,,,,,1.4,1.1,0.8*24
$GNGSA,A,2,,,,,,,,,,,,,1.4,1.1,0.8*20
$GPGSV,3,1,11,02,58,088,23,05,03,136,16,06,24,045,21,12,60,014,24*74
$GPGSV,3,2,11,14,12,293,13,19,09,049,14,24,56,181,30,25,40,317,20*77
$GPGSV,3,3,11,29,32,253,24,32,08,292,14,15,00,192,*4A
$GLGSV,2,1,07,74,33,136,26,86,55,241,13,75,80,040,12,85,58,012,17*61
$GLGSV,2,2,07,76,28,330,,84,10,032,,87,03,222,*5B
$GPGGA,154406.0,3205.408301,N,03458.650258,E,1,07,1.2,93.9,M,19.0,M,,*6D
$GPVTG,249.7,T,246.7,M,3.0,N,5.5,K,A*2F
$GPRMC,154406.0,A,3205.408301,N,03458.650258,E,3.0,249.7,120416,3.0,E,A*03
$GPGSA,A,2,02,06,12,19,24,25,29,,,,,,1.5,1.2,0.9*38
$GNGSA,A,2,02,06,12,19,24,25,29,,,,,,1.5,1.2,0.9*26
$GNGSA,A,2,,,,,,,,,,,,,1.5,1.2,0.9*23
$GPGSV,3,1,11,02,58,088,25,05,03,136,16,06,24,045,21,12,60,014,23*75
$GPGSV,3,2,11,14,12,293,13,19,09,049,15,24,56,181,30,25,40,317,18*7D
$GPGSV,3,3,11,29,32,253,23,32,08,292,14,15,00,192,*4D
$GLGSV,2,1,07,74,33,136,25,86,55,241,13,75,80,040,12,85,58,012,19*6C
$GLGSV,2,2,07,76,28,330,,84,10,032,,87,03,222,*5B
$GPGGA,154407.0,3205.407945,N,03458.650576,E,1,07,1.2,93.7,M,19.0,M,,*6C
$GPVTG,249.7,T,246.7,M,2.3,N,4.2,K,A*2B
$GPRMC,154407.0,A,3205.407945,N,03458.650576,E,2.3,249.7,120416,3.0,E,A*0E
$GPGSA,A,2,02,06,12,19,24,25,29,,,,,,1.5,1.2,0.9*38
$GNGSA,A,2,02,06,12,19,24,25,29,,,,,,1.5,1.2,0.9*26
$GNGSA,A,2,,,,,,,,,,,,,1.5,1.2,0.9*23
$GPGSV,3,1,11,02,58,088,22,05,03,136,15,06,24,045,19,12,60,014,24*7D
$GPGSV,3,2,11,14,12,293,13,19,09,049,20,24,56,181,26,25,40,317,18*7C
$GPGSV,3,3,11,29,32,253,18,32,08,292,14,15,00,192,*45
$GLGSV,2,1,07,74,33,136,24,86,55,241,17,75,80,040,12,85,58,012,21*62
$GLGSV,2,2,07,76,28,330,,84,10,032,,87,03,222,*5B
$GPGGA,154408.0,3205.408127,N,03458.650070,E,1,07,1.2,93.2,M,19.0,M,,*66
$GPVTG,249.7,T,246.7,M,2.3,N,4.2,K,A*2B
$GPRMC,154408.0,A,3205.408127,N,03458.650070,E,2.3,249.7,120416,3.0,E,A*01
$GPGSA,A,2,02,06,12,19,24,25,29,,,,,,1.5,1.2,0.9*38
$GNGSA,A,2,02,06,12,19,24,25,29,,,,,,1.5,1.2,0.9*26
$GNGSA,A,2,,,,,,,,,,,,,1.5,1.2,0.9*23
$GPGSV,3,1,11,02,58,088,22,05,03,136,14,06,24,045,18,12,60,014,26*7F
$GPGSV,3,2,11,14,12,293,13,19,09,049,18,24,56,181,26,25,40,317,20*7C
$GPGSV,3,3,11,29,32,253,23,32,08,292,14,15,00,192,*4D
$GLGSV,2,1,07,74,33,136,22,86,55,241,17,75,80,040,12,85,58,012,21*64
$GLGSV,2,2,07,76,28,330,,84,10,032,,87,03,222,*5B
$GPGGA,154409.0,3205.406905,N,03458.650291,E,1,07,1.2,93.5,M,19.0,M,,*6B
$GPVTG,214.5,T,211.6,M,1.5,N,2.7,K,A*24
$GPRMC,154409.0,A,3205.406905,N,03458.650291,E,1.5,214.5,120416,3.0,E,A*04
$GPGSA,A,2,02,06,12,19,24,25,29,,,,,,1.5,1.2,0.9*38
$GNGSA,A,2,02,06,12,19,24,25,29,,,,,,1.5,1.2,0.9*26
$GNGSA,A,2,,,,,,,,,,,,,1.5,1.2,0.9*23
$GPGSV,3,1,11,02,58,087,23,05,03,136,14,06,24,045,18,12,60,014,22*75
$GPGSV,3,2,11,14,12,292,13,19,09,049,18,24,56,181,27,25,40,317,20*7C
$GPGSV,3,3,11,29,32,253,23,32,08,292,14,15,00,192,*4D
$GLGSV,2,1,07,74,33,136,19,86,55,241,17,75,80,040,12,85,58,012,19*67
$GLGSV,2,2,07,76,28,330,,84,10,032,,87,03,222,*5B
$GPGGA,154410.0,3205.406518,N,03458.650669,E,1,07,1.2,93.1,M,19.0,M,,*64
$GPVTG,214.5,T,211.6,M,1.3,N,2.5,K,A*20
$GPRMC,154410.0,A,3205.406518,N,03458.650669,E,1.3,214.5,120416,3.0,E,A*09
$GPGSA,A,2,02,06,12,19,24,25,29,,,,,,1.5,1.2,0.9*38
$GNGSA,A,2,02,06,12,19,24,25,29,,,,,,1.5,1.2,0.9*26
$GNGSA,A,2,,,,,,,,,,,,,1.5,1.2,0.9*23
$GPGSV,3,1,11,02,58,087,23,05,03,136,14,06,24,045,17,12,60,014,22*7A
$GPGSV,3,2,11,14,12,292,13,19,09,049,16,24,56,181,27,25,40,317,18*79
$GPGSV,3,3,11,29,32,253,22,32,08,292,14,15,00,192,*4C
$GLGSV,2,1,07,74,33,136,19,86,55,241,17,75,80,040,12,85,58,012,19*67
$GLGSV,2,2,07,76,28,330,,84,10,032,,87,03,222,*5B
$GPGGA,154411.0,3205.406513,N,03458.650100,E,1,07,1.2,92.7,M,19.0,M,,*61
$GPVTG,214.5,T,211.6,M,1.3,N,2.4,K,A*21
$GPRMC,154411.0,A,3205.406513,N,03458.650100,E,1.3,214.5,120416,3.0,E,A*0B
$GPGSA,A,2,02,06,12,19,24,25,29,,,,,,1.5,1.2,0.9*38
$GNGSA,A,2,02,06,12,19,24,25,29,,,,,,1.5,1.2,0.9*26
$GNGSA,A,2,,,,,,,,,,,,,1.5,1.2,0.9*23
$GPGSV,3,1,11,02,58,087,24,05,03,136,13,06,24,045,17,12,60,014,24*7C
$GPGSV,3,2,11,14,12,292,13,19,09,049,16,24,56,181,25,25,40,317,18*7B
$GPGSV,3,3,11,29,32,253,18,32,08,292,14,15,00,192,*45
$GLGSV,2,1,07,74,33,136,19,86,55,241,17,75,80,040,12,85,58,012,21*6C
$GLGSV,2,2,07,76,28,330,,84,10,032,,87,03,222,*5B
$GPGGA,154412.0,3205.406948,N,03458.648982,E,1,07,1.2,95.0,M,19.0,M,,*6B
$GPVTG,257.9,T,254.9,M,2.5,N,4.6,K,A*25
$GPRMC,154412.0,A,3205.406948,N,03458.648982,E,2.5,257.9,120416,3.0,E,A*0F
$GPGSA,A,2,02,06,12,19,24,25,29,,,,,,1.5,1.2,0.9*38
$GNGSA,A,2,02,06,12,19,24,25,29,,,,,,1.5,1.2,0.9*26
$GNGSA,A,2,,,,,,,,,,,,,1.5,1.2,0.9*23
$GPGSV,3,1,11,02,58,087,23,05,03,136,13,06,24,045,17,12,60,014,24*7B
$GPGSV,3,2,11,14,12,292,13,19,09,049,17,24,56,181,27,25,40,317,18*78
$GPGSV,3,3,11,29,32,253,17,32,08,292,14,15,00,192,*4A
$GLGSV,2,1,07,74,33,136,20,86,55,241,12,75,80,040,12,85,58,012,20*62
$GLGSV,2,2,07,76,28,330,,84,10,032,,87,03,222,*5B
$GPGGA,154413.0,3205.406905,N,03458.647890,E,1,07,1.2,95.4,M,19.0,M,,*6A
$GPVTG,258.1,T,255.1,M,2.5,N,4.7,K,A*2A
$GPRMC,154413.0,A,3205.406905,N,03458.647890,E,2.5,258.1,120416,3.0,E,A*0D
$GPGSA,A,2,02,06,12,19,24,25,29,,,,,,1.5,1.2,0.9*38
$GNGSA,A,2,02,06,12,19,24,25,29,,,,,,1.5,1.2,0.9*26
$GNGSA,A,2,,,,,,,,,,,,,1.5,1.2,0.9*23
$GPGSV,3,1,11,02,58,087,21,05,03,136,13,06,24,045,18,12,60,014,25*77
$GPGSV,3,2,11,14,12,292,13,19,09,049,17,24,56,181,26,25,40,317,18*79
$GPGSV,3,3,11,29,32,253,19,32,08,292,14,15,00,192,*44
$GLGSV,2,1,07,74,33,136,24,86,55,241,12,75,80,040,15,85,58,012,19*6B
$GLGSV,2,2,07,76,28,330,,84,10,032,,87,03,222,*5B
$GPGGA,154414.0,3205.406269,N,03458.646911,E,1,07,1.2,96.0,M,19.0,M,,*62
$GPVTG,254.3,T,251.3,M,2.7,N,5.0,K,A*26
$GPRMC,154414.0,A,3205.406269,N,03458.646911,E,2.7,254.3,120416,3.0,E,A*0E
$GPGSA,A,2,02,06,12,19,24,25,29,,,,,,1.5,1.2,0.9*38
$GNGSA,A,2,02,06,12,19,24,25,29,,,,,,1.5,1.2,0.9*26
$GNGSA,A,2,,,,,,,,,,,,,1.5,1.2,0.9*23
$GPGSV,3,1,11,02,58,087,25,05,03,136,12,06,24,045,19,12,60,014,21*77
$GPGSV,3,2,11,14,12,292,13,19,09,049,20,24,56,181,27,25,40,317,17*73
$GPGSV,3,3,11,29,32,253,21,32,08,292,14,15,00,192,*4F
$GLGSV,2,1,07,74,33,136,23,86,55,241,16,75,80,040,15,85,58,012,19*68
$GLGSV,2,2,07,76,28,330,,84,10,032,,87,03,222,*5B
$GPGGA,154415.0,3205.406797,N,03458.646244,E,1,07,1.2,96.9,M,19.0,M,,*65
$GPVTG,254.3,T,251.3,M,2.5,N,4.7,K,A*22
$GPRMC,154415.0,A,3205.406797,N,03458.646244,E,2.5,254.3,120416,3.0,E,A*02
$GPGSA,A,2,02,06,12,19,24,25,29,,,,,,1.5,1.2,0.9*38
$GNGSA,A,2,02,06,12,19,24,25,29,,,,,,1.5,1.2,0.9*26
$GNGSA,A,2,,,,,,,,,,,,,1.5,1.2,0.9*23
$GPGSV,3,1,11,02,58,087,23,05,03,136,12,06,24,045,18,12,60,014,22*73
$GPGSV,3,2,11,14,12,292,13,19,09,049,17,24,56,181,25,25,40,317,17*75
$GPGSV,3,3,11,29,32,253,20,32,08,292,14,15,00,192,*4E
$GLGSV,2,1,07,74,33,136,21,86,55,241,16,75,80,040,15,85,58,012,19*6A
$GLGSV,2,2,07,76,28,330,,84,10,032,,87,03,222,*5B
$GPGGA,154416.0,3205.405606,N,03458.644460,E,1,07,1.2,95.6,M,19.0,M,,*62
$GPVTG,254.4,T,251.4,M,2.4,N,4.4,K,A*20
$GPRMC,154416.0,A,3205.405606,N,03458.644460,E,2.4,254.4,120416,3.0,E,A*0F
$GPGSA,A,2,02,06,12,19,24,25,29,,,,,,1.5,1.2,0.9*38
$GNGSA,A,2,02,06,12,19,24,25,29,,,,,,1.5,1.2,0.9*26
$GNGSA,A,2,,,,,,,,,,,,,1.5,1.2,0.9*23
$GPGSV,3,1,11,02,58,087,24,05,03,136,12,06,24,045,21,12,60,014,22*7E
$GPGSV,3,2,11,14,12,292,13,19,09,049,17,24,56,181,26,25,40,317,19*78
$GPGSV,3,3,11,29,32,253,20,32,08,292,14,15,00,192,*4E
$GLGSV,2,1,07,74,33,136,24,86,55,241,16,75,80,040,15,85,58,012,20*65
$GLGSV,2,2,07,76,28,330,,84,10,032,,87,03,222,*5B
$GPGGA,154417.0,3205.406491,N,03458.642000,E,1,07,1.2,94.8,M,19.0,M,,*67
$GPVTG,263.8,T,260.9,M,2.8,N,5.2,K,A*2C
$GPRMC,154417.0,A,3205.406491,N,03458.642000,E,2.8,263.8,120416,3.0,E,A*01
$GPGSA,A,2,02,06,12,19,24,25,29,,,,,,1.5,1.2,0.9*38
$GNGSA,A,2,02,06,12,19,24,25,29,,,,,,1.5,1.2,0.9*26
$GNGSA,A,2,,,,,,,,,,,,,1.5,1.2,0.9*23
$GPGSV,3,1,11,02,58,087,23,05,03,136,12,06,24,045,20,12,60,014,27*7D
$GPGSV,3,2,11,14,12,292,13,19,09,049,19,24,56,181,24,25,40,317,18*75
$GPGSV,3,3,11,29,32,253,17,32,08,292,14,15,00,192,*4A
$GLGSV,2,1,07,74,33,136,25,86,55,241,16,75,80,040,15,85,58,012,24*60
$GLGSV,2,2,07,76,28,330,,84,10,032,,87,03,222,*5B
$GPGGA,154418.0,3205.405644,N,03458.639816,E,1,07,1.2,95.6,M,19.0,M,,*6D
$GPVTG,251.8,T,248.8,M,3.8,N,7.0,K,A*27
$GPRMC,154418.0,A,3205.405644,N,03458.639816,E,3.8,251.8,120416,3.0,E,A*04
$GPGSA,A,2,02,06,12,19,24,25,29,,,,,,1.5,1.2,0.9*38
$GNGSA,A,2,02,06,12,19,24,25,29,,,,,,1.5,1.2,0.9*26
$GNGSA,A,2,,,,,,,,,,,,,1.5,1.2,0.9*23
$GPGSV,3,1,11,02,58,087,21,05,03,136,12,06,24,045,21,12,60,014,22*7B
$GPGSV,3,2,11,14,12,292,13,19,09,049,22,24,56,181,28,25,40,317,18*71
$GPGSV,3,3,11,29,32,253,21,32,08,292,14,15,00,192,*4F
$GLGSV,2,1,07,74,33,136,25,86,55,241,16,75,80,040,15,85,58,012,20*64
$GLGSV,2,2,07,76,28,330,,84,10,032,,87,03,222,*5B
$GPGGA,154419.0,3205.404839,N,03458.638337,E,1,07,1.2,97.5,M,19.0,M,,*61
$GPVTG,249.7,T,246.7,M,3.9,N,7.2,K,A*23
$GPRMC,154419.0,A,3205.404839,N,03458.638337,E,3.9,249.7,120416,3.0,E,A*0E
$GPGSA,A,2,02,06,12,19,24,25,29,,,,,,1.5,1.2,0.9*38
$GNGSA,A,2,02,06,12,19,24,25,29,,,,,,1.5,1.2,0.9*26
$GNGSA,A,2,,,,,,,,,,,,,1.5,1.2,0.9*23
$GPGSV,3,1,11,02,58,087,25,05,03,136,12,06,24,045,18,12,60,014,20*77
$GPGSV,3,2,11,14,12,292,13,19,09,049,19,24,56,181,23,25,40,317,18*72
$GPGSV,3,3,11,29,32,253,23,32,08,292,14,15,00,192,*4D
$GLGSV,2,1,07,74,33,136,21,86,55,241,15,75,80,040,15,85,58,012,17*67
$GLGSV,2,2,07,76,28,330,,84,10,032,,87,03,222,*5B
$GPGGA,154420.0,3205.403051,N,03458.639405,E,1,07,1.2,98.1,M,19.0,M,,*66
$GPVTG,208.5,T,205.6,M,2.6,N,4.9,K,A*24
$GPRMC,154420.0,A,3205.403051,N,03458.639405,E,2.6,208.5,120416,3.0,E,A*0B
$GPGSA,A,2,02,06,12,19,24,25,29,,,,,,1.5,1.2,0.9*38
$GNGSA,A,2,02,06,12,19,24,25,29,,,,,,1.5,1.2,0.9*26
$GNGSA,A,2,,,,,,,,,,,,,1.5,1.2,0.9*23
$GPGSV,3,1,11,02,58,087,23,05,03,136,12,06,24,045,16,12,60,014,20*7F
$GPGSV,3,2,11,14,12,292,15,19,09,049,16,24,56,181,23,25,40,317,16*75
$GPGSV,3,3,11,29,32,253,25,32,08,292,14,15,00,192,*4B
$GLGSV,2,1,07,74,33,136,17,86,55,241,18,75,80,040,14,85,58,012,17*6E
$GLGSV,2,2,07,76,28,330,,84,10,032,,87,03,222,*5B
$GPGGA,154421.0,3205.402556,N,03458.639512,E,1,07,1.2,97.8,M,19.0,M,,*65
$GPVTG,222.5,T,219.5,M,2.4,N,4.4,K,A*2D
$GPRMC,154421.0,A,3205.402556,N,03458.639512,E,2.4,222.5,120416,3.0,E,A*04
$GPGSA,A,2,02,06,12,19,24,25,29,,,,,,1.5,1.2,0.9*38
$GNGSA,A,2,02,06,12,19,24,25,29,,,,,,1.5,1.2,0.9*26
$GNGSA,A,2,,,,,,,,,,,,,1.5,1.2,0.9*23
$GPGSV,3,1,11,02,58,087,20,05,03,136,12,06,24,045,18,12,60,014,17*76
$GPGSV,3,2,11,14,12,292,15,19,09,049,16,24,56,181,21,25,40,317,27*75
$GPGSV,3,3,11,29,32,253,22,15,00,192,,32,08,292,*49
$GLGSV,2,1,07,74,33,136,18,86,55,241,19,75,80,040,19,85,58,012,17*6D
$GLGSV,2,2,07,76,28,330,,84,10,032,,87,03,222,*5B
$GPGGA,154422.0,3205.404568,N,03458.635402,E,1,07,1.2,97.7,M,19.0,M,,*6E
$GPVTG,249.9,T,246.9,M,2.4,N,4.5,K,A*2B
$GPRMC,154422.0,A,3205.404568,N,03458.635402,E,2.4,249.9,120416,3.0,E,A*01
$GPGSA,A,2,02,06,12,19,24,25,29,,,,,,1.5,1.2,0.9*38
$GNGSA,A,2,02,06,12,19,24,25,29,,,,,,1.5,1.2,0.9*26
$GNGSA,A,2,,,,,,,,,,,,,1.5,1.2,0.9*23
$GPGSV,3,1,11,02,58,087,20,05,03,136,12,06,24,045,23,12,60,014,22*78
$GPGSV,3,2,11,14,12,292,16,19,09,049,15,24,56,181,25,25,40,317,27*71
$GPGSV,3,3,11,29,32,253,24,15,00,192,,32,08,292,*4F
$GLGSV,2,1,07,74,33,136,20,86,55,241,20,75,80,040,19,85,58,012,22*6A
$GLGSV,2,2,07,76,28,330,,84,10,032,,87,03,222,*5B
$GPGGA,154423.0,3205.404189,N,03458.635465,E,1,07,1.2,98.5,M,19.0,M,,*68
$GPVTG,249.9,T,246.9,M,2.1,N,4.0,K,A*2B
$GPRMC,154423.0,A,3205.404189,N,03458.635465,E,2.1,249.9,120416,3.0,E,A*0F
$GPGSA,A,2,02,06,12,19,24,25,29,,,,,,1.5,1.2,0.9*38
$GNGSA,A,2,02,06,12,19,24,25,29,,,,,,1.5,1.2,0.9*26
$GNGSA,A,2,,,,,,,,,,,,,1.5,1.2,0.9*23
$GPGSV,3,1,11,02,58,087,21,05,03,136,12,06,24,045,21,12,60,014,24*7D
$GPGSV,3,2,11,14,12,292,16,19,09,049,19,24,56,181,20,25,40,317,26*79
$GPGSV,3,3,11,29,32,253,23,15,00,192,,32,08,292,*48
$GLGSV,2,1,07,74,33,136,22,86,55,241,21,75,80,040,19,85,58,012,25*6E
$GLGSV,2,2,07,76,28,330,,84,10,032,,87,03,222,*5B
$GPGGA,154424.0,3205.405136,N,03458.633220,E,1,07,1.2,99.0,M,19.0,M,,*6F
$GPVTG,271.7,T,268.7,M,2.9,N,5.3,K,A*26
$GPRMC,154424.0,A,3205.405136,N,03458.633220,E,2.9,271.7,120416,3.0,E,A*01
$GPGSA,A,2,02,06,12,19,24,25,29,,,,,,1.5,1.2,0.9*38
$GNGSA,A,2,02,06,12,19,24,25,29,,,,,,1.5,1.2,0.9*26
$GNGSA,A,2,,,,,,,,,,,,,1.5,1.2,0.9*23
$GPGSV,3,1,11,02,58,087,21,05,03,136,12,06,24,045,22,12,60,015,26*7D
$GPGSV,3,2,11,14,12,292,16,19,09,049,21,24,56,181,20,25,40,319,24*7E
$GPGSV,3,3,11,29,33,253,22,15,,,,32,08,292,*72
$GLGSV,2,1,07,74,33,136,24,86,55,241,23,75,80,040,15,85,58,012,24*67
$GLGSV,2,2,07,76,28,330,,84,10,032,,87,03,222,*5B
$GPGGA,154425.0,3205.404754,N,03458.632459,E,1,07,1.2,98.8,M,19.0,M,,*6D
$GPVTG,277.5,T,274.5,M,2.9,N,5.3,K,A*2D
$GPRMC,154425.0,A,3205.404754,N,03458.632459,E,2.9,277.5,120416,3.0,E,A*0E
$GPGSA,A,2,02,06,12,19,24,25,29,,,,,,1.5,1.2,0.9*38
$GNGSA,A,2,02,06,12,19,24,25,29,,,,,,1.5,1.2,0.9*26
$GNGSA,A,2,,,,,,,,,,,,,1.5,1.2,0.9*23
$GPGSV,3,1,11,02,58,087,21,05,03,136,12,06,24,045,22,12,60,015,25*7E
$GPGSV,3,2,11,14,12,292,16,19,09,049,21,24,56,181,20,25,40,319,25*7F
$GPGSV,3,3,11,29,33,253,20,15,,,,32,08,292,*70
$GLGSV,2,1,07,74,33,136,21,86,55,241,20,75,80,040,21,85,58,012,27*65
$GLGSV,2,2,07,76,28,330,,84,10,032,,87,03,222,*5B
$GPGGA,154426.0,3205.406023,N,03458.630776,E,1,07,1.2,99.8,M,19.0,M,,*66
$GPVTG,282.6,T,279.7,M,3.4,N,6.3,K,A*24
$GPRMC,154426.0,A,3205.406023,N,03458.630776,E,3.4,282.6,120416,3.0,E,A*01
$GPGSA,A,2,02,06,12,19,24,25,29,,,,,,1.5,1.2,0.9*38
$GNGSA,A,2,02,06,12,19,24,25,29,,,,,,1.5,1.2,0.9*26
$GNGSA,A,2,,,,,,,,,,,,,1.5,1.2,0.9*23
$GPGSV,3,1,11,02,58,087,20,05,03,136,12,06,24,045,18,12,60,015,26*75
$GPGSV,3,2,11,14,12,292,15,19,09,049,16,24,56,181,21,25,40,319,22*7E
$GPGSV,3,3,11,29,33,253,22,15,,,,32,08,292,*72
$GLGSV,2,1,07,74,33,136,22,86,55,241,21,75,80,040,18,85,58,012,25*6F
$GLGSV,2,2,07,76,28,330,,84,10,032,,87,03,222,*5B
$GPGGA,154427.0,3205.405974,N,03458.629935,E,1,07,1.2,99.3,M,19.0,M,,*65
$GPVTG,280.6,T,277.6,M,2.6,N,4.7,K,A*2C
$GPRMC,154427.0,A,3205.405974,N,03458.629935,E,2.6,280.6,120416,3.0,E,A*08
$GPGSA,A,2,02,06,12,19,24,25,29,,,,,,1.5,1.2,0.9*38
$GNGSA,A,2,02,06,12,19,24,25,29,,,,,,1.5,1.2,0.9*26
$GNGSA,A,2,,,,,,,,,,,,,1.5,1.2,0.9*23
$GPGSV,3,1,11,02,58,087,23,05,03,136,12,06,24,045,18,12,60,015,22*72
$GPGSV,3,2,11,14,12,292,15,19,09,049,16,24,56,181,21,25,40,319,26*7A
$GPGSV,3,3,11,29,33,253,24,15,,,,32,08,292,*74
$GLGSV,2,1,07,74,33,136,24,86,55,241,26,75,80,040,22,85,58,012,20*62
$GLGSV,2,2,07,76,28,330,,84,10,032,,87,03,222,*5B
$GPGGA,154428.0,3205.405570,N,03458.629688,E,1,07,1.2,99.3,M,19.0,M,,*6B
$GPVTG,256.0,T,253.0,M,2.5,N,4.6,K,A*23
$GPRMC,154428.0,A,3205.405570,N,03458.629688,E,2.5,256.0,120416,3.0,E,A*08
$GPGSA,A,2,02,06,12,19,24,25,29,,,,,,1.5,1.2,0.9*38
$GNGSA,A,2,02,06,12,19,24,25,29,,,,,,1.5,1.2,0.9*26
$GNGSA,A,2,,,,,,,,,,,,,1.5,1.2,0.9*23
$GPGSV,3,1,11,02,58,087,23,05,03,136,12,06,24,045,16,12,60,015,27*79
$GPGSV,3,2,11,14,12,292,15,19,09,049,16,24,56,181,22,25,40,319,25*7A
$GPGSV,3,3,11,29,33,253,23,15,,,,32,08,292,*73
$GLGSV,2,1,07,74,33,136,23,86,55,241,24,75,80,040,22,85,58,012,25*62
$GLGSV,2,2,07,76,28,330,,84,10,032,,87,03,222,*5B
$GPGGA,154429.0,3205.406313,N,03458.628754,E,1,07,1.2,100.2,M,19.0,M,,*5B
$GPVTG,268.3,T,265.3,M,2.3,N,4.3,K,A*28
$GPRMC,154429.0,A,3205.406313,N,03458.628754,E,2.3,268.3,120416,3.0,E,A*00
$GPGSA,A,2,02,06,12,19,24,25,29,,,,,,1.5,1.2,0.9*38
$GNGSA,A,2,02,06,12,19,24,25,29,,,,,,1.5,1.2,0.9*26
$GNGSA,A,2,,,,,,,,,,,,,1.5,1.2,0.9*23
$GPGSV,3,1,11,02,58,087,19,05,03,136,12,06,24,045,24,12,60,015,24*72
$GPGSV,3,2,11,14,12,292,15,19,09,049,15,24,56,181,21,25,40,319,23*7C
$GPGSV,3,3,11,29,33,253,24,15,,,,32,08,292,*74
$GLGSV,2,1,07,74,33,136,22,86,55,241,24,75,80,040,22,85,58,012,24*62
$GLGSV,2,2,07,76,28,330,,84,10,032,,87,03,222,*5B
$GPGGA,154430.0,3205.405794,N,03458.627430,E,1,07,1.2,100.1,M,19.0,M,,*56
$GPVTG,258.8,T,255.8,M,2.3,N,4.3,K,A*28
$GPRMC,154430.0,A,3205.405794,N,03458.627430,E,2.3,258.8,120416,3.0,E,A*06
$GPGSA,A,2,02,06,12,19,24,25,29,,,,,,1.5,1.2,0.9*38
$GNGSA,A,2,02,06,12,19,24,25,29,,,,,,1.5,1.2,0.9*26
$GNGSA,A,2,,,,,,,,,,,,,1.5,1.2,0.9*23
$GPGSV,3,1,11,02,58,087,22,05,03,136,12,06,24,045,22,12,60,015,22*7A
$GPGSV,3,2,11,14,12,292,15,19,09,049,15,24,56,181,21,25,40,319,24*7B
$GPGSV,3,3,11,29,33,253,21,15,,,,32,08,292,*71
$GLGSV,2,1,07,74,33,136,18,86,55,241,21,75,80,040,17,85,58,012,22*6E
$GLGSV,2,2,07,76,28,330,,84,10,032,,87,03,222,*5B
$GPGGA,154431.0,3205.406673,N,03458.626081,E,1,07,1.2,100.8,M,19.0,M,,*5A
$GPVTG,278.0,T,275.0,M,2.5,N,4.7,K,A*2A
$GPRMC,154431.0,A,3205.406673,N,03458.626081,E,2.5,278.0,120416,3.0,E,A*0F
$GPGSA,A,2,02,06,12,19,24,25,29,,,,,,1.5,1.2,0.9*38
$GNGSA,A,2,02,06,12,19,24,25,29,,,,,,1.5,1.2,0.9*26
$GNGSA,A,2,,,,,,,,,,,,,1.5,1.2,0.9*23
$GPGSV,3,1,11,02,58,087,19,05,03,136,12,06,24,045,18,12,60,015,24*7D
$GPGSV,3,2,11,14,12,292,15,19,09,049,15,24,56,181,22,25,40,319,25*79
$GPGSV,3,3,11,29,33,253,24,15,,,,32,08,292,*74
$GLGSV,2,1,07,74,33,136,16,86,55,241,22,75,80,040,18,85,58,012,25*6B
$GLGSV,2,2,07,76,28,330,,84,10,032,,87,03,222,*5B
$GPGGA,154432.0,3205.407668,N,03458.625196,E,1,07,1.2,100.1,M,19.0,M,,*5F
$GPVTG,306.0,T,303.1,M,2.5,N,4.7,K,A*23
$GPRMC,154432.0,A,3205.407668,N,03458.625196,E,2.5,306.0,120416,3.0,E,A*0B
$GPGSA,A,2,02,06,12,19,24,25,29,,,,,,1.5,1.2,0.9*38
$GNGSA,A,2,02,06,12,19,24,25,29,,,,,,1.5,1.2,0.9*26
$GNGSA,A,2,,,,,,,,,,,,,1.5,1.2,0.9*23
$GPGSV,3,1,11,02,58,087,20,05,03,136,12,06,24,045,21,12,60,015,25*7C
$GPGSV,3,2,11,14,12,292,15,19,09,049,16,24,56,181,19,25,40,319,26*71
$GPGSV,3,3,11,29,33,253,24,15,,,,32,08,292,*74
$GLGSV,2,1,07,74,33,136,17,86,55,241,17,75,80,040,18,85,58,012,25*6C
$GLGSV,2,2,07,76,28,330,,84,10,032,,87,03,222,*5B
$GPGGA,154433.0,3205.407674,N,03458.624857,E,1,07,1.2,99.8,M,19.0,M,,*6E
$GPVTG,306.3,T,303.3,M,2.7,N,4.9,K,A*2E
$GPRMC,154433.0,A,3205.407674,N,03458.624857,E,2.7,306.3,120416,3.0,E,A*03
$GPGSA,A,2,02,06,12,19,24,25,29,,,,,,1.5,1.2,0.9*38
$GNGSA,A,2,02,06,12,19,24,25,29,,,,,,1.5,1.2,0.9*26
$GNGSA,A,2,,,,,,,,,,,,,1.5,1.2,0.9*23
$GPGSV,3,1,11,02,58,087,24,06,24,045,18,12,60,015,27,14,12,292,15*7A
$GPGSV,3,2,11,19,09,049,16,24,56,181,21,25,40,319,23,29,33,253,23*7A
$GPGSV,3,3,11,05,03,136,,15,,,,32,08,292,*7F
$GLGSV,2,1,07,74,33,136,22,86,55,241,22,75,80,040,21,85,58,012,27*64
$GLGSV,2,2,07,76,28,330,,84,10,032,,87,03,222,*5B
$GPGGA,154434.0,3205.408568,N,03458.624807,E,1,07,1.2,101.1,M,19.0,M,,*54
$GPVTG,340.1,T,337.2,M,2.2,N,4.0,K,A*24
$GPRMC,154434.0,A,3205.408568,N,03458.624807,E,2.2,340.1,120416,3.0,E,A*05
$GPGSA,A,2,02,06,12,19,24,25,29,,,,,,1.5,1.2,0.9*38
$GNGSA,A,2,02,06,12,19,24,25,29,,,,,,1.5,1.2,0.9*26
$GNGSA,A,2,,,,,,,,,,,,,1.5,1.2,0.9*23
$GPGSV,3,1,11,02,58,087,24,06,24,045,18,12,60,015,29,14,12,292,15*74
$GPGSV,3,2,11,19,09,049,16,24,56,181,22,25,40,319,23,29,33,253,23*79
$GPGSV,3,3,11,05,03,136,,15,,,,32,08,292,*7F
$GLGSV,2,1,07,74,33,136,23,86,55,241,22,75,80,040,23,85,58,012,28*68
$GLGSV,2,2,07,76,28,330,,84,10,032,,87,03,222,*5B
$GPGGA,154435.0,3205.408469,N,03458.624318,E,1,07,1.2,101.2,M,19.0,M,,*53
$GPVTG,340.1,T,337.2,M,2.0,N,3.8,K,A*29
$GPRMC,154435.0,A,3205.408469,N,03458.624318,E,2.0,340.1,120416,3.0,E,A*03
$GPGSA,A,2,02,06,12,19,24,25,29,,,,,,1.5,1.2,0.9*38
$GNGSA,A,2,02,06,12,19,24,25,29,,,,,,1.5,1.2,0.9*26
$GNGSA,A,2,,,,,,,,,,,,,1.5,1.2,0.9*23
$GPGSV,3,1,11,02,58,087,22,06,24,045,17,12,60,015,28,14,12,292,15*7C
$GPGSV,3,2,11,19,09,049,16,24,56,181,22,25,40,319,24,29,33,253,20*7D
$GPGSV,3,3,11,05,03,136,,15,,,,32,08,292,*7F
$GLGSV,2,1,07,74,33,136,21,86,55,241,23,75,80,040,20,85,58,012,28*68
$GLGSV,2,2,07,76,28,330,,84,10,032,,87,03,222,*5B
$GPGGA,154436.0,3205.408350,N,03458.624004,E,1,07,1.2,100.8,M,19.0,M,,*58
$GPVTG,340.1,T,337.2,M,1.8,N,3.3,K,A*29
$GPRMC,154436.0,A,3205.408350,N,03458.624004,E,1.8,340.1,120416,3.0,E,A*08
$GPGSA,A,2,02,06,12,19,24,25,29,,,,,,1.5,1.2,0.9*38
$GNGSA,A,2,02,06,12,19,24,25,29,,,,,,1.5,1.2,0.9*26
$GNGSA,A,2,,,,,,,,,,,,,1.5,1.2,0.9*23
$GPGSV,3,1,11,02,58,087,26,06,24,045,17,12,60,015,31,14,12,292,15*70
$GPGSV,3,2,11,19,09,049,13,24,56,181,22,25,40,319,24,29,33,253,17*7C
$GPGSV,3,3,11,05,03,136,,15,,,,32,08,292,*7F
$GLGSV,2,1,07,74,33,136,23,86,55,241,24,75,80,040,19,85,58,012,29*66
$GLGSV,2,2,07,76,28,330,,84,10,032,,87,03,222,*5B
$GPGGA,154437.0,3205.409026,N,03458.622846,E,1,07,1.2,100.6,M,19.0,M,,*5C
$GPVTG,321.0,T,318.1,M,2.8,N,5.2,K,A*25
$GPRMC,154437.0,A,3205.409026,N,03458.622846,E,2.8,321.0,120416,3.0,E,A*07
$GPGSA,A,2,02,06,12,19,24,25,29,,,,,,1.5,1.2,0.9*38
$GNGSA,A,2,02,06,12,19,24,25,29,,,,,,1.5,1.2,0.9*26
